~Version
 VERS              .         2.0                           : CWLS LOG ASCII STANDARD - VERSION 2.0
 WRAP              .         NO                            : ONE LINE PER DEPTH STEP
 DLM               .         SPACE                         : DELIMITING CHARACTER(SPACE TAB OR COMMA)
~Well Information
#_______________________________________________________________________________
#
#PARAMETER_NAME    .UNIT     VALUE                         : DESCRIPTION
#_______________________________________________________________________________
STRT               .m        0                             : First reference value
STOP               .m        2123.99879999932              : Last reference value
STEP               .m        0.0762                        : Step increment
NULL               .         -999.25                       : Missing value
COMP               .         EBN B.V                       : Company
WELL               .         BLT-01                        : Well name
FLD                .         Utrecht-Oost                  : Field
LOC                .                                       : Location
PROV               .         Utrecht                       : Province
SRVC               .         RED Drilling & Services       : Service Company
DATE               .         13-Feb-25                     : Date
UWI                .         BLT-01                        : Unique Well ID
APD                .m        8.629999978637695             : DEPTH ABOVE PD
API                .                                       : API NUMBER
BHT                .degF     167                           : BottomHole Temp
BLI                .m        2115                          : BotLog Interval
BS                 .in       8.5                           : Bit Size
CNTY               .                                       : COUNTY
CTRY               .         The Netherlands               : 
DCS                .         12-Feb-25                     : DateCircEndT
DFD                .g/cc     1.159999966621399             : MudDensity
DLAB               .         13-Feb-25                     : LogStartDateT
EDF                .m        8.629999978637695             : DF ELEV
EGL                .m        2.400000163650513             : GL ELEV
EKB                .m        8.629999978637695             : KB ELEV
EPD                .m        0                             : ELEVATION
LMF                .         DF                            : LOG MEAS FROM
LUL                .         EMMEN                         : LoggingUnitLoc
LUN                .         12102977                      : LoggingUnitNum
LATI               .dega     52.10100072                   : 
LONG               .dega     5.19171536                    : 
MST                .degF     64.40000152587891             : Rm Temperature
ORIGINALWELLNAME   .         BLT-01                        : 
PDAT               .         NAP                           : PERMANENT DATUM
PRODUCER-CODE      .         280                           : 
PRODUCER-NAME      .         Halliburton                   : 
RUN                .         2.1                           : Run Name
STAT               .         Utrecht-Oost                  : STATE NAME
TCS                .         18_25                         : TimeCircEndT
TDD                .m        2123                          : Depth Driller
TDL                .m        2123.800048828125             : Depth Logger
TLAB               .         02_25                         : LogStartTimeT
TLI                .m        1626                          : TopLog Interval
X                  .m        141577.55000000               : 
Y                  .m        456881.76000000               : 
~Parameter Information Block
#_______________________________________________________________________________
#
#PARAMETER_NAME    .UNIT     VALUE                         : DESCRIPTION
#_______________________________________________________________________________
SET                .         LQC                           : 
TLFamily_BITSIZE   .         Bit Size                      : 
TLFamily_CALI      .         Caliper                       : 
TLFamily_CASING_FLAG-(S)GR_NPHI_DTC .         General Flag                  : 
TLFamily_DRHO      .         Bulk Density Correction       : 
TLFamily_DTC       .         Compressional Slowness        : 
TLFamily_DTS       .         Shear Slowness                : 
TLFamily_DTST      .         Stoneley Slowness             : 
TLFamily_GR        .         Gamma Ray                     : 
TLFamily_GRKT      .         Gamma Ray Minus Uranium       : 
TLFamily_GRTO      .         Gamma Ray                     : 
TLFamily_MD        .         Measured Depth                : 
TLFamily_NPHI      .         Neutron Porosity              : 
TLFamily_PE        .         Photoelectric Factor          : 
TLFamily_POTA      .         Potassium Concentration       : 
TLFamily_RD        .         Resistivity - Deep            : 
TLFamily_RHOB      .         Bulk Density                  : 
TLFamily_RM        .         Resistivity - Medium          : 
TLFamily_RS        .         Resistivity - Shallow         : 
TLFamily_THOR      .         Thorium Concentration         : 
TLFamily_URAN      .         Uranium Concentration         : 
~Curve Information
#_______________________________________________________________________________
#
#LOGNAME           .UNIT     LOG_ID                        : DESCRIPTION
#_______________________________________________________________________________
MD                 .m                                      :  
BITSIZE            .in                                     :  
CALI               .in                                     :  
CASING_FLAG-(S)GR_NPHI_DTC .                                       :  
DRHO               .g/cm3                                  :  
DTC                .us/ft                                  :  
DTS                .us/ft                                  :  
DTST               .us/ft                                  :  
GR                 .gAPI                                   : Reference GR  
GRKT               .gAPI                                   : Uranium free GR  
GRTO               .gAPI                                   : Total GR from SGR Tool  
NPHI               .m3/m3                                  :  
PE                 .b/e                                    :  
POTA               .%                                      :  
RD                 .ohm.m                                  :  
RHOB               .g/cm3                                  :  
RM                 .ohm.m                                  :  
RS                 .ohm.m                                  :  
THOR               .ppm                                    :  
URAN               .ppm                                    :  
~Ascii
# ...
1330.223399999576 12.25      12.80159   -999.25    0.002873625 83.86249   154.3404   294.1794   111.9165   84.9131    143.948    0.2180995  3.272854   3.229888   4.398696   2.577445   4.386288   4.450989   10.46181   4.349891  
1330.299599999576 12.25      12.79793   -999.25    0.003175413 83.7204    154.7498   294.2044   108.3948   82.99857   140.5938   0.2084051  3.242634   3.118233   4.662113   2.573313   4.641265   4.677063   10.40977   4.463695  
1330.375799999576 12.25      12.79686   -999.25    0.003406655 83.13792   154.1117   294.2899   104.1111   81.07175   136.1404   0.1875803  3.198839   2.96121    5.026671   2.570471   4.995414   4.991771   10.56927   4.502375  
1330.451999999577 12.25      12.78702   -999.25    0.003114617 82.17413   152.2641   294.3344   100.6298   78.54107   131.6523   0.1664357  3.134643   2.770416   5.465759   2.570426   5.42331    5.370099   10.70575   4.614058  
1330.528199999577 12.25      12.7858    -999.25    0.002337843 81.26479   150.4932   294.3847   96.93109   76.48139   127.1221   0.1446433  3.071573   2.615021   5.920006   2.570416   5.865293   5.759048   10.81738   4.628188  
1330.604399999577 12.25      12.78869   -999.25    0.002074585 80.48685   147.3529   294.3878   94.56516   75.84264   122.9823   0.1306682  3.02142    2.511449   6.306421   2.574677   6.239669   6.084658   11.11476   4.508001  
1330.680599999577 12.25      12.79065   -999.25    0.001831532 79.70616   144.2914   294.3895   92.56515   76.44194   119.4358   0.1198762  2.976036   2.485673   6.54646    2.581257   6.469479   6.277918   11.41872   4.271069  
1330.756799999577 12.25      12.7851    -999.25    0.002485797 78.58116   142.1028   294.3584   90.50807   76.96852   117.2935   0.1174609  2.943242   2.46847    6.606534   2.586154   6.522442   6.3107     11.65991   4.096337  
1330.832999999576 12.25      12.79137   -999.25    0.003656148 77.49709   139.8716   294.1086   88.73132   78.45973   117.3873   0.1189918  2.921712   2.499242   6.508109   2.592788   6.420458   6.203814   11.96628   3.897928  
1330.909199999576 12.25      12.79793   -999.25    0.005928168 76.70385   138.1764   293.9051   87.2332    78.75046   118.4694   0.1277549  2.907764   2.529038   6.303921   2.594632   6.216006   6.005086   11.91303   3.878753  
1330.985399999576 12.25      12.81283   -999.25    0.008027684 76.83395   137.5199   293.6773   87.7972    79.42158   120.1476   0.1332282  2.905957   2.582502   6.062783   2.590894   5.976881   5.776202   11.86321   3.84011   
1331.061599999576 12.25      12.81443   -999.25    0.00955088 76.88846   136.5445   293.4156   90.16229   80.08737   121.6741   0.1479715  2.916268   2.650498   5.853777   2.584884   5.771006   5.579738   11.74274   3.843202  
1331.137799999576 12.25      12.81495   -999.25    0.0109457  76.93864   136.0781   292.7136   93.31966   79.44994   123.1196   0.1535105  2.934222   2.676153   5.727863   2.578584   5.648455   5.462386   11.42712   3.967612  
1331.213999999576 12.25      12.7986    -999.25    0.01120505 76.95075   135.602    292.0493   96.51229   78.01118   124.2219   0.1614399  2.963622   2.649156   5.7142     2.575115   5.638013   5.451267   11.11786   4.175095  
1331.290199999576 12.25      12.7884    -999.25    0.01155053 77.28364   136.0383   290.7623   97.36584   75.35803   124.3613   0.1590601  2.998783   2.593152   5.82356    2.576292   5.750392   5.556655   10.57755   4.489821  
1331.366399999576 12.25      12.79767   -999.25    0.01132685 77.32026   136.9479   291.7226   96.46697   71.64944   122.776    0.1579303  3.034652   2.495556   6.03858    2.5836     5.968744   5.763508   9.91433    4.882981  
1331.442599999576 12.25      12.81914   -999.25    0.01088604 77.42144   137.9611   292.746    94.27896   69.20031   120.7855   0.1457528  3.064347   2.420392   6.297403   2.59062    6.232296   6.016701   9.526991   5.137529  
1331.518799999576 12.25      12.83677   -999.25    0.01012077 77.27632   138.3763   293.2719   91.30371   67.25665   118.7668   0.1322944  3.077347   2.356253   6.497044   2.594986   6.439359   6.223488   9.240403   5.331739  
1331.594999999576 12.25      12.83859   -999.25    0.008679937 77.16864   138.9387   293.7506   89.25503   65.37931   117.9651   0.1245945  3.06681    2.304686   6.536802   2.595804   6.489733   6.291498   8.913748   5.514765  
1331.671199999576 12.25      12.83914   -999.25    0.008085471 77.27631   139.5155   293.9569   88.8228    65.13925   118.0654   0.127076   3.034023   2.319652   6.383245   2.590505   6.349195   6.187142   8.768038   5.537706  
1331.747399999576 12.25      12.84632   -999.25    0.007208479 77.43063   140.7761   294.0769   89.73425   65.98434   119.1893   0.1347238  2.98683    2.381491   6.074601   2.583077   6.054449   5.941303   8.729288   5.481595  
1331.823599999576 12.25      12.87662   -999.25    0.006834595 77.48171   141.7852   294.3589   92.84799   69.1359    121.5118   0.1445549  2.942105   2.503059   5.672356   2.575654   5.665641   5.607068   9.107688   5.267848  
1331.899799999576 12.25      12.9029    -999.25    0.007435445 78.36262   143.9468   294.2386   96.17154   73.44091   124.3646   0.1545102  2.925205   2.646128   5.247252   2.570549   5.252997   5.246881   9.734843   4.934536  
1331.975999999576 12.25      12.91762   -999.25    0.007865209 79.29404   146.2541   294.1216   99.23827   77.47544   127.2397   0.1641133  2.946163   2.785286   4.854896   2.569483   4.870724   4.911552   10.29899   4.647647  
1332.052199999576 12.25      12.92647   -999.25    0.008553088 80.03905   148.772    294.1176   101.5539   81.04691   130.3974   0.1754782  3.023425   2.918564   4.512006   2.574117   4.53509    4.612082   10.75091   4.470261  
1332.128399999576 12.25      12.91944   -999.25    0.009355261 81.45779   152.8842   294.0847   102.394    84.20319   132.3765   0.1877269  3.153479   3.022571   4.218421   2.585978   4.246626   4.349441   11.21598   4.370615  
1332.204599999576 12.25      12.89228   -999.25    0.009430288 82.80172   156.8268   294.0485   102.3302   87.00141   134.0464   0.2015689  3.314805   3.102541   3.974647   2.604217   4.006436   4.125836   11.68686   4.282462  
1332.280799999576 12.25      12.86326   -999.25    0.008724864 84.50881   160.9434   293.9958   101.7427   89.61003   134.664    0.2075645  3.474104   3.17991    3.769041   2.621376   3.803185   3.930926   12.11275   4.201865  
1332.356999999576 12.25      12.83841   -999.25    0.007406495 86.15789   164.8995   293.9353   101.5564   90.67599   135.7649   0.2156828  3.584546   3.21835    3.591204   2.63278    3.626643   3.755406   12.25511   4.224804  
1332.433199999576 12.25      12.8231    -999.25    0.005125757 87.23789   167.3667   293.7516   102.2765   91.20196   137.5605   0.2198967  3.612398   3.257467   3.446631   2.631743   3.482693   3.606982   12.23025   4.304272  
1332.509399999576 12.25      12.81712   -999.25    0.002526614 88.20874   170.1341   293.696    103.3818   91.4321    139.3335   0.2342151  3.558691   3.300279   3.346215   2.615794   3.382717   3.499305   12.0986    4.357913  
1332.585599999576 12.25      12.82276   -999.25    -0.0003330105 89.10955   172.7298   293.6267   104.911    92.0301    140.5812   0.2456072  3.454994   3.380783   3.299613   2.594354   3.336811   3.444136   11.89962   4.346001  
1332.661799999576 12.25      12.83803   -999.25    -0.002836436 89.80836   174.3113   293.2396   105.5883   92.43759   141.3984   0.2531607  3.335165   3.453748   3.312351   2.571883   3.350788   3.447798   11.67818   4.392949  
1332.737999999576 12.25      12.85957   -999.25    -0.005364649 90.60333   176.1354   292.818    107.0872   93.51237   142.0874   0.2605679  3.242826   3.542895   3.378277   2.556159   3.418455   3.503432   11.58209   4.361751  
1332.814199999576 12.25      12.82835   -999.25    -0.007771963 91.05634   176.5154   291.9859   108.4788   94.25089   142.8602   0.2534314  3.178847   3.629798   3.483209   2.54775    3.525322   3.595431   11.39429   4.325581  
1332.890399999576 12.25      12.81802   -999.25    -0.00959661 91.49039   176.9778   291.2293   110.0625   94.68365   143.693    0.2503796  3.144192   3.7159     3.61445    2.545969   3.658335   3.709687   11.11741   4.335013  
