~Version
 VERS              .         2.0                           : CWLS LOG ASCII STANDARD - VERSION 2.0
 WRAP              .         NO                            : ONE LINE PER DEPTH STEP
 DLM               .         SPACE                         : DELIMITING CHARACTER(SPACE TAB OR COMMA)
~Well Information
#_______________________________________________________________________________
#
#PARAMETER_NAME    .UNIT     VALUE                         : DESCRIPTION
#_______________________________________________________________________________
STRT               .m        0                             : First reference value
STOP               .m        2123.99879999932              : Last reference value
STEP               .m        0.0762                        : Step increment
NULL               .         -999.25                       : Missing value
COMP               .         EBN B.V                       : Company
WELL               .         BLT-01                        : Well name
FLD                .         Utrecht-Oost                  : Field
LOC                .                                       : Location
PROV               .         Utrecht                       : Province
SRVC               .         RED Drilling & Services       : Service Company
DATE               .         13-Feb-25                     : Date
UWI                .         BLT-01                        : Unique Well ID
APD                .m        8.629999978637695             : DEPTH ABOVE PD
API                .                                       : API NUMBER
BHT                .degF     167                           : BottomHole Temp
BLI                .m        2115                          : BotLog Interval
BS                 .in       8.5                           : Bit Size
CNTY               .                                       : COUNTY
CTRY               .         The Netherlands               : 
DCS                .         12-Feb-25                     : DateCircEndT
DFD                .g/cc     1.159999966621399             : MudDensity
DLAB               .         13-Feb-25                     : LogStartDateT
EDF                .m        8.629999978637695             : DF ELEV
EGL                .m        2.400000163650513             : GL ELEV
EKB                .m        8.629999978637695             : KB ELEV
EPD                .m        0                             : ELEVATION
LMF                .         DF                            : LOG MEAS FROM
LUL                .         EMMEN                         : LoggingUnitLoc
LUN                .         12102977                      : LoggingUnitNum
LATI               .dega     52.10100072                   : 
LONG               .dega     5.19171536                    : 
MST                .degF     64.40000152587891             : Rm Temperature
ORIGINALWELLNAME   .         BLT-01                        : 
PDAT               .         NAP                           : PERMANENT DATUM
PRODUCER-CODE      .         280                           : 
PRODUCER-NAME      .         Halliburton                   : 
RUN                .         2.1                           : Run Name
STAT               .         Utrecht-Oost                  : STATE NAME
TCS                .         18_25                         : TimeCircEndT
TDD                .m        2123                          : Depth Driller
TDL                .m        2123.800048828125             : Depth Logger
TLAB               .         02_25                         : LogStartTimeT
TLI                .m        1626                          : TopLog Interval
X                  .m        141577.55000000               : 
Y                  .m        456881.76000000               : 
~Parameter Information Block
#_______________________________________________________________________________
#
#PARAMETER_NAME    .UNIT     VALUE                         : DESCRIPTION
#_______________________________________________________________________________
SET                .         LQC                           : 
TLFamily_BITSIZE   .         Bit Size                      : 
TLFamily_CALI      .         Caliper                       : 
TLFamily_CASING_FLAG-(S)GR_NPHI_DTC .         General Flag                  : 
TLFamily_DRHO      .         Bulk Density Correction       : 
TLFamily_DTC       .         Compressional Slowness        : 
TLFamily_DTS       .         Shear Slowness                : 
TLFamily_DTST      .         Stoneley Slowness             : 
TLFamily_GR        .         Gamma Ray                     : 
TLFamily_GRKT      .         Gamma Ray Minus Uranium       : 
TLFamily_GRTO      .         Gamma Ray                     : 
TLFamily_MD        .         Measured Depth                : 
TLFamily_NPHI      .         Neutron Porosity              : 
TLFamily_PE        .         Photoelectric Factor          : 
TLFamily_POTA      .         Potassium Concentration       : 
TLFamily_RD        .         Resistivity - Deep            : 
TLFamily_RHOB      .         Bulk Density                  : 
TLFamily_RM        .         Resistivity - Medium          : 
TLFamily_RS        .         Resistivity - Shallow         : 
TLFamily_THOR      .         Thorium Concentration         : 
TLFamily_URAN      .         Uranium Concentration         : 
~Curve Information
#_______________________________________________________________________________
#
#LOGNAME           .UNIT     LOG_ID                        : DESCRIPTION
#_______________________________________________________________________________
MD                 .m                                      :  
BITSIZE            .in                                     :  
CALI               .in                                     :  
CASING_FLAG-(S)GR_NPHI_DTC .                                       :  
DRHO               .g/cm3                                  :  
DTC                .us/ft                                  :  
DTS                .us/ft                                  :  
DTST               .us/ft                                  :  
GR                 .gAPI                                   : Reference GR  
GRKT               .gAPI                                   : Uranium free GR  
GRTO               .gAPI                                   : Total GR from SGR Tool  
NPHI               .m3/m3                                  :  
PE                 .b/e                                    :  
POTA               .%                                      :  
RD                 .ohm.m                                  :  
RHOB               .g/cm3                                  :  
RM                 .ohm.m                                  :  
RS                 .ohm.m                                  :  
THOR               .ppm                                    :  
URAN               .ppm                                    :  
~Ascii
# ...
170.0783999999459 -999.25    -999.25    1          -999.25    -999.25    -999.25    -999.25    25.34293   22.50742   32.48441   0.5140107  -999.25    0.5847439  161.5757   -999.25    40.1704    732.8225   4.076112   0.8446115 
170.1545999999458 -999.25    -999.25    1          -999.25    -999.25    -999.25    -999.25    24.42979   22.59649   32.57339   0.5116204  -999.25    0.562583   182.5028   -999.25    45.46442   662.8856   4.208344   0.891175  
170.2307999999458 -999.25    -999.25    1          -999.25    -999.25    -999.25    -999.25    24.20151   22.50025   32.56559   0.5009191  -999.25    0.546797   239.5575   -999.25    43.30532   670.436    4.253938   0.9743991 
170.3069999999458 -999.25    -999.25    1          -999.25    -999.25    -999.25    -999.25    25.05422   22.14878   32.79565   0.4777173  -999.25    0.5206147  252.5344   -999.25    42.07944   550.4367   4.271154   1.080683  
170.3831999999458 -999.25    -999.25    1          -999.25    -999.25    -999.25    -999.25    26.39371   21.63421   32.98568   0.5020069  -999.25    0.4962171  248.0826   -999.25    42.85809   446.618    4.230303   1.175881  
170.4593999999457 -999.25    -999.25    1          -999.25    -999.25    -999.25    -999.25    27.55528   21.09347   33.41683   0.494921   -999.25    0.4805728  244.9874   -999.25    45.87505   414.9251   4.139926   1.276924  
170.5355999999457 -999.25    -999.25    1          -999.25    -999.25    -999.25    -999.25    27.64592   20.79694   33.45156   0.4995197  -999.25    0.4634779  240.0919   -999.25    47.97459   585.1536   4.130723   1.327443  
170.6117999999457 -999.25    -999.25    1          -999.25    -999.25    -999.25    -999.25    26.27286   20.30458   33.24823   0.4563926  -999.25    0.4370256  189.8721   -999.25    46.01559   576.0044   4.106309   1.386201  
170.6879999999457 -999.25    -999.25    1          -999.25    -999.25    -999.25    -999.25    24.65808   20.10186   32.76369   0.4715441  -999.25    0.4170252  169.4395   -999.25    45.9511    520.7983   4.139444   1.40067   
170.7641999999456 -999.25    -999.25    1          -999.25    -999.25    -999.25    -999.25    23.28502   19.3336    32.45533   0.4568432  -999.25    0.3809884  181.9097   -999.25    48.07836   505.2396   4.076519   1.476051  
170.8403999999456 -999.25    -999.25    1          -999.25    -999.25    -999.25    -999.25    22.42895   18.48153   32.16086   0.4815402  -999.25    0.3625661  203.6911   -999.25    46.9361    669.2372   3.904532   1.55208   
170.9165999999456 -999.25    -999.25    1          -999.25    -999.25    -999.25    -999.25    22.3965    17.85233   31.6317    0.4981041  -999.25    0.3426177  182.3257   -999.25    42.74735   487.7536   3.807613   1.610464  
170.9927999999456 -999.25    -999.25    1          -999.25    -999.25    -999.25    -999.25    22.95378   17.41075   30.97121   0.5464568  -999.25    0.3339106  165.2207   -999.25    39.11026   440.3607   3.714445   1.647743  
171.0689999999456 -999.25    -999.25    1          -999.25    -999.25    -999.25    -999.25    23.33313   16.89357   30.432     0.5562543  -999.25    0.3217982  158.4628   -999.25    37.29684   486.4583   3.614467   1.704256  
171.1451999999455 -999.25    -999.25    1          -999.25    -999.25    -999.25    -999.25    23.80313   16.49819   30.34626   0.5386961  -999.25    0.3214982  161.8983   -999.25    38.95674   477.7172   3.495571   1.730619  
171.2213999999455 -999.25    -999.25    1          -999.25    -999.25    -999.25    -999.25    23.76285   16.21489   30.36537   0.5046915  -999.25    0.3472596  173.9276   -999.25    36.01962   698.9152   3.28721    1.729168  
171.2975999999455 -999.25    -999.25    1          -999.25    -999.25    -999.25    -999.25    23.58156   16.06009   30.40585   0.5020587  -999.25    0.3747836  167.6411   -999.25    34.96807   816.4362   3.109588   1.738226  
171.3737999999454 -999.25    -999.25    1          -999.25    -999.25    -999.25    -999.25    23.24137   15.91959   30.34082   0.5214125  -999.25    0.3978675  161.4699   -999.25    36.33304   780.478    2.957381   1.744177  
171.4499999999454 -999.25    -999.25    1          -999.25    -999.25    -999.25    -999.25    22.72997   15.98185   30.21756   0.5276977  -999.25    0.4295866  180.994    -999.25    40.63329   673.5049   2.8259     1.703015  
171.5261999999454 -999.25    -999.25    1          -999.25    -999.25    -999.25    -999.25    22.05519   15.9726    30.2021    0.5191346  -999.25    0.4540512  181.4191   -999.25    43.01985   439.0356   2.70707    1.662079  
171.6023999999454 -999.25    -999.25    1          -999.25    -999.25    -999.25    -999.25    21.31326   16.27225   30.23151   0.4942281  -999.25    0.4864956  190.0506   -999.25    41.39928   413.2953   2.644426   1.604348  
171.6785999999454 -999.25    -999.25    1          -999.25    -999.25    -999.25    -999.25    21.2506    16.4671    30.26656   0.5255375  -999.25    0.5084899  196.1813   -999.25    37.17662   505.7927   2.599442   1.58337   
171.7547999999453 -999.25    -999.25    1          -999.25    -999.25    -999.25    -999.25    22.30473   16.34648   30.10632   0.5695043  -999.25    0.517426   193.0375   -999.25    32.04597   722.7733   2.520358   1.615689  
171.8309999999453 -999.25    -999.25    1          -999.25    -999.25    -999.25    -999.25    24.20039   16.42266   30.10395   0.6044429  -999.25    0.536081   229.0262   -999.25    28.34632   1020.864   2.455069   1.595992  
171.9071999999453 -999.25    -999.25    1          -999.25    -999.25    -999.25    -999.25    25.87224   16.57082   30.38708   0.6057125  -999.25    0.5448605  245.9473   -999.25    29.88275   1054.689   2.458509   1.5755    
171.9833999999452 -999.25    -999.25    1          -999.25    -999.25    -999.25    -999.25    26.47652   16.72528   30.86256   0.5722582  -999.25    0.5598306  238.0748   -999.25    34.39316   1033.424   2.434464   1.547333  
172.0595999999452 -999.25    -999.25    1          -999.25    -999.25    -999.25    -999.25    26.32209   16.85266   30.79427   0.5626777  -999.25    0.5736634  218.1569   -999.25    40.19837   1031.374   2.407572   1.532209  
172.1357999999452 -999.25    -999.25    1          -999.25    -999.25    -999.25    -999.25    25.57457   17.11548   30.40063   0.5148787  -999.25    0.5863926  259.3532   -999.25    40.26695   716.4097   2.427145   1.509883  
172.2119999999452 -999.25    -999.25    1          -999.25    -999.25    -999.25    -999.25    25.24222   17.58019   29.92334   0.4921924  -999.25    0.6080592  278.268    -999.25    46.30132   680.8702   2.465793   1.45989   
172.2881999999452 -999.25    -999.25    1          -999.25    -999.25    -999.25    -999.25    25.22543   17.53895   29.88703   0.496586   -999.25    0.6013387  278.7106   -999.25    49.97149   676.6491   2.48508    1.462863  
172.3643999999451 -999.25    -999.25    1          -999.25    -999.25    -999.25    -999.25    24.87293   17.32097   30.10523   0.5323017  -999.25    0.5876366  253.7181   -999.25    51.49903   710.1172   2.483724   1.476231  
172.4405999999451 -999.25    -999.25    1          -999.25    -999.25    -999.25    -999.25    24.41748   17.3113    30.3187    0.524825   -999.25    0.5843357  185.0799   -999.25    66.25508   1076.588   2.496445   1.480726  
172.5167999999451 -999.25    -999.25    1          -999.25    -999.25    -999.25    -999.25    24.39342   17.33045   30.6177    0.5145136  -999.25    0.583748   128.3737   -999.25    60.39258   823.0175   2.505009   1.504449  
172.5929999999451 -999.25    -999.25    1          -999.25    -999.25    -999.25    -999.25    24.42784   17.33882   30.94358   0.4764371  -999.25    0.5821484  132.6039   -999.25    52.22887   696.9217   2.515114   1.530924  
172.6691999999451 -999.25    -999.25    1          -999.25    -999.25    -999.25    -999.25    25.0531    17.45625   31.71493   0.4896735  -999.25    0.5861116  176.89     -999.25    42.40465   812.7758   2.53203    1.544866  
172.745399999945 -999.25    -999.25    1          -999.25    -999.25    -999.25    -999.25    25.32027   17.44188   32.41763   0.4617291  -999.25    0.5774571  195.5032   -999.25    28.60229   1547.244   2.5687     1.561941  
