~Version
 VERS              .         2.0                           : CWLS LOG ASCII STANDARD - VERSION 2.0
 WRAP              .         NO                            : ONE LINE PER DEPTH STEP
 DLM               .         SPACE                         : DELIMITING CHARACTER(SPACE TAB OR COMMA)
~Well Information
#_______________________________________________________________________________
#
#PARAMETER_NAME    .UNIT     VALUE                         : DESCRIPTION
#_______________________________________________________________________________
STRT               .m        0                             : First reference value
STOP               .m        2123.99879999932              : Last reference value
STEP               .m        0.0762                        : Step increment
NULL               .         -999.25                       : Missing value
COMP               .         EBN B.V                       : Company
WELL               .         BLT-01                        : Well name
FLD                .         Utrecht-Oost                  : Field
LOC                .                                       : Location
PROV               .         Utrecht                       : Province
SRVC               .         RED Drilling & Services       : Service Company
DATE               .         13-Feb-25                     : Date
UWI                .         BLT-01                        : Unique Well ID
APD                .m        8.629999978637695             : DEPTH ABOVE PD
API                .                                       : API NUMBER
BHT                .degF     167                           : BottomHole Temp
BLI                .m        2115                          : BotLog Interval
BS                 .in       8.5                           : Bit Size
CNTY               .                                       : COUNTY
CTRY               .         The Netherlands               : 
DCS                .         12-Feb-25                     : DateCircEndT
DFD                .g/cc     1.159999966621399             : MudDensity
DLAB               .         13-Feb-25                     : LogStartDateT
EDF                .m        8.629999978637695             : DF ELEV
EGL                .m        2.400000163650513             : GL ELEV
EKB                .m        8.629999978637695             : KB ELEV
EPD                .m        0                             : ELEVATION
LMF                .         DF                            : LOG MEAS FROM
LUL                .         EMMEN                         : LoggingUnitLoc
LUN                .         12102977                      : LoggingUnitNum
LATI               .dega     52.10100072                   : 
LONG               .dega     5.19171536                    : 
MST                .degF     64.40000152587891             : Rm Temperature
ORIGINALWELLNAME   .         BLT-01                        : 
PDAT               .         NAP                           : PERMANENT DATUM
PRODUCER-CODE      .         280                           : 
PRODUCER-NAME      .         Halliburton                   : 
RUN                .         2.1                           : Run Name
STAT               .         Utrecht-Oost                  : STATE NAME
TCS                .         18_25                         : TimeCircEndT
TDD                .m        2123                          : Depth Driller
TDL                .m        2123.800048828125             : Depth Logger
TLAB               .         02_25                         : LogStartTimeT
TLI                .m        1626                          : TopLog Interval
X                  .m        141577.55000000               : 
Y                  .m        456881.76000000               : 
~Parameter Information Block
#_______________________________________________________________________________
#
#PARAMETER_NAME    .UNIT     VALUE                         : DESCRIPTION
#_______________________________________________________________________________
SET                .         LQC                           : 
TLFamily_BITSIZE   .         Bit Size                      : 
TLFamily_CALI      .         Caliper                       : 
TLFamily_CASING_FLAG-(S)GR_NPHI_DTC .         General Flag                  : 
TLFamily_DRHO      .         Bulk Density Correction       : 
TLFamily_DTC       .         Compressional Slowness        : 
TLFamily_DTS       .         Shear Slowness                : 
TLFamily_DTST      .         Stoneley Slowness             : 
TLFamily_GR        .         Gamma Ray                     : 
TLFamily_GRKT      .         Gamma Ray Minus Uranium       : 
TLFamily_GRTO      .         Gamma Ray                     : 
TLFamily_MD        .         Measured Depth                : 
TLFamily_NPHI      .         Neutron Porosity              : 
TLFamily_PE        .         Photoelectric Factor          : 
TLFamily_POTA      .         Potassium Concentration       : 
TLFamily_RD        .         Resistivity - Deep            : 
TLFamily_RHOB      .         Bulk Density                  : 
TLFamily_RM        .         Resistivity - Medium          : 
TLFamily_RS        .         Resistivity - Shallow         : 
TLFamily_THOR      .         Thorium Concentration         : 
TLFamily_URAN      .         Uranium Concentration         : 
~Curve Information
#_______________________________________________________________________________
#
#LOGNAME           .UNIT     LOG_ID                        : DESCRIPTION
#_______________________________________________________________________________
MD                 .m                                      :  
BITSIZE            .in                                     :  
CALI               .in                                     :  
CASING_FLAG-(S)GR_NPHI_DTC .                                       :  
DRHO               .g/cm3                                  :  
DTC                .us/ft                                  :  
DTS                .us/ft                                  :  
DTST               .us/ft                                  :  
GR                 .gAPI                                   : Reference GR  
GRKT               .gAPI                                   : Uranium free GR  
GRTO               .gAPI                                   : Total GR from SGR Tool  
NPHI               .m3/m3                                  :  
PE                 .b/e                                    :  
POTA               .%                                      :  
RD                 .ohm.m                                  :  
RHOB               .g/cm3                                  :  
RM                 .ohm.m                                  :  
RS                 .ohm.m                                  :  
THOR               .ppm                                    :  
URAN               .ppm                                    :  
~Ascii
# ...
2116.226399999327 8.5        8.375419   -999.25    0.004487481 -999.25    -999.25    -999.25    188.5012   73.78506   196.7118   0.2172034  3.335344   2.47115    6.389336   2.673895   5.799488   5.439613   11.40733   13.6907   
2116.302599999327 8.5        8.374065   -999.25    -0.001739264 -999.25    -999.25    -999.25    189.0469   67.88976   191.0266   0.2045608  3.236529   2.306589   6.793553   2.671965   6.371836   6.053278   10.34049   14.23137  
2116.378799999326 8.5        8.370616   -999.25    -0.004822906 -999.25    -999.25    -999.25    188.7214   63.87991   187.5223   0.1982334  3.128475   2.211232   7.071848   2.667407   6.835371   6.613809   9.536124   14.63644  
2116.454999999326 8.5        8.365932   -999.25    -0.00448881 -999.25    -999.25    -999.25    187.5037   62.2248    187.3536   0.2008241  3.053474   2.187201   7.261306   2.663786   7.150717   7.083058   9.131365   14.86461  
2116.531199999326 8.5        8.366004   -999.25    -0.003636825 -999.25    -999.25    -999.25    186.2409   61.20758   189.3842   0.2049883  3.018858   2.177234   7.33085    2.661415   7.305078   7.447909   8.85995    15.12419  
2116.607399999326 8.5        8.368792   -999.25    -0.001966692 -999.25    -999.25    -999.25    185.6466   61.18173   192.9395   0.2112243  2.992017   2.191481   7.305739   2.659643   7.351285   7.742798   8.784541   15.43797  
2116.683599999326 8.5        8.370687   -999.25    0.0001926377 -999.25    -999.25    -999.25    -999.25    61.90446   196.9969   0.2187859  2.967272   2.218629   7.221114   2.658755   7.314155   7.932271   8.882615   15.75055  
2116.759799999326 8.5        8.368496   -999.25    0.002470981 -999.25    -999.25    -999.25    -999.25    63.09504   200.5526   0.2266653  2.940541   2.246466   7.119853   2.659044   7.230295   7.98956    9.124026   16.00975  
2116.835999999326 8.5        8.363482   -999.25    0.003844342 -999.25    -999.25    -999.25    -999.25    64.10305   202.3064   0.2291316  2.924299   2.248229   7.184385   2.661369   7.304801   7.976797   9.431854   16.19608  
2116.912199999326 8.5        8.36205    -999.25    0.004361372 -999.25    -999.25    -999.25    -999.25    64.93254   204.4152   0.2288563  2.933144   2.222895   7.355823   2.665519   7.497046   8.048414   9.812504   16.42723  
2116.988399999326 8.5        8.362224   -999.25    0.004338474 -999.25    -999.25    -999.25    -999.25    65.44939   206.21     0.2288271  2.952727   2.178267   7.485646   2.668476   7.648313   8.043206   10.18677   16.64648  
2117.064599999326 8.5        8.362123   -999.25    0.004015851 -999.25    -999.25    -999.25    -999.25    65.55614   207.2191   0.2308355  2.971171   2.120614   7.496962   2.668003   7.652911   7.868959   10.49424   16.82063  
2117.140799999326 8.5        8.356346   -999.25    0.003804092 -999.25    -999.25    -999.25    -999.25    65.09621   206.8002   0.2354138  2.962289   2.06244    7.496387   2.660426   7.461908   7.530013   10.62631   16.94552  
2117.216999999326 8.5        8.3507     -999.25    0.004229544 -999.25    -999.25    -999.25    -999.25    64.83282   206.3713   0.2417076  2.91366    2.00649    7.494588   2.644433   7.29562    7.263425   10.80944   16.93965  
2117.293199999326 8.5        8.348041   -999.25    0.004747463 -999.25    -999.25    -999.25    -999.25    64.73409   206.007    0.2457161  2.860455   1.959744   7.488529   2.627954   7.141944   7.04259    11.00051   16.86111  
2117.369399999326 8.5        8.348647   -999.25    0.005179372 -999.25    -999.25    -999.25    -999.25    64.80393   205.6926   0.2460711  2.821563   1.928574   7.489386   2.615402   6.989985   6.823922   11.17051   16.74078  
2117.445599999326 8.5        8.349748   -999.25    0.005567778 -999.25    -999.25    -999.25    -999.25    65.09995   205.271    0.2428737  2.822773   1.928223   7.544746   2.613192   6.814711   6.484374   11.26515   16.62023  
2117.521799999326 8.5        8.350084   -999.25    0.006550299 -999.25    -999.25    -999.25    -999.25    66.73397   205.1383   0.23755    2.879694   2.015186   7.789174   2.624676   6.849426   6.377389   11.3649    16.28955  
2117.597999999326 8.5        8.350822   -999.25    0.007605535 -999.25    -999.25    -999.25    -999.25    68.66219   205.319    0.2302169  2.959974   2.131137   8.264095   2.641723   7.190286   6.589183   11.41929   15.92462  
2117.674199999326 8.5        8.352026   -999.25    0.008571466 -999.25    -999.25    -999.25    -999.25    70.49745   205.8745   0.2210332  3.050021   2.253961   8.922449   2.660723   7.802146   7.074256   11.41193   15.59149  
2117.750399999326 8.5        8.353311   -999.25    0.009314104 -999.25    -999.25    -999.25    -999.25    71.82828   206.9349   0.2103035  3.133476   2.359602   9.573525   2.677128   8.496428   7.646182   11.3281    15.36143  
2117.826599999326 8.5        8.353745   -999.25    0.009795102 -999.25    -999.25    -999.25    -999.25    73.19297   208.1757   0.2008756  3.213202   2.467925   9.83606    2.690773   8.781233   8.040396   11.24224   15.15073  
2117.902799999326 8.5        8.353861   -999.25    0.01010509 -999.25    -999.25    -999.25    -999.25    75.15975   209.4351   0.1955013  3.291901   2.627633   9.875521   2.703329   8.870654   8.289357   11.10138   14.86335  
2117.978999999326 8.5        8.35211    -999.25    0.01018799 -999.25    -999.25    -999.25    -999.25    77.22945   210.5782   0.1940326  3.356111   2.804893   9.773156   2.713634   8.855661   8.465183   10.90948   14.55987  
2118.055199999326 8.5        8.346298   -999.25    0.009958396 -999.25    -999.25    -999.25    -999.25    78.62822   211.4404   0.1958195  3.386982   2.945693   9.626142   2.719892   8.840247   8.679678   10.68013   14.33787  
2118.131399999326 8.5        8.343709   -999.25    0.009686464 -999.25    -999.25    -999.25    -999.25    79.12874   211.3659   0.1973653  3.373299   2.998798   9.415462   2.720424   8.715014   8.866656   10.58506   14.24955  
2118.207599999326 8.5        8.345782   -999.25    0.009510782 -999.25    -999.25    -999.25    -999.25    79.7185    210.8009   0.198566   3.350498   3.023266   9.250996   2.717086   8.617124   8.953288   10.65375   14.17896  
2118.283799999326 8.5        8.349709   -999.25    0.009366076 -999.25    -999.25    -999.25    -999.25    80.12215   210.0662   0.1995842  3.332759   3.015843   -999.25    2.711282   -999.25    -999.25    10.81537   14.15603  
2118.359999999326 8.5        8.352922   -999.25    0.00918097 -999.25    -999.25    -999.25    -999.25    80.07254   209.4671   0.2005818  3.333088   2.97377    -999.25    2.704452   -999.25    -999.25    10.99927   14.20946  
2118.436199999326 8.5        8.356325   -999.25    0.008770367 -999.25    -999.25    -999.25    -999.25    79.39945   209.3469   0.2017384  3.368453   2.901255   -999.25    2.69914    -999.25    -999.25    11.13211   14.36217  
2118.512399999326 8.5        8.359389   -999.25    0.007669477 -999.25    -999.25    -999.25    -999.25    77.93465   209.6434   0.2018397  3.439133   2.768265   -999.25    2.694769   -999.25    -999.25    11.30367   14.70318  
2118.588599999326 8.5        8.360908   -999.25    0.006268071 -999.25    -999.25    -999.25    -999.25    76.03736   210.101    0.20125    3.512652   2.61201    -999.25    2.691361   -999.25    -999.25    11.45009   15.14132  
2118.664799999326 8.5        8.359875   -999.25    0.004832477 -999.25    -999.25    -999.25    -999.25    74.02579   210.5713   0.2004362  3.565696   2.461854   -999.25    2.688852   -999.25    -999.25    11.53184   15.60214  
2118.740999999326 8.5        8.353969   -999.25    0.003686245 -999.25    -999.25    -999.25    -999.25    72.71125   211.0287   0.2012386  3.562856   2.376768   -999.25    2.686735   -999.25    -999.25    11.52351   15.92427  
2118.817199999326 8.5        8.348525   -999.25    0.002483385 -999.25    -999.25    -999.25    -999.25    71.54716   211.933    0.199533   3.531006   2.30707    -999.25    2.683391   -999.25    -999.25    11.48939   16.21525  
2118.893399999326 8.5        8.344204   -999.25    0.0009621573 -999.25    -999.25    -999.25    -999.25    70.18115   212.9743   0.1959004  3.452774   2.241175   -999.25    2.678821   -999.25    -999.25    11.37408   16.50721  
