~Version
 VERS              .         2.0                           : CWLS LOG ASCII STANDARD - VERSION 2.0
 WRAP              .         NO                            : ONE LINE PER DEPTH STEP
 DLM               .         SPACE                         : DELIMITING CHARACTER(SPACE TAB OR COMMA)
~Well Information
#_______________________________________________________________________________
#
#PARAMETER_NAME    .UNIT     VALUE                         : DESCRIPTION
#_______________________________________________________________________________
STRT               .m        0                             : First reference value
STOP               .m        2123.99879999932              : Last reference value
STEP               .m        0.0762                        : Step increment
NULL               .         -999.25                       : Missing value
COMP               .         EBN B.V                       : Company
WELL               .         BLT-01                        : Well name
FLD                .         Utrecht-Oost                  : Field
LOC                .                                       : Location
PROV               .         Utrecht                       : Province
SRVC               .         RED Drilling & Services       : Service Company
DATE               .         13-Feb-25                     : Date
UWI                .         BLT-01                        : Unique Well ID
APD                .m        8.629999978637695             : DEPTH ABOVE PD
API                .                                       : API NUMBER
BHT                .degF     167                           : BottomHole Temp
BLI                .m        2115                          : BotLog Interval
BS                 .in       8.5                           : Bit Size
CNTY               .                                       : COUNTY
CTRY               .         The Netherlands               : 
DCS                .         12-Feb-25                     : DateCircEndT
DFD                .g/cc     1.159999966621399             : MudDensity
DLAB               .         13-Feb-25                     : LogStartDateT
EDF                .m        8.629999978637695             : DF ELEV
EGL                .m        2.400000163650513             : GL ELEV
EKB                .m        8.629999978637695             : KB ELEV
EPD                .m        0                             : ELEVATION
LMF                .         DF                            : LOG MEAS FROM
LUL                .         EMMEN                         : LoggingUnitLoc
LUN                .         12102977                      : LoggingUnitNum
LATI               .dega     52.10100072                   : 
LONG               .dega     5.19171536                    : 
MST                .degF     64.40000152587891             : Rm Temperature
ORIGINALWELLNAME   .         BLT-01                        : 
PDAT               .         NAP                           : PERMANENT DATUM
PRODUCER-CODE      .         280                           : 
PRODUCER-NAME      .         Halliburton                   : 
RUN                .         2.1                           : Run Name
STAT               .         Utrecht-Oost                  : STATE NAME
TCS                .         18_25                         : TimeCircEndT
TDD                .m        2123                          : Depth Driller
TDL                .m        2123.800048828125             : Depth Logger
TLAB               .         02_25                         : LogStartTimeT
TLI                .m        1626                          : TopLog Interval
X                  .m        141577.55000000               : 
Y                  .m        456881.76000000               : 
~Parameter Information Block
#_______________________________________________________________________________
#
#PARAMETER_NAME    .UNIT     VALUE                         : DESCRIPTION
#_______________________________________________________________________________
SET                .         LQC                           : 
TLFamily_BITSIZE   .         Bit Size                      : 
TLFamily_CALI      .         Caliper                       : 
TLFamily_CASING_FLAG-(S)GR_NPHI_DTC .         General Flag                  : 
TLFamily_DRHO      .         Bulk Density Correction       : 
TLFamily_DTC       .         Compressional Slowness        : 
TLFamily_DTS       .         Shear Slowness                : 
TLFamily_DTST      .         Stoneley Slowness             : 
TLFamily_GR        .         Gamma Ray                     : 
TLFamily_GRKT      .         Gamma Ray Minus Uranium       : 
TLFamily_GRTO      .         Gamma Ray                     : 
TLFamily_MD        .         Measured Depth                : 
TLFamily_NPHI      .         Neutron Porosity              : 
TLFamily_PE        .         Photoelectric Factor          : 
TLFamily_POTA      .         Potassium Concentration       : 
TLFamily_RD        .         Resistivity - Deep            : 
TLFamily_RHOB      .         Bulk Density                  : 
TLFamily_RM        .         Resistivity - Medium          : 
TLFamily_RS        .         Resistivity - Shallow         : 
TLFamily_THOR      .         Thorium Concentration         : 
TLFamily_URAN      .         Uranium Concentration         : 
~Curve Information
#_______________________________________________________________________________
#
#LOGNAME           .UNIT     LOG_ID                        : DESCRIPTION
#_______________________________________________________________________________
MD                 .m                                      :  
BITSIZE            .in                                     :  
CALI               .in                                     :  
CASING_FLAG-(S)GR_NPHI_DTC .                                       :  
DRHO               .g/cm3                                  :  
DTC                .us/ft                                  :  
DTS                .us/ft                                  :  
DTST               .us/ft                                  :  
GR                 .gAPI                                   : Reference GR  
GRKT               .gAPI                                   : Uranium free GR  
GRTO               .gAPI                                   : Total GR from SGR Tool  
NPHI               .m3/m3                                  :  
PE                 .b/e                                    :  
POTA               .%                                      :  
RD                 .ohm.m                                  :  
RHOB               .g/cm3                                  :  
RM                 .ohm.m                                  :  
RS                 .ohm.m                                  :  
THOR               .ppm                                    :  
URAN               .ppm                                    :  
~Ascii
# ...
430.6823999998629 17.5       -999.25    1          -999.25    165.219    -999.25    -999.25    56.63469   39.71807   72.20488   0.4751679  -999.25    1.609408   1.4007     -999.25    1.313752   1.463312   4.454884   3.309495  
430.7585999998629 17.5       -999.25    1          -999.25    165.1744   -999.25    -999.25    56.67749   38.60396   72.0176    0.4962415  -999.25    1.569235   1.307331   -999.25    1.196009   1.257373   4.306376   3.490277  
430.8347999998629 17.5       -999.25    1          -999.25    165.1907   -999.25    -999.25    56.55328   37.39915   72.15256   0.5355749  -999.25    1.518563   1.263186   -999.25    1.135737   1.142628   4.18003    3.663993  
430.9109999998628 17.5       -999.25    1          -999.25    165.2308   -999.25    -999.25    55.49075   36.32674   71.82014   0.5379062  -999.25    1.483432   1.270792   -999.25    1.17       1.174663   4.020288   3.784401  
430.9871999998628 17.5       -999.25    1          -999.25    165.3693   -999.25    -999.25    55.12734   35.49767   71.14386   0.5239458  -999.25    1.451239   1.278391   -999.25    1.17       1.220173   3.920656   3.843567  
431.0633999998628 17.5       -999.25    1          -999.25    165.4561   -999.25    -999.25    54.54236   35.27158   70.81147   0.4995932  -999.25    1.422012   1.273994   -999.25    1.139755   1.205855   3.990466   3.832671  
431.1395999998628 17.5       -999.25    1          -999.25    165.3131   -999.25    -999.25    55.33884   35.12668   70.68916   0.502686   -999.25    1.389905   1.294749   -999.25    1.19142    1.221622   4.09867    3.774899  
431.2157999998627 17.5       -999.25    1          -999.25    165.2334   -999.25    -999.25    55.67791   35.28162   70.36067   0.490797   -999.25    1.352772   1.33391    -999.25    1.301505   1.268871   4.321959   3.674952  
431.2919999998627 17.5       -999.25    1          -999.25    165.2252   -999.25    -999.25    55.64545   35.88266   69.98238   0.4768979  -999.25    1.335899   1.295908   -999.25    1.134382   1.200471   4.584976   3.522612  
431.3681999998627 17.5       -999.25    1          -999.25    165.1993   -999.25    -999.25    56.02145   36.95797   69.15811   0.4449786  -999.25    1.332556   1.205231   -999.25    1.00477    1.125004   4.928115   3.305875  
431.4443999998627 17.5       -999.25    1          -999.25    165.1777   -999.25    -999.25    55.76883   38.36802   68.83501   0.4328451  -999.25    1.339688   1.139738   -999.25    0.9129261  1.018532   5.323463   3.065675  
431.5205999998627 17.5       -999.25    1          -999.25    164.7056   -999.25    -999.25    56.11209   39.92991   68.83377   0.4501404  -999.25    1.334258   1.128383   -999.25    0.8583921  0.9101254  5.824638   2.845458  
431.5967999998626 17.5       -999.25    1          -999.25    164.1412   -999.25    -999.25    55.89472   41.15047   69.17272   0.471899   -999.25    1.348639   1.219949   -999.25    0.850795   0.8646485  6.127924   2.672502  
431.6729999998626 17.5       -999.25    1          -999.25    164.3639   -999.25    -999.25    55.62196   42.13349   69.36465   0.5135145  -999.25    1.36896    1.236792   -999.25    0.9233476  0.9464098  6.330703   2.526899  
431.7491999998626 17.5       -999.25    1          -999.25    164.6203   -999.25    -999.25    55.19476   42.01069   69.50321   0.5299429  -999.25    1.379123   1.253117   -999.25    1.035438   1.131114   6.245085   2.51841   
431.8253999998626 17.5       -999.25    1          -999.25    164.2078   -999.25    -999.25    55.12734   42.1697    69.41523   0.5402958  -999.25    1.391573   1.271996   -999.25    1.143977   1.366931   6.234389   2.482077  
431.9015999998625 17.5       -999.25    1          -999.25    163.8656   -999.25    -999.25    55.714     41.89502   69.65996   0.5185927  -999.25    1.40028    1.279601   -999.25    1.159199   1.474173   6.109471   2.484545  
431.9777999998625 17.5       -999.25    1          -999.25    163.356    -999.25    -999.25    56.41563   41.39628   69.39056   0.493202   -999.25    1.399242   1.236489   -999.25    1.087062   1.333035   5.96255    2.520183  
432.0539999998625 17.5       -999.25    1          -999.25    162.9938   -999.25    -999.25    57.07783   40.05666   69.38903   0.5105501  -999.25    1.410915   1.155716   -999.25    0.9693413  1.14772    5.499388   2.627988  
432.1301999998624 17.5       -999.25    1          -999.25    162.3428   -999.25    -999.25    57.4874    39.16264   68.92503   0.4769717  -999.25    1.42774    1.119938   -999.25    0.9223582  1.045433   5.14737    2.678743  
432.2063999998624 17.5       -999.25    1          -999.25    161.7728   -999.25    -999.25    57.23058   38.48476   68.8232    0.4770731  -999.25    1.449924   1.220076   -999.25    1.070071   1.130085   4.835653   2.700952  
432.2825999998624 17.5       -999.25    1          -999.25    161.014    -999.25    -999.25    56.63805   38.84027   68.61721   0.4342423  -999.25    1.480997   1.33249    -999.25    1.1749     1.257107   4.796321   2.61862   
432.3587999998624 17.5       -999.25    1          -999.25    160.9552   -999.25    -999.25    56.28555   39.1665    68.53024   0.4721681  -999.25    1.505506   1.364784   -999.25    1.199545   1.385903   4.77928    2.590303  
432.4349999998623 17.5       -999.25    1          -999.25    160.8404   -999.25    -999.25    55.85667   40.36093   68.48031   0.4444085  -999.25    1.541802   1.365585   -999.25    1.211934   1.423209   4.970553   2.494621  
432.5111999998624 17.5       -999.25    1          -999.25    160.5932   -999.25    -999.25    56.16133   41.44159   69.0497    0.4430394  -999.25    1.588113   1.377501   -999.25    1.270809   1.309178   5.079702   2.441572  
432.5873999998623 17.5       -999.25    1          -999.25    160.2844   -999.25    -999.25    55.96494   43.27571   70.17824   0.4509943  -999.25    1.643094   1.331738   -999.25    1.285992   1.293959   5.377031   2.331215  
432.6635999998623 17.5       -999.25    1          -999.25    160.2503   -999.25    -999.25    55.56544   44.69878   71.54543   0.4809564  -999.25    1.672398   1.342288   -999.25    1.273086   1.20359    5.671056   2.267648  
432.7397999998623 17.5       -999.25    1          -999.25    160.2466   -999.25    -999.25    55.13909   46.61452   72.64044   0.4978439  -999.25    1.689326   1.369557   -999.25    1.303336   1.197819   6.173771   2.169888  
432.8159999998622 17.5       -999.25    1          -999.25    160.6171   -999.25    -999.25    54.91416   48.16662   73.76867   0.5166004  -999.25    1.700796   1.402322   -999.25    1.408604   1.356061   6.591729   2.110535  
432.8921999998622 17.5       -999.25    1          -999.25    160.8522   -999.25    -999.25    55.82562   49.24231   74.63145   0.5175149  -999.25    1.71086    1.523391   -999.25    1.491956   1.626867   6.871384   2.052093  
432.9683999998622 17.5       -999.25    1          -999.25    161.0977   -999.25    -999.25    56.7866    49.3665    74.95853   0.5169103  -999.25    1.70064    1.655823   -999.25    1.655668   1.836129   6.957641   2.086086  
433.0445999998622 17.5       -999.25    1          -999.25    161.2617   -999.25    -999.25    56.86969   49.36429   74.64108   0.480926   -999.25    1.666126   1.81311    -999.25    1.843166   1.869106   7.120615   2.07227   
433.1207999998621 17.5       -999.25    1          -999.25    161.4396   -999.25    -999.25    56.24358   48.56329   73.61496   0.4779442  -999.25    1.617013   2.048578   -999.25    2.066561   1.773111   7.109761   2.09851   
433.1969999998621 17.5       -999.25    1          -999.25    161.5774   -999.25    -999.25    55.54278   47.61446   72.16411   0.4894004  -999.25    1.572289   2.617814   -999.25    2.537355   1.925113   7.033102   2.115175  
433.2731999998621 17.5       -999.25    1          -999.25    161.7755   -999.25    -999.25    55.3145    45.74149   70.28313   0.4846729  -999.25    1.533032   2.668417   -999.25    2.522782   1.88526    6.64926    2.192291  
433.349399999862 17.5       -999.25    1          -999.25    161.4184   -999.25    -999.25    55.54362   43.32232   68.10595   0.4958067  -999.25    1.474619   2.366317   -999.25    2.32305    1.723165   6.190033   2.317949  
