~Version
 VERS              .         2.0                           : CWLS LOG ASCII STANDARD - VERSION 2.0
 WRAP              .         NO                            : ONE LINE PER DEPTH STEP
 DLM               .         SPACE                         : DELIMITING CHARACTER(SPACE TAB OR COMMA)
~Well Information
#_______________________________________________________________________________
#
#PARAMETER_NAME    .UNIT     VALUE                         : DESCRIPTION
#_______________________________________________________________________________
STRT               .m        0                             : First reference value
STOP               .m        2123.99879999932              : Last reference value
STEP               .m        0.0762                        : Step increment
NULL               .         -999.25                       : Missing value
COMP               .         EBN B.V                       : Company
WELL               .         BLT-01                        : Well name
FLD                .         Utrecht-Oost                  : Field
LOC                .                                       : Location
PROV               .         Utrecht                       : Province
SRVC               .         RED Drilling & Services       : Service Company
DATE               .         13-Feb-25                     : Date
UWI                .         BLT-01                        : Unique Well ID
APD                .m        8.629999978637695             : DEPTH ABOVE PD
API                .                                       : API NUMBER
BHT                .degF     167                           : BottomHole Temp
BLI                .m        2115                          : BotLog Interval
BS                 .in       8.5                           : Bit Size
CNTY               .                                       : COUNTY
CTRY               .         The Netherlands               : 
DCS                .         12-Feb-25                     : DateCircEndT
DFD                .g/cc     1.159999966621399             : MudDensity
DLAB               .         13-Feb-25                     : LogStartDateT
EDF                .m        8.629999978637695             : DF ELEV
EGL                .m        2.400000163650513             : GL ELEV
EKB                .m        8.629999978637695             : KB ELEV
EPD                .m        0                             : ELEVATION
LMF                .         DF                            : LOG MEAS FROM
LUL                .         EMMEN                         : LoggingUnitLoc
LUN                .         12102977                      : LoggingUnitNum
LATI               .dega     52.10100072                   : 
LONG               .dega     5.19171536                    : 
MST                .degF     64.40000152587891             : Rm Temperature
ORIGINALWELLNAME   .         BLT-01                        : 
PDAT               .         NAP                           : PERMANENT DATUM
PRODUCER-CODE      .         280                           : 
PRODUCER-NAME      .         Halliburton                   : 
RUN                .         2.1                           : Run Name
STAT               .         Utrecht-Oost                  : STATE NAME
TCS                .         18_25                         : TimeCircEndT
TDD                .m        2123                          : Depth Driller
TDL                .m        2123.800048828125             : Depth Logger
TLAB               .         02_25                         : LogStartTimeT
TLI                .m        1626                          : TopLog Interval
X                  .m        141577.55000000               : 
Y                  .m        456881.76000000               : 
~Parameter Information Block
#_______________________________________________________________________________
#
#PARAMETER_NAME    .UNIT     VALUE                         : DESCRIPTION
#_______________________________________________________________________________
SET                .         LQC                           : 
TLFamily_BITSIZE   .         Bit Size                      : 
TLFamily_CALI      .         Caliper                       : 
TLFamily_CASING_FLAG-(S)GR_NPHI_DTC .         General Flag                  : 
TLFamily_DRHO      .         Bulk Density Correction       : 
TLFamily_DTC       .         Compressional Slowness        : 
TLFamily_DTS       .         Shear Slowness                : 
TLFamily_DTST      .         Stoneley Slowness             : 
TLFamily_GR        .         Gamma Ray                     : 
TLFamily_GRKT      .         Gamma Ray Minus Uranium       : 
TLFamily_GRTO      .         Gamma Ray                     : 
TLFamily_MD        .         Measured Depth                : 
TLFamily_NPHI      .         Neutron Porosity              : 
TLFamily_PE        .         Photoelectric Factor          : 
TLFamily_POTA      .         Potassium Concentration       : 
TLFamily_RD        .         Resistivity - Deep            : 
TLFamily_RHOB      .         Bulk Density                  : 
TLFamily_RM        .         Resistivity - Medium          : 
TLFamily_RS        .         Resistivity - Shallow         : 
TLFamily_THOR      .         Thorium Concentration         : 
TLFamily_URAN      .         Uranium Concentration         : 
~Curve Information
#_______________________________________________________________________________
#
#LOGNAME           .UNIT     LOG_ID                        : DESCRIPTION
#_______________________________________________________________________________
MD                 .m                                      :  
BITSIZE            .in                                     :  
CALI               .in                                     :  
CASING_FLAG-(S)GR_NPHI_DTC .                                       :  
DRHO               .g/cm3                                  :  
DTC                .us/ft                                  :  
DTS                .us/ft                                  :  
DTST               .us/ft                                  :  
GR                 .gAPI                                   : Reference GR  
GRKT               .gAPI                                   : Uranium free GR  
GRTO               .gAPI                                   : Total GR from SGR Tool  
NPHI               .m3/m3                                  :  
PE                 .b/e                                    :  
POTA               .%                                      :  
RD                 .ohm.m                                  :  
RHOB               .g/cm3                                  :  
RM                 .ohm.m                                  :  
RS                 .ohm.m                                  :  
THOR               .ppm                                    :  
URAN               .ppm                                    :  
~Ascii
# ...
1461.134999999535 12.25      12.16559   -999.25    0.006471644 79.9858    140.8261   293.8839   57.77024   43.70854   73.5022    0.1971769  2.379808   1.818823   1.044785   2.390046   1.137479   1.526031   4.691007   2.840679  
1461.211199999535 12.25      12.15357   -999.25    0.00559506 80.74976   141.0875   293.7735   59.61246   43.87424   76.06853   0.2001734  2.360688   1.827356   1.049408   2.383004   1.144762   1.551093   4.701647   2.925971  
1461.287399999535 12.25      12.14551   -999.25    0.002502756 81.36857   141.9937   293.4398   60.41817   44.20803   78.54816   0.2005878  2.357662   1.836385   1.057687   2.375622   1.156189   1.581427   4.761096   2.99869   
1461.363599999535 12.25      12.13508   -999.25    -0.0007369935 82.08101   142.9051   293.0535   60.55077   44.70091   79.87612   0.2108883  2.36752    1.828306   1.065672   2.368272   1.167064   1.609412   4.950083   3.05776   
1461.439799999535 12.25      12.12788   -999.25    -0.002920504 82.29301   143.78     292.2679   60.84452   45.36328   80.30629   0.2122401  2.37312    1.805332   1.072538   2.361489   1.17642    1.633772   5.26125    3.088412  
1461.515999999535 12.25      12.12636   -999.25    -0.004378101 82.53595   144.6      291.4267   60.67583   46.45768   79.50749   0.2139027  2.363275   1.814204   1.079236   2.355111   1.185383   1.656686   5.55282    3.002536  
1461.592199999535 12.25      12.12655   -999.25    -0.004901683 82.94543   145.6995   292.3492   61.15506   47.76156   78.65988   0.2093908  2.335667   1.849699   1.086033   2.350056   1.194292   1.678791   5.781693   2.830532  
1461.668399999535 12.25      12.13194   -999.25    -0.005452809 83.37991   146.7396   293.1472   61.62337   49.39573   77.07864   0.2099088  2.295005   1.894338   1.09289    2.346227   1.203095   1.699836   6.067724   2.565344  
1461.744599999535 12.25      12.13536   -999.25    -0.006712374 83.26537   146.9868   293.4946   61.87012   50.58667   75.69261   0.2026937  2.260813   1.946965   1.100256   2.345013   1.212363   1.720883   6.18071    2.314306  
1461.820799999535 12.25      12.14799   -999.25    -0.008031099 83.16      147.2971   293.6522   62.12862   51.98492   73.93607   0.1955732  2.242754   1.996457   1.10866    2.343871   1.222736   1.743047   6.371649   2.014569  
1461.896999999535 12.25      12.16099   -999.25    -0.008966136 83.09323   147.7926   293.7977   61.64352   52.87535   72.86981   0.1894614  2.241791   2.054793   1.117698   2.345305   1.233733   1.765399   6.365886   1.733061  
1461.973199999535 12.25      12.16484   -999.25    -0.009296321 82.98583   147.5233   293.9459   60.39803   53.90207   71.97382   0.1944265  2.254014   2.11575    1.125939   2.347265   1.243603   1.784456   6.389256   1.442903  
1462.049399999535 12.25      12.16724   -999.25    -0.009191642 82.91438   147.3746   294.1979   58.25031   54.49746   71.0041    0.2056909  2.26953    2.175092   1.132062   2.346888   1.250742   1.797119   6.288873   1.178433  
1462.125599999535 12.25      12.1682    -999.25    -0.008451547 82.58965   145.9857   294.2719   55.70141   54.88      69.63752   0.2063032  2.283276   2.221123   1.13668    2.348781   1.255885   1.804771   6.186786   0.9409871 
1462.201799999535 12.25      12.16698   -999.25    -0.007690724 82.27919   144.6673   294.3394   53.89779   54.77474   68.89974   0.2010941  2.298193   2.24068    1.141052   2.349113   1.260572   1.810471   6.06176    0.7900109 
1462.277999999535 12.25      12.16555   -999.25    -0.006760205 81.68333   143.6906   294.3898   52.62041   54.37415   68.35856   0.1927013  2.315006   2.232589   1.145059   2.349931   1.264654   1.813886   5.978023   0.6822408 
1462.354199999535 12.25      12.16722   -999.25    -0.005559919 81.4939    143.4124   294.3397   52.60614   53.8404    68.0173    0.1956405  2.34553    2.207936   1.147862   2.351771   1.267123   1.813126   5.932348   0.6185329 
1462.430399999535 12.25      12.16636   -999.25    -0.004099295 81.32356   143.1504   294.2897   52.13027   54.12975   66.90768   0.2013693  2.377953   2.184062   1.149308   2.353264   1.267793   1.807864   6.133856   0.5173624 
1462.506599999535 12.25      12.16571   -999.25    -0.002614646 80.86336   142.5191   294.2856   51.71986   54.01888   65.72385   0.2011642  2.405718   2.16446    1.149583   2.354251   1.266912   1.798713   6.193167   0.4838727 
1462.582799999534 12.25      12.16549   -999.25    -0.001258146 80.41326   141.887    294.2777   51.3833    54.37821   65.3638    0.2014018  2.423109   2.150394   1.149536   2.355139   1.265524   1.787732   6.36951    0.44111   
1462.658999999534 12.25      12.16279   -999.25    0.0000471  79.63974   139.6556   294.0042   51.34386   55.03408   65.93993   0.1943225  2.413921   2.174945   1.150554   2.356039   1.265332   1.778185   6.453096   0.3708009 
1462.735199999534 12.25      12.15718   -999.25    0.000979409 78.89585   137.6108   293.8657   52.14202   55.69554   66.53758   0.1974113  2.396968   2.189706   1.153281   2.35812    1.267122   1.771402   6.584867   0.3663122 
1462.811399999534 12.25      12.15759   -999.25    0.003000219 78.52131   136.8314   293.8277   52.85121   56.44286   67.07915   0.1952536  2.376212   2.210209   1.157446   2.364395   1.270577   1.766716   6.715551   0.4013159 
1462.887599999534 12.25      12.15459   -999.25    0.004383657 78.40932   136.455    293.3185   54.41899   57.19236   67.52572   0.1954108  2.371302   2.256328   1.164023   2.369284   1.276881   1.766322   6.725356   0.4384874 
1462.963799999534 12.25      12.14878   -999.25    0.004461857 78.22429   135.9649   292.8466   55.8785    57.19519   69.14695   0.1925529  2.39186    2.291796   1.174836   2.375398   1.288245   1.774406   6.558055   0.5877609 
1463.039999999534 12.25      12.14679   -999.25    0.003414337 78.4028    136.1229   291.6761   57.72911   57.20003   70.88186   0.1916101  2.425281   2.332255   1.188728   2.379691   1.303293   1.788588   6.367677   0.7150896 
1463.116199999534 12.25      12.14737   -999.25    -0.0002564438 78.4965    136.1097   290.42     60.22094   56.78956   72.55203   0.1938392  2.467258   2.358018   1.201958   2.379738   1.317555   1.801043   6.120359   0.8648633 
1463.192399999534 12.25      12.15075   -999.25    -0.003301213 78.83824   137.0414   290.8528   61.3783    55.46541   73.52099   0.1922211  2.487641   2.330482   1.212864   2.384972   1.329064   1.808542   5.847451   1.14987   
1463.268599999534 12.25      12.15919   -999.25    -0.005390149 79.16847   137.9632   291.2933   62.32166   54.10619   74.11952   0.1943895  2.484154   2.309275   1.222515   2.389583   1.339141   1.813697   5.53381    1.388609  
1463.344799999534 12.25      12.15805   -999.25    -0.005935166 79.18855   136.9743   290.5521   62.66072   52.43343   74.36009   0.1906901  2.458791   2.241795   1.23197    2.395147   1.349076   1.818817   5.344056   1.652076  
1463.420999999534 12.25      12.16196   -999.25    -0.005559616 79.30937   136.9097   290.994    62.04637   50.74928   74.3866    0.1881558  2.424339   2.165255   1.240633   2.402054   1.358169   1.822592   5.193791   1.894722  
1463.497199999534 12.25      12.1611    -999.25    -0.00594481 79.49459   136.8731   291.3545   62.08078   49.47664   73.8866    0.1791896  2.399712   2.114087   1.247717   2.402968   1.365488   1.82334    5.048588   2.047799  
1463.573399999534 12.25      12.16125   -999.25    -0.006181434 79.05312   136.8888   290.7542   61.29605   48.08632   73.29876   0.1739924  2.38762    2.034331   1.254823   2.403884   1.372959   1.824461   5.003212   2.247619  
1463.649599999534 12.25      12.1591    -999.25    -0.007108524 78.69742   136.969    290.1615   60.33172   47.14735   72.81796   0.1696829  2.399465   1.965634   1.264323   2.405146   1.383423   1.830866   5.043016   2.40763   
1463.725799999534 12.25      12.15728   -999.25    -0.006957829 78.41119   137.9199   291.5457   59.33298   46.74568   73.15562   0.1706833  2.41781    1.91039    1.275507   2.408409   1.39603    1.84117    5.182837   2.526914  
