~Version
 VERS              .         2.0                           : CWLS LOG ASCII STANDARD - VERSION 2.0
 WRAP              .         NO                            : ONE LINE PER DEPTH STEP
 DLM               .         SPACE                         : DELIMITING CHARACTER(SPACE TAB OR COMMA)
~Well Information
#_______________________________________________________________________________
#
#PARAMETER_NAME    .UNIT     VALUE                         : DESCRIPTION
#_______________________________________________________________________________
STRT               .m        0                             : First reference value
STOP               .m        2123.99879999932              : Last reference value
STEP               .m        0.0762                        : Step increment
NULL               .         -999.25                       : Missing value
COMP               .         EBN B.V                       : Company
WELL               .         BLT-01                        : Well name
FLD                .         Utrecht-Oost                  : Field
LOC                .                                       : Location
PROV               .         Utrecht                       : Province
SRVC               .         RED Drilling & Services       : Service Company
DATE               .         13-Feb-25                     : Date
UWI                .         BLT-01                        : Unique Well ID
APD                .m        8.629999978637695             : DEPTH ABOVE PD
API                .                                       : API NUMBER
BHT                .degF     167                           : BottomHole Temp
BLI                .m        2115                          : BotLog Interval
BS                 .in       8.5                           : Bit Size
CNTY               .                                       : COUNTY
CTRY               .         The Netherlands               : 
DCS                .         12-Feb-25                     : DateCircEndT
DFD                .g/cc     1.159999966621399             : MudDensity
DLAB               .         13-Feb-25                     : LogStartDateT
EDF                .m        8.629999978637695             : DF ELEV
EGL                .m        2.400000163650513             : GL ELEV
EKB                .m        8.629999978637695             : KB ELEV
EPD                .m        0                             : ELEVATION
LMF                .         DF                            : LOG MEAS FROM
LUL                .         EMMEN                         : LoggingUnitLoc
LUN                .         12102977                      : LoggingUnitNum
LATI               .dega     52.10100072                   : 
LONG               .dega     5.19171536                    : 
MST                .degF     64.40000152587891             : Rm Temperature
ORIGINALWELLNAME   .         BLT-01                        : 
PDAT               .         NAP                           : PERMANENT DATUM
PRODUCER-CODE      .         280                           : 
PRODUCER-NAME      .         Halliburton                   : 
RUN                .         2.1                           : Run Name
STAT               .         Utrecht-Oost                  : STATE NAME
TCS                .         18_25                         : TimeCircEndT
TDD                .m        2123                          : Depth Driller
TDL                .m        2123.800048828125             : Depth Logger
TLAB               .         02_25                         : LogStartTimeT
TLI                .m        1626                          : TopLog Interval
X                  .m        141577.55000000               : 
Y                  .m        456881.76000000               : 
~Parameter Information Block
#_______________________________________________________________________________
#
#PARAMETER_NAME    .UNIT     VALUE                         : DESCRIPTION
#_______________________________________________________________________________
SET                .         LQC                           : 
TLFamily_BITSIZE   .         Bit Size                      : 
TLFamily_CALI      .         Caliper                       : 
TLFamily_CASING_FLAG-(S)GR_NPHI_DTC .         General Flag                  : 
TLFamily_DRHO      .         Bulk Density Correction       : 
TLFamily_DTC       .         Compressional Slowness        : 
TLFamily_DTS       .         Shear Slowness                : 
TLFamily_DTST      .         Stoneley Slowness             : 
TLFamily_GR        .         Gamma Ray                     : 
TLFamily_GRKT      .         Gamma Ray Minus Uranium       : 
TLFamily_GRTO      .         Gamma Ray                     : 
TLFamily_MD        .         Measured Depth                : 
TLFamily_NPHI      .         Neutron Porosity              : 
TLFamily_PE        .         Photoelectric Factor          : 
TLFamily_POTA      .         Potassium Concentration       : 
TLFamily_RD        .         Resistivity - Deep            : 
TLFamily_RHOB      .         Bulk Density                  : 
TLFamily_RM        .         Resistivity - Medium          : 
TLFamily_RS        .         Resistivity - Shallow         : 
TLFamily_THOR      .         Thorium Concentration         : 
TLFamily_URAN      .         Uranium Concentration         : 
~Curve Information
#_______________________________________________________________________________
#
#LOGNAME           .UNIT     LOG_ID                        : DESCRIPTION
#_______________________________________________________________________________
MD                 .m                                      :  
BITSIZE            .in                                     :  
CALI               .in                                     :  
CASING_FLAG-(S)GR_NPHI_DTC .                                       :  
DRHO               .g/cm3                                  :  
DTC                .us/ft                                  :  
DTS                .us/ft                                  :  
DTST               .us/ft                                  :  
GR                 .gAPI                                   : Reference GR  
GRKT               .gAPI                                   : Uranium free GR  
GRTO               .gAPI                                   : Total GR from SGR Tool  
NPHI               .m3/m3                                  :  
PE                 .b/e                                    :  
POTA               .%                                      :  
RD                 .ohm.m                                  :  
RHOB               .g/cm3                                  :  
RM                 .ohm.m                                  :  
RS                 .ohm.m                                  :  
THOR               .ppm                                    :  
URAN               .ppm                                    :  
~Ascii
# ...
1987.676999999367 8.5        8.323508   -999.25    0.01451048 82.27348   143.0126   227.3267   46.84941   19.32603   35.21132   0.188154   2.119664   0.7882448  0.9648073  2.374677   0.8810543  0.7579755  2.321779   1.128536  
1987.753199999367 8.5        8.323504   -999.25    0.01413151 82.16789   142.9269   227.0035   48.05216   18.13979   35.18635   0.1852566  2.0967     0.7434213  0.9458167  2.370943   0.887293   0.7505245  2.162384   1.285193  
1987.829399999367 8.5        8.323634   -999.25    0.01401229 81.98669   142.6505   226.6518   48.77012   17.71519   35.52595   0.1845236  2.081924   0.7300004  0.8785531  2.368438   0.8266102  0.7207588  2.092882   1.361621  
1987.905599999367 8.5        8.324343   -999.25    0.01450622 81.77261   142.2196   226.4464   49.29732   17.62358   36.13196   0.1849934  2.076066   0.7315146  0.8196647  2.368278   0.7695581  0.6848673  2.056958   1.4123    
1987.981799999367 8.5        8.325333   -999.25    0.01519594 81.51521   141.6894   226.2483   49.62606   17.76624   36.73297   0.1856606  2.079104   0.7426409  0.766877   2.370159   0.7154675  0.6439993  2.048906   1.442939  
1988.057999999367 8.5        8.326241   -999.25    0.01558979 81.20286   141.1227   225.8976   49.74108   18.04849   37.0382    0.1854576  2.090663   0.7580372  0.7176582  2.373622   0.6625789  0.6000383  2.064377   1.457455  
1988.134199999367 8.5        8.326481   -999.25    0.01476496 80.85863   140.6241   225.3117   49.73103   18.32337   36.85709   0.1830343  2.107944   0.7701244  0.7404531  2.377708   0.670197   0.601892   2.093243   1.451868  
1988.210399999367 8.5        8.326097   -999.25    0.01278693 80.51562   140.1549   224.825    49.20269   18.88947   36.51316   0.1815617  2.134016   0.7994315  0.7620304  2.383077   0.6829159  0.6103873  2.131748   1.409225  
1988.286599999367 8.5        8.325389   -999.25    0.01070303 80.18644   139.6835   224.4341   48.44414   19.61543   36.10644   0.1809974  2.162273   0.8376744  0.7794089  2.388289   0.703955   0.6232964  2.178003   1.343655  
1988.362799999367 8.5        8.324627   -999.25    0.009314558 79.88338   139.1909   224.1344   47.70781   20.37919   35.72678   0.1810777  2.187433   0.8773449  0.79       2.39214    0.7329402  0.6368677  2.229339   1.267407  
1988.438999999367 8.5        8.324393   -999.25    0.009378912 79.64368   138.7046   223.9146   47.4955    20.88929   35.57289   0.1795837  2.202623   0.9018272  0.79       2.392566   0.7386809  0.6292311  2.27318    1.202319  
1988.515199999367 8.5        8.324553   -999.25    0.009537831 79.42992   138.2303   223.6849   48.14704   21.24308   35.70049   0.1778176  2.214353   0.9174965  0.7855185  2.391881   0.7355134  0.62308    2.30981    1.15663   
1988.591399999367 8.5        8.324827   -999.25    0.00929458 79.25584   137.7446   223.4401   49.0542    21.49069   35.87677   0.1768295  2.219429   0.9260005  0.7726721  2.39168    0.7226582  0.62       2.347128   1.126005  
1988.667599999367 8.5        8.325066   -999.25    0.008415231 79.13401   137.2528   223.1959   49.83875   21.69149   35.97782   0.1767642  2.216503   0.9289968  0.752952   2.392823   0.7029473  0.6197155  2.395894   1.10184   
1988.743799999367 8.5        8.325102   -999.25    0.006785198 79.09679   136.8286   223.0381   49.91299   22.03047   35.87984   0.1761792  2.20562    0.9311699  0.7396436  2.396195   0.6896407  0.6177791  2.491899   1.051377  
1988.819999999367 8.5        8.32519    -999.25    0.004931035 79.09074   136.4981   222.9862   49.66098   22.3817    35.71795   0.1750632  2.195269   0.9228908  0.7343197  2.399221   0.6843184  0.6127064  2.641327   0.9774579 
1988.896199999367 8.5        8.325179   -999.25    0.003749318 79.03112   136.1868   222.931    49.31525   22.59041   35.53597   0.1738387  2.191055   0.9061053  0.736492   2.400586   0.6864899  0.61       2.786416   0.9151162 
1988.972399999367 8.5        8.32513    -999.25    0.003504148 78.89415   135.8729   222.8032   48.8799    22.66674   35.32081   0.1724758  2.19346    0.8850973  0.7437256  2.400002   0.6945254  0.6104065  2.910021   0.866563  
1989.048599999367 8.5        8.325316   -999.25    0.004314464 78.67198   135.5477   222.4863   48.20652   22.74439   35.00605   0.1706019  2.199984   0.8703733  0.7494134  2.397564   0.7040855  0.6123489  3.004232   0.81394   
1989.124799999367 8.5        8.325303   -999.25    0.005225925 78.48627   135.2663   222.2334   46.49737   22.91439   34.25204   0.1690796  2.198812   0.8611172  0.75       2.39713    0.7117046  0.6158667  3.101469   0.7212856 
1989.200999999367 8.5        8.325115   -999.25    0.005716379 78.35798   134.9992   222.0875   44.86308   23.00113   33.60521   0.1680481  2.194337   0.8547584  0.75       2.397673   0.7057946  0.6140946  3.158852   0.6387993 
1989.277199999367 8.5        8.32486    -999.25    0.005774619 78.28874   134.7386   221.9991   43.72677   22.97784   33.21897   0.1678011  2.190611   0.8503856  0.7526217  2.398619   0.6943297  0.6115855  3.172301   0.577492  
1989.353399999367 8.5        8.324716   -999.25    0.005498561 78.27631   134.4781   221.8756   43.553     22.83856   33.22998   0.1687944  2.19347    0.8470113  0.7623163  2.39923    0.6927364  0.6174361  3.144631   0.5447706 
1989.429599999367 8.5        8.324328   -999.25    0.005090618 78.3284    134.3042   221.6736   44.54713   22.74933   32.97044   0.1686796  2.219422   0.8601035  0.793561   2.397209   0.7235269  0.6358156  3.054544   0.5122601 
1989.505799999367 8.5        8.323901   -999.25    0.004768624 78.36029   134.2134   221.5344   45.74387   22.75159   32.68432   0.1680616  2.247405   0.8793309  0.8150097  2.395089   0.7437369  0.647525   2.964047   0.4808951 
1989.581999999367 8.5        8.323728   -999.25    0.004595291 78.3686    134.1799   221.4597   46.73745   22.81224   32.57471   0.1674504  2.271098   0.9005017  0.8276192  2.393376   0.7558219  0.6558155  2.882641   0.4506731 
1989.658199999367 8.5        8.324082   -999.25    0.004638163 78.3558    134.174    221.4381   47.15247   22.88616   32.83345   0.1673779  2.285126   0.9195221  0.8343114  2.392496   0.7654446  0.6654834  2.815598   0.4223576 
1989.734399999367 8.5        8.324232   -999.25    0.005529348 78.38361   134.1483   221.2809   47.12902   22.70264   33.19372   0.1687103  2.298579   0.93302    0.8190136  2.393184   0.7746518  0.6767176  2.694044   0.4303917 
1989.810599999367 8.5        8.324279   -999.25    0.006708668 78.35852   134.1252   221.0552   46.99649   22.49178   33.19355   0.1702224  2.307784   0.9434029  0.799192   2.394672   0.7658877  0.6770738  2.578693   0.4512404 
1989.886799999367 8.5        8.323989   -999.25    0.007888075 78.27622   134.1179   220.8947   46.82971   22.29276   32.97047   0.1713139  2.310443   0.9499298  0.7725556  2.397047   0.7416521  0.6667361  2.485337   0.4740835 
1989.962999999367 8.5        8.323157   -999.25    0.008917523 78.14555   134.1374   220.8901   46.6203    22.09608   32.66143   0.1714658  2.303257   0.9514222  0.7403854  2.400519   0.7067359  0.6465182  2.416583   0.4948683 
1990.039199999366 8.5        8.321291   -999.25    0.01022904 78.07336   134.2046   221.0515   45.79798   21.55755   32.66205   0.1695555  2.268791   0.9409723  0.7237159  2.406627   0.6803777  0.6180387  2.297264   0.5452271 
1990.115399999366 8.5        8.320095   -999.25    0.01126033 78.08593   134.2768   221.1031   44.87265   20.93718   32.58897   0.1672676  2.231687   0.9230837  0.7322036  2.411661   0.6706726  0.6004463  2.187567   0.6100873 
1990.191599999366 8.5        8.320097   -999.25    0.01196275 78.13717   134.3181   221.0937   44.30481   20.43203   32.4121    0.1658777  2.20303    0.9060943  0.7689129  2.414938   0.6819165  0.6006983  2.10974    0.6679242 
1990.267799999366 8.5        8.321243   -999.25    0.01237624 78.19019   134.3165   221.0533   44.31035   20.10072   32.21092   0.1659058  2.187164   0.8925492  0.8338352  2.416471   0.716799   0.6225714  2.070095   0.7110735 
1990.343999999366 8.5        8.322244   -999.25    0.01278508 78.16106   134.2857   221.0282   45.00745   19.83548   32.41796   0.1673133  2.182924   0.8782148  0.9063641  2.417639   0.775986   0.670297   2.0549     0.7453562 
