~Version
 VERS              .         2.0                           : CWLS LOG ASCII STANDARD - VERSION 2.0
 WRAP              .         NO                            : ONE LINE PER DEPTH STEP
 DLM               .         SPACE                         : DELIMITING CHARACTER(SPACE TAB OR COMMA)
~Well Information
#_______________________________________________________________________________
#
#PARAMETER_NAME    .UNIT     VALUE                         : DESCRIPTION
#_______________________________________________________________________________
STRT               .m        0                             : First reference value
STOP               .m        2123.99879999932              : Last reference value
STEP               .m        0.0762                        : Step increment
NULL               .         -999.25                       : Missing value
COMP               .         EBN B.V                       : Company
WELL               .         BLT-01                        : Well name
FLD                .         Utrecht-Oost                  : Field
LOC                .                                       : Location
PROV               .         Utrecht                       : Province
SRVC               .         RED Drilling & Services       : Service Company
DATE               .         13-Feb-25                     : Date
UWI                .         BLT-01                        : Unique Well ID
APD                .m        8.629999978637695             : DEPTH ABOVE PD
API                .                                       : API NUMBER
BHT                .degF     167                           : BottomHole Temp
BLI                .m        2115                          : BotLog Interval
BS                 .in       8.5                           : Bit Size
CNTY               .                                       : COUNTY
CTRY               .         The Netherlands               : 
DCS                .         12-Feb-25                     : DateCircEndT
DFD                .g/cc     1.159999966621399             : MudDensity
DLAB               .         13-Feb-25                     : LogStartDateT
EDF                .m        8.629999978637695             : DF ELEV
EGL                .m        2.400000163650513             : GL ELEV
EKB                .m        8.629999978637695             : KB ELEV
EPD                .m        0                             : ELEVATION
LMF                .         DF                            : LOG MEAS FROM
LUL                .         EMMEN                         : LoggingUnitLoc
LUN                .         12102977                      : LoggingUnitNum
LATI               .dega     52.10100072                   : 
LONG               .dega     5.19171536                    : 
MST                .degF     64.40000152587891             : Rm Temperature
ORIGINALWELLNAME   .         BLT-01                        : 
PDAT               .         NAP                           : PERMANENT DATUM
PRODUCER-CODE      .         280                           : 
PRODUCER-NAME      .         Halliburton                   : 
RUN                .         2.1                           : Run Name
STAT               .         Utrecht-Oost                  : STATE NAME
TCS                .         18_25                         : TimeCircEndT
TDD                .m        2123                          : Depth Driller
TDL                .m        2123.800048828125             : Depth Logger
TLAB               .         02_25                         : LogStartTimeT
TLI                .m        1626                          : TopLog Interval
X                  .m        141577.55000000               : 
Y                  .m        456881.76000000               : 
~Parameter Information Block
#_______________________________________________________________________________
#
#PARAMETER_NAME    .UNIT     VALUE                         : DESCRIPTION
#_______________________________________________________________________________
SET                .         LQC                           : 
TLFamily_BITSIZE   .         Bit Size                      : 
TLFamily_CALI      .         Caliper                       : 
TLFamily_CASING_FLAG-(S)GR_NPHI_DTC .         General Flag                  : 
TLFamily_DRHO      .         Bulk Density Correction       : 
TLFamily_DTC       .         Compressional Slowness        : 
TLFamily_DTS       .         Shear Slowness                : 
TLFamily_DTST      .         Stoneley Slowness             : 
TLFamily_GR        .         Gamma Ray                     : 
TLFamily_GRKT      .         Gamma Ray Minus Uranium       : 
TLFamily_GRTO      .         Gamma Ray                     : 
TLFamily_MD        .         Measured Depth                : 
TLFamily_NPHI      .         Neutron Porosity              : 
TLFamily_PE        .         Photoelectric Factor          : 
TLFamily_POTA      .         Potassium Concentration       : 
TLFamily_RD        .         Resistivity - Deep            : 
TLFamily_RHOB      .         Bulk Density                  : 
TLFamily_RM        .         Resistivity - Medium          : 
TLFamily_RS        .         Resistivity - Shallow         : 
TLFamily_THOR      .         Thorium Concentration         : 
TLFamily_URAN      .         Uranium Concentration         : 
~Curve Information
#_______________________________________________________________________________
#
#LOGNAME           .UNIT     LOG_ID                        : DESCRIPTION
#_______________________________________________________________________________
MD                 .m                                      :  
BITSIZE            .in                                     :  
CALI               .in                                     :  
CASING_FLAG-(S)GR_NPHI_DTC .                                       :  
DRHO               .g/cm3                                  :  
DTC                .us/ft                                  :  
DTS                .us/ft                                  :  
DTST               .us/ft                                  :  
GR                 .gAPI                                   : Reference GR  
GRKT               .gAPI                                   : Uranium free GR  
GRTO               .gAPI                                   : Total GR from SGR Tool  
NPHI               .m3/m3                                  :  
PE                 .b/e                                    :  
POTA               .%                                      :  
RD                 .ohm.m                                  :  
RHOB               .g/cm3                                  :  
RM                 .ohm.m                                  :  
RS                 .ohm.m                                  :  
THOR               .ppm                                    :  
URAN               .ppm                                    :  
~Ascii
# ...
947.0897999996986 12.25      12.40075   -999.25    -0.008271071 100.273    206.9295   298.9289   57.81304   41.69762   74.30053   0.2160063  2.83521    1.326663   3.479239   2.446465   3.338728   3.480747   6.396484   3.27331   
947.1659999996986 12.25      12.39585   -999.25    -0.009735921 100.0792   207.5716   298.4926   57.73806   42.40312   73.64138   0.2163081  2.861501   1.321447   3.494055   2.448684   3.35021    3.493852   6.635725   3.123737  
947.2421999996985 12.25      12.38545   -999.25    -0.01105302 99.88374   208.4789   298.004    59.0686    43.66792   73.19479   0.218629   2.882764   1.347798   3.50022    2.448836   3.353859   3.499593   6.895274   2.921454  
947.3183999996985 12.25      12.37594   -999.25    -0.01155622 99.84315   208.4093   298.4003   60.93628   45.061     72.86624   0.2230387  2.900707   1.395522   3.495865   2.448144   3.347983   3.495752   7.092587   2.703653  
947.3945999996985 12.25      12.38372   -999.25    -0.01165416 99.79144   208.265    298.9133   62.56113   47.76024   73.27978   0.2160567  2.908435   1.483616   3.483498   2.444616   3.334917   3.484177   7.496078   2.335392  
947.4707999996984 12.25      12.40181   -999.25    -0.01098119 99.96783   207.8375   297.954    63.03113   49.6496    73.65293   0.2119084  2.913036   1.53909    3.469718   2.440698   3.32074    3.470775   7.807991   2.090539  
947.5469999996984 12.25      12.41056   -999.25    -0.009649877 100.1336   207.446    296.936    63.54477   50.85101   73.92068   0.2177408  2.92136    1.592576   3.461597   2.440913   3.31196    3.462228   7.919814   1.91825   
947.6231999996984 12.25      12.40008   -999.25    -0.008401246 99.96075   206.6874   296.4778   63.66115   51.88448   74.29609   0.2196306  2.916072   1.644031   3.463538   2.442372   3.312602   3.462984   7.989847   1.791791  
947.6993999996984 12.25      12.39238   -999.25    -0.006938808 99.84751   208.4494   296.6114   64.15465   53.05361   74.70578   0.2252691  2.911076   1.708991   3.475673   2.447236   3.322762   3.473644   8.03707    1.664727  
947.7755999996983 12.25      12.38753   -999.25    -0.005390282 99.73389   210.2775   296.8298   63.77753   54.38447   75.35888   0.2141116  2.907468   1.77955    3.493268   2.453586   3.338075   3.490189   8.107214   1.523908  
947.8517999996983 12.25      12.40247   -999.25    -0.004071298 99.81794   210.4235   297.5534   62.06875   55.03529   75.98236   0.2164058  2.898092   1.796212   3.509253   2.456146   3.352059   3.506332   8.226326   1.498756  
947.9279999996983 12.25      12.42265   -999.25    -0.002823419 99.90112   210.6213   298.1042   60.10819   54.24495   76.32339   0.2163721  2.910815   1.786986   3.518096   2.458997   3.359637   3.517117   8.029712   1.615533  
948.0041999996982 12.25      12.4169    -999.25    -0.001970688 100.0421   210.0291   296.5247   57.77163   54.07278   76.30749   0.2135184  2.931083   1.786333   3.51736    2.459675   3.358573   3.520366   7.980377   1.67572   
948.0803999996982 12.25      12.39962   -999.25    -0.001534295 100.0094   209.5349   295.5859   56.20386   53.38299   75.91928   0.2128523  2.951795   1.783398   3.507632   2.459269   3.349406   3.51655    7.784217   1.760197  
948.1565999996982 12.25      12.39191   -999.25    -0.001496335 100.0013   209.1246   294.6052   55.58838   52.44865   74.6674    0.2137627  2.975028   1.765656   3.492392   2.461776   3.335322   3.508694   7.583952   1.875982  
948.2327999996982 12.25      12.39883   -999.25    -0.001838931 100.0929   209.0332   294.252    55.98788   51.64783   74.08405   0.2123471  2.980034   1.737468   3.476743   2.461323   3.320988   3.501248   7.474098   1.973173  
948.3089999996981 12.25      12.4054    -999.25    -0.002342791 100.1787   208.8928   293.9077   57.05545   50.38896   73.42941   0.2129171  2.97483    1.701926   3.465112   2.459293   3.310457   3.497985   7.260072   2.122216  
948.3851999996981 12.25      12.41044   -999.25    -0.002890703 100.1897   209.2804   293.7727   58.78325   49.83577   73.69707   0.2071684  2.963354   1.705149   3.459477   2.457413   3.305549   3.50031    7.076785   2.183032  
948.4613999996981 12.25      12.39761   -999.25    -0.003478172 100.2788   209.0961   293.6524   60.09029   49.18332   73.33774   0.2119575  2.959884   1.688628   3.459045   2.454879   3.305553   3.506864   6.956557   2.282197  
948.537599999698 12.25      12.38891   -999.25    -0.003825825 100.3503   209.0025   293.7771   60.68338   48.67891   73.07832   0.2099979  2.970352   1.706578   3.461689   2.454411   3.308529   3.514893   6.717783   2.335191  
948.613799999698 12.25      12.37693   -999.25    -0.003811589 100.481    208.5707   293.9569   60.51888   48.70734   73.37742   0.2091806  2.985817   1.706757   3.465999   2.456746   3.313176   3.522368   6.725676   2.380541  
948.689999999698 12.25      12.38688   -999.25    -0.003719678 100.6243   208.1546   294.1451   60.3376    49.28996   74.61488   0.2054157  3.013685   1.719934   3.472209   2.460135   3.319705   3.529155   6.840742   2.343988  
948.766199999698 12.25      12.40545   -999.25    -0.003240787 100.5767   208.0047   294.4147   60.9374    49.70284   75.79707   0.2081508  3.035827   1.728577   3.482043   2.464197   3.329683   3.537047   6.925859   2.365263  
948.8423999996979 12.25      12.40627   -999.25    -0.002576787 100.5345   207.7883   294.6472   62.50854   51.11274   76.28841   0.2141265  3.05257    1.768312   3.497761   2.468854   3.34517    3.548844   7.166697   2.274246  
948.9185999996979 12.25      12.38876   -999.25    -0.00217541 100.5326   207.5165   294.7      63.79879   52.02186   76.10947   0.2149964  3.079488   1.799677   3.520674   2.472023   3.36735    3.566733   7.294581   2.22045   
948.994799999698 12.25      12.37689   -999.25    -0.001557407 100.396    206.9511   294.5969   63.95322   52.92373   76.28181   0.2141617  3.104968   1.832266   3.549674   2.473408   3.395181   3.590653   7.414361   2.127929  
949.070999999698 12.25      12.36457   -999.25    -0.00067546 100.2865   206.4513   294.5074   63.03337   52.72755   76.76813   0.2123732  3.131639   1.815412   3.580355   2.473134   3.424611   3.617306   7.43475    2.152077  
949.1471999996979 12.25      12.37175   -999.25    -0.0002121394 100.1188   204.985    294.4142   61.58197   53.12827   76.85592   0.2144224  3.156555   1.841249   3.605767   2.470551   3.44925    3.640658   7.434639   2.066339  
949.2233999996979 12.25      12.38878   -999.25    0.0003602471 99.94925   203.4911   294.315    60.5379    53.36857   76.4365    0.2069817  3.158612   1.854353   3.619354   2.468148   3.46307    3.65463    7.446186   2.0014    
949.2995999996979 12.25      12.38737   -999.25    0.0004002155 99.83437   202.3421   294.104    60.3348    53.85686   75.92623   0.2001807  3.135363   1.89346    3.619417   2.466042   3.46449    3.657407   7.409666   1.871326  
949.3757999996978 12.25      12.37177   -999.25    -0.0004023905 99.61759   201.3159   294.0003   60.10484   53.29102   75.86193   0.1983311  3.088642   1.901809   3.611338   2.46345    3.458423   3.653749   7.197889   1.842822  
949.4519999996978 12.25      12.35928   -999.25    -0.001003677 99.38065   200.1875   293.9191   60.13225   52.5341    75.36951   0.200159   3.026014   1.882653   3.602815   2.46323    3.45192    3.650556   7.058282   1.803366  
949.5281999996978 12.25      12.35054   -999.25    -0.001879413 99.54693   200.2848   293.7167   60.43719   51.08065   74.88847   0.2022671  2.973592   1.847201   3.598051   2.462761   3.448839   3.651314   6.784155   1.859053  
949.6043999996978 12.25      12.34944   -999.25    -0.002540295 99.63978   200.3608   293.5196   60.07742   50.19174   74.15209   0.203199   2.950821   1.818157   3.598763   2.462292   3.450777   3.657267   6.651767   1.856895  
949.6805999996977 12.25      12.37418   -999.25    -0.00326889 99.66166   200.7021   293.3493   59.2387    49.1123    73.70177   0.2092113  2.961314   1.776582   3.605278   2.463349   3.458045   3.66842    6.520858   1.896881  
