~Version
 VERS              .         2.0                           : CWLS LOG ASCII STANDARD - VERSION 2.0
 WRAP              .         NO                            : ONE LINE PER DEPTH STEP
 DLM               .         SPACE                         : DELIMITING CHARACTER(SPACE TAB OR COMMA)
~Well Information
#_______________________________________________________________________________
#
#PARAMETER_NAME    .UNIT     VALUE                         : DESCRIPTION
#_______________________________________________________________________________
STRT               .m        0                             : First reference value
STOP               .m        2123.99879999932              : Last reference value
STEP               .m        0.0762                        : Step increment
NULL               .         -999.25                       : Missing value
COMP               .         EBN B.V                       : Company
WELL               .         BLT-01                        : Well name
FLD                .         Utrecht-Oost                  : Field
LOC                .                                       : Location
PROV               .         Utrecht                       : Province
SRVC               .         RED Drilling & Services       : Service Company
DATE               .         13-Feb-25                     : Date
UWI                .         BLT-01                        : Unique Well ID
APD                .m        8.629999978637695             : DEPTH ABOVE PD
API                .                                       : API NUMBER
BHT                .degF     167                           : BottomHole Temp
BLI                .m        2115                          : BotLog Interval
BS                 .in       8.5                           : Bit Size
CNTY               .                                       : COUNTY
CTRY               .         The Netherlands               : 
DCS                .         12-Feb-25                     : DateCircEndT
DFD                .g/cc     1.159999966621399             : MudDensity
DLAB               .         13-Feb-25                     : LogStartDateT
EDF                .m        8.629999978637695             : DF ELEV
EGL                .m        2.400000163650513             : GL ELEV
EKB                .m        8.629999978637695             : KB ELEV
EPD                .m        0                             : ELEVATION
LMF                .         DF                            : LOG MEAS FROM
LUL                .         EMMEN                         : LoggingUnitLoc
LUN                .         12102977                      : LoggingUnitNum
LATI               .dega     52.10100072                   : 
LONG               .dega     5.19171536                    : 
MST                .degF     64.40000152587891             : Rm Temperature
ORIGINALWELLNAME   .         BLT-01                        : 
PDAT               .         NAP                           : PERMANENT DATUM
PRODUCER-CODE      .         280                           : 
PRODUCER-NAME      .         Halliburton                   : 
RUN                .         2.1                           : Run Name
STAT               .         Utrecht-Oost                  : STATE NAME
TCS                .         18_25                         : TimeCircEndT
TDD                .m        2123                          : Depth Driller
TDL                .m        2123.800048828125             : Depth Logger
TLAB               .         02_25                         : LogStartTimeT
TLI                .m        1626                          : TopLog Interval
X                  .m        141577.55000000               : 
Y                  .m        456881.76000000               : 
~Parameter Information Block
#_______________________________________________________________________________
#
#PARAMETER_NAME    .UNIT     VALUE                         : DESCRIPTION
#_______________________________________________________________________________
SET                .         LQC                           : 
TLFamily_BITSIZE   .         Bit Size                      : 
TLFamily_CALI      .         Caliper                       : 
TLFamily_CASING_FLAG-(S)GR_NPHI_DTC .         General Flag                  : 
TLFamily_DRHO      .         Bulk Density Correction       : 
TLFamily_DTC       .         Compressional Slowness        : 
TLFamily_DTS       .         Shear Slowness                : 
TLFamily_DTST      .         Stoneley Slowness             : 
TLFamily_GR        .         Gamma Ray                     : 
TLFamily_GRKT      .         Gamma Ray Minus Uranium       : 
TLFamily_GRTO      .         Gamma Ray                     : 
TLFamily_MD        .         Measured Depth                : 
TLFamily_NPHI      .         Neutron Porosity              : 
TLFamily_PE        .         Photoelectric Factor          : 
TLFamily_POTA      .         Potassium Concentration       : 
TLFamily_RD        .         Resistivity - Deep            : 
TLFamily_RHOB      .         Bulk Density                  : 
TLFamily_RM        .         Resistivity - Medium          : 
TLFamily_RS        .         Resistivity - Shallow         : 
TLFamily_THOR      .         Thorium Concentration         : 
TLFamily_URAN      .         Uranium Concentration         : 
~Curve Information
#_______________________________________________________________________________
#
#LOGNAME           .UNIT     LOG_ID                        : DESCRIPTION
#_______________________________________________________________________________
MD                 .m                                      :  
BITSIZE            .in                                     :  
CALI               .in                                     :  
CASING_FLAG-(S)GR_NPHI_DTC .                                       :  
DRHO               .g/cm3                                  :  
DTC                .us/ft                                  :  
DTS                .us/ft                                  :  
DTST               .us/ft                                  :  
GR                 .gAPI                                   : Reference GR  
GRKT               .gAPI                                   : Uranium free GR  
GRTO               .gAPI                                   : Total GR from SGR Tool  
NPHI               .m3/m3                                  :  
PE                 .b/e                                    :  
POTA               .%                                      :  
RD                 .ohm.m                                  :  
RHOB               .g/cm3                                  :  
RM                 .ohm.m                                  :  
RS                 .ohm.m                                  :  
THOR               .ppm                                    :  
URAN               .ppm                                    :  
~Ascii
# ...
1202.283599999617 12.25      12.53975   -999.25    -0.00130256 110.6344   244.3012   297.8944   107.409    90.49918   136.3589   0.304747   2.919104   2.545632   1.966301   2.478624   1.952624   1.964687   15.44145   4.173248  
1202.359799999617 12.25      12.55201   -999.25    -0.00186785 110.7621   244.6563   299.1559   108.801    91.86214   137.3546   0.3001215  2.881376   2.539474   1.963541   2.477879   1.949979   1.962672   15.88475   4.109317  
1202.435999999617 12.25      12.53412   -999.25    -0.002052629 110.8368   244.7992   300.3194   109.5172   94.48996   137.1289   0.299465   2.816633   2.598733   1.959976   2.47475    1.946555   1.960226   16.40239   3.917895  
1202.512199999617 12.25      12.54544   -999.25    -0.002151922 110.9369   244.9365   300.7073   109.7522   95.99081   137.6709   0.296657   2.755156   2.630811   1.952045   2.47056    1.938832   1.953993   16.7063    3.897427  
1202.588399999617 12.25      12.54544   -999.25    -0.002236428 111.2108   245.4973   300.0832   108.6802   98.12257   138.831    0.2979721  2.727624   2.685141   1.938668   2.46927    1.925736   1.942819   17.09647   3.779293  
1202.664599999617 12.25      12.54154   -999.25    -0.002283476 111.5323   246.1593   299.4441   106.7398   99.1209    140.6347   0.3033278  2.73716    2.710965   1.921198   2.467989   1.908582   1.927697   17.27722   3.743109  
1202.740799999617 12.25      12.5428    -999.25    -0.00318234 111.2395   246.6727   300.1871   104.7344   99.69086   141.6036   0.3170164  2.778782   2.717315   1.903056   2.465912   1.89074    1.911533   17.42043   3.731871  
1202.816999999617 12.25      12.54513   -999.25    -0.004383259 110.9752   247.2472   301.1015   103.4151   99.83163   142.0582   0.3211236  2.82785    2.707741   1.890038   2.465329   1.877918   1.899574   17.50837   3.822035  
1202.893199999617 12.25      12.5503    -999.25    -0.00537845 110.4341   246.9556   301.5629   103.4822   99.81752   142.0228   0.327287   2.845015   2.711168   1.88813    2.463796   1.876019   1.897396   17.48777   3.921742  
1202.969399999617 12.25      12.55532   -999.25    -0.00670137 109.9338   246.7751   301.9606   104.5632   99.40522   142.168    0.3203933  2.838243   2.703046   1.899986   2.463427   1.88766    1.907511   17.40096   4.04207   
1203.045599999617 12.25      12.54926   -999.25    -0.007676552 110.1771   245.9625   301.7299   106.2216   98.80996   142.3459   0.3202328  2.809635   2.691833   1.924387   2.465474   1.911633   1.928932   17.2733    4.136926  
1203.121799999617 12.25      12.54843   -999.25    -0.008737015 110.1245   245.2271   300.7398   107.0251   98.08765   142.935    0.3121597  2.777764   2.659152   1.956819   2.466512   1.943482   1.957751   17.20888   4.205161  
1203.197999999617 12.25      12.5482    -999.25    -0.0103686 109.9958   244.2045   299.5933   106.535    97.17905   143.2734   0.3057811  2.772634   2.622818   1.988495   2.46714    1.974541   1.986047   17.10503   4.251019  
1203.274199999617 12.25      12.54459   -999.25    -0.01176527 109.9283   243.1443   300.2382   105.7226   95.57799   143.255    0.292497   2.783922   2.586974   2.007583   2.466923   1.993154   2.002887   16.78823   4.376156  
1203.350399999617 12.25      12.53386   -999.25    -0.01251012 109.8757   242.016    300.9527   105.435    93.4643    143.2846   0.2898736  2.816959   2.547514   2.007651   2.464468   1.993005   2.002279   16.33284   4.507677  
1203.426599999617 12.25      12.53268   -999.25    -0.01226852 109.6612   240.4165   300.6855   107.3855   92.07816   143.1847   0.3026135  2.869653   2.496635   1.994838   2.462109   1.980124   1.989953   16.15276   4.531894  
1203.502799999617 12.25      12.5421    -999.25    -0.01056878 109.4972   238.81     300.4614   110.2827   90.2047    143.2996   0.3112629  2.923509   2.442619   1.981788   2.460424   1.96699    1.977744   15.83946   4.547863  
1203.578999999617 12.25      12.55378   -999.25    -0.007969559 109.1321   238.4912   298.8653   113.1463   88.58055   142.07     0.3070531  2.978082   2.401591   1.977214   2.458385   1.962178   1.973672   15.54034   4.541001  
1203.655199999617 12.25      12.55276   -999.25    -0.005261103 108.8454   238.3751   297.4514   113.5144   87.29967   140.9039   0.2989861  3.009101   2.379871   1.982922   2.459437   1.967455   1.979194   15.25407   4.509531  
1203.731399999617 12.25      12.54856   -999.25    -0.00269081 108.4511   238.3871   297.0389   111.4364   86.06231   139.1928   0.2911083  3.006822   2.352672   1.995453   2.463537   1.979409   1.990803   15.00695   4.487818  
1203.807599999617 12.25      12.54369   -999.25    -0.0008742325 108.4904   237.9399   297.3114   108.19     84.78678   138.2067   0.2888166  2.983557   2.34518    2.00896    2.468412   1.992282   2.002883   14.65481   4.485356  
1203.883799999617 12.25      12.54459   -999.25    0.0008805165 108.5237   237.3788   297.4324   104.5879   84.29945   136.6822   0.2886587  2.939703   2.354557   2.019839   2.474622   2.002535   2.012148   14.46249   4.407744  
1203.959999999617 12.25      12.53677   -999.25    0.002534495 108.5122   237.6433   298.7277   102.8533   84.01138   134.8801   0.293976   2.905149   2.386606   2.028665   2.479895   2.010742   2.019358   14.22326   4.292425  
1204.036199999617 12.25      12.5278    -999.25    0.003808266 108.5113   237.9778   299.8369   101.5642   83.88053   132.6838   0.2957059  2.885896   2.419318   2.036687   2.479826   2.018131   2.025776   14.02857   4.226186  
1204.112399999617 12.25      12.5237    -999.25    0.005118064 108.2478   237.8736   299.6363   101.1949   82.95107   131.3399   0.2842286  2.872412   2.452619   2.043102   2.478695   2.02392    2.03053    13.58814   4.241563  
1204.188599999617 12.25      12.52283   -999.25    0.005475161 108.0032   237.8093   299.4329   100.7249   81.17076   129.5316   0.2750193  2.869526   2.451016   2.048504   2.475747   2.028698   2.034071   13.05463   4.409923  
1204.264799999617 12.25      12.53054   -999.25    0.005138534 107.6667   237.1472   300.846    100.0222   80.36376   128.3804   0.2728836  2.86085    2.470157   2.05648    2.470475   2.036011   2.03988    12.71876   4.481387  
1204.340999999617 12.25      12.53662   -999.25    0.004937082 107.4505   236.4801   301.7973   99.36417   79.28556   126.3503   0.2814049  2.83926    2.464305   2.068647   2.470388   2.047467   2.049647   12.41881   4.610372  
1204.417199999617 12.25      12.54136   -999.25    0.004237378 107.1957   235.5695   303.0052   99.49845   78.69743   126.0443   0.2838311  2.814808   2.463852   2.081514   2.469482   2.059646   2.060162   12.24217   4.66844   
1204.493399999617 12.25      12.53189   -999.25    0.003841199 107.239    234.927    303.1821   100.5862   78.18069   126.4596   0.2766224  2.787248   2.445325   2.089783   2.469467   2.067336   2.066488   12.17303   4.711922  
1204.569599999617 12.25      12.52665   -999.25    0.00373838 107.247    234.2522   303.4906   102.0096   77.95206   128.0704   0.265392   2.768832   2.448449   2.091371   2.474119   2.068496   2.066845   12.08883   4.725059  
1204.645799999617 12.25      12.52883   -999.25    0.00325776 107.2876   232.9849   302.9554   103.9545   78.11673   129.061    0.2691944  2.77427    2.44825    2.088814   2.476014   2.065633   2.063917   12.1402    4.733388  
1204.721999999617 12.25      12.52591   -999.25    0.003198792 107.2931   231.6461   302.5946   104.0955   79.39098   129.9145   0.273015   2.799697   2.465169   2.084063   2.480475   2.060683   2.059803   12.44772   4.598639  
1204.798199999617 12.25      12.51579   -999.25    0.002742457 107.4067   231.4835   302.04     103.5718   80.70103   130.7054   0.279588   2.842399   2.479144   2.073829   2.485682   2.050406   2.051466   12.78006   4.492663  
1204.874399999617 12.25      12.51459   -999.25    0.002357083 107.4952   231.3538   301.5105   103.5516   82.57604   132.5078   0.2831926  2.894243   2.50491    2.053968   2.485703   2.030734   2.034868   13.22824   4.270298  
1204.950599999617 12.25      12.50856   -999.25    0.001760849 107.6321   232.243    300.2039   103.5203   82.28601   133.8776   0.2858849  2.942708   2.479871   2.024176   2.484162   2.001393   2.00943    13.25919   4.33322   
