~Version
 VERS              .         2.0                           : CWLS LOG ASCII STANDARD - VERSION 2.0
 WRAP              .         NO                            : ONE LINE PER DEPTH STEP
 DLM               .         SPACE                         : DELIMITING CHARACTER(SPACE TAB OR COMMA)
~Well Information
#_______________________________________________________________________________
#
#PARAMETER_NAME    .UNIT     VALUE                         : DESCRIPTION
#_______________________________________________________________________________
STRT               .m        0                             : First reference value
STOP               .m        2123.99879999932              : Last reference value
STEP               .m        0.0762                        : Step increment
NULL               .         -999.25                       : Missing value
COMP               .         EBN B.V                       : Company
WELL               .         BLT-01                        : Well name
FLD                .         Utrecht-Oost                  : Field
LOC                .                                       : Location
PROV               .         Utrecht                       : Province
SRVC               .         RED Drilling & Services       : Service Company
DATE               .         13-Feb-25                     : Date
UWI                .         BLT-01                        : Unique Well ID
APD                .m        8.629999978637695             : DEPTH ABOVE PD
API                .                                       : API NUMBER
BHT                .degF     167                           : BottomHole Temp
BLI                .m        2115                          : BotLog Interval
BS                 .in       8.5                           : Bit Size
CNTY               .                                       : COUNTY
CTRY               .         The Netherlands               : 
DCS                .         12-Feb-25                     : DateCircEndT
DFD                .g/cc     1.159999966621399             : MudDensity
DLAB               .         13-Feb-25                     : LogStartDateT
EDF                .m        8.629999978637695             : DF ELEV
EGL                .m        2.400000163650513             : GL ELEV
EKB                .m        8.629999978637695             : KB ELEV
EPD                .m        0                             : ELEVATION
LMF                .         DF                            : LOG MEAS FROM
LUL                .         EMMEN                         : LoggingUnitLoc
LUN                .         12102977                      : LoggingUnitNum
LATI               .dega     52.10100072                   : 
LONG               .dega     5.19171536                    : 
MST                .degF     64.40000152587891             : Rm Temperature
ORIGINALWELLNAME   .         BLT-01                        : 
PDAT               .         NAP                           : PERMANENT DATUM
PRODUCER-CODE      .         280                           : 
PRODUCER-NAME      .         Halliburton                   : 
RUN                .         2.1                           : Run Name
STAT               .         Utrecht-Oost                  : STATE NAME
TCS                .         18_25                         : TimeCircEndT
TDD                .m        2123                          : Depth Driller
TDL                .m        2123.800048828125             : Depth Logger
TLAB               .         02_25                         : LogStartTimeT
TLI                .m        1626                          : TopLog Interval
X                  .m        141577.55000000               : 
Y                  .m        456881.76000000               : 
~Parameter Information Block
#_______________________________________________________________________________
#
#PARAMETER_NAME    .UNIT     VALUE                         : DESCRIPTION
#_______________________________________________________________________________
SET                .         LQC                           : 
TLFamily_BITSIZE   .         Bit Size                      : 
TLFamily_CALI      .         Caliper                       : 
TLFamily_CASING_FLAG-(S)GR_NPHI_DTC .         General Flag                  : 
TLFamily_DRHO      .         Bulk Density Correction       : 
TLFamily_DTC       .         Compressional Slowness        : 
TLFamily_DTS       .         Shear Slowness                : 
TLFamily_DTST      .         Stoneley Slowness             : 
TLFamily_GR        .         Gamma Ray                     : 
TLFamily_GRKT      .         Gamma Ray Minus Uranium       : 
TLFamily_GRTO      .         Gamma Ray                     : 
TLFamily_MD        .         Measured Depth                : 
TLFamily_NPHI      .         Neutron Porosity              : 
TLFamily_PE        .         Photoelectric Factor          : 
TLFamily_POTA      .         Potassium Concentration       : 
TLFamily_RD        .         Resistivity - Deep            : 
TLFamily_RHOB      .         Bulk Density                  : 
TLFamily_RM        .         Resistivity - Medium          : 
TLFamily_RS        .         Resistivity - Shallow         : 
TLFamily_THOR      .         Thorium Concentration         : 
TLFamily_URAN      .         Uranium Concentration         : 
~Curve Information
#_______________________________________________________________________________
#
#LOGNAME           .UNIT     LOG_ID                        : DESCRIPTION
#_______________________________________________________________________________
MD                 .m                                      :  
BITSIZE            .in                                     :  
CALI               .in                                     :  
CASING_FLAG-(S)GR_NPHI_DTC .                                       :  
DRHO               .g/cm3                                  :  
DTC                .us/ft                                  :  
DTS                .us/ft                                  :  
DTST               .us/ft                                  :  
GR                 .gAPI                                   : Reference GR  
GRKT               .gAPI                                   : Uranium free GR  
GRTO               .gAPI                                   : Total GR from SGR Tool  
NPHI               .m3/m3                                  :  
PE                 .b/e                                    :  
POTA               .%                                      :  
RD                 .ohm.m                                  :  
RHOB               .g/cm3                                  :  
RM                 .ohm.m                                  :  
RS                 .ohm.m                                  :  
THOR               .ppm                                    :  
URAN               .ppm                                    :  
~Ascii
# ...
816.1019999997402 12.25      12.54016   -999.25    -0.01659695 76.82241   158.2504   272.0025   24.88412   24.12084   33.38391   0.08912208 4.473245   0.9522083  8.717671   2.61241    8.672764   8.825069   2.817309   0.7677407 
816.1781999997402 12.25      12.54459   -999.25    -0.01820698 76.77163   158.1402   272.1659   25.41455   23.77004   34.01593   0.0890504  4.527717   0.9412719  8.526055   2.611907   8.479508   8.641151   2.762457   0.8645797 
816.2543999997401 12.25      12.54779   -999.25    -0.01820973 76.73021   158.18     272.3305   26.81      22.77018   34.85095   0.08894239 4.566056   0.8999448  8.248926   2.607533   8.201067   8.361479   2.654433   1.057596  
816.3305999997401 12.25      12.54308   -999.25    -0.01806149 76.73352   157.9842   272.408    28.10696   21.90053   35.64207   0.09540844 4.564547   0.8641015  7.968218   2.59916    7.918782   8.06865    2.560014   1.219533  
816.4067999997401 12.25      12.54216   -999.25    -0.01621348 76.47277   158.1611   272.3444   29.28084   20.80326   36.70251   0.09783207 4.532377   0.8078766  7.772579   2.593677   7.720418   7.853515   2.493093   1.400069  
816.4829999997401 12.25      12.54433   -999.25    -0.01417665 76.21701   158.3359   272.2654   29.73853   19.65206   36.91027   0.09972277 4.4682     0.7462243  7.722483   2.590376   7.665687   7.777178   2.435497   1.574868  
816.5591999997401 12.25      12.53945   -999.25    -0.01287991 76.03197   158.1439   271.8365   29.24615   18.88318   36.43518   0.09627637 4.409075   0.6865647  7.844737   2.593887   7.780718   7.862974   2.484687   1.698866  
816.6353999997401 12.25      12.53615   -999.25    -0.01149394 75.84952   157.9458   271.4392   28.48296   18.37381   35.07621   0.0933564  4.38203    0.6361203  8.136965   2.602228   8.062676   8.096114   2.56908    1.805277  
816.7115999997401 12.25      12.53555   -999.25    -0.01149414 75.53989   157.8638   271.4225   27.25873   18.39003   33.90416   0.08727641 4.385592   0.6124122  8.556252   2.609821   8.468755   8.468123   2.686419   1.796915  
816.7877999997401 12.25      12.54415   -999.25    -0.01247772 75.16137   156.7864   271.5499   25.95952   18.62284   32.90213   0.08098875 4.44432    0.6051338  9.006941   2.615028   8.904772   8.949914   2.791698   1.744868  
816.86399999974 12.25      12.55      -999.25    -0.01296746 74.72329   155.619    271.6998   25.01058   19.14462   32.56473   0.07527716 4.530798   0.6046938  9.372703   2.618474   9.257882   9.32495    2.952439   1.646202  
816.94019999974 12.25      12.54952   -999.25    -0.01363755 74.93682   154.9029   271.682    24.84608   20.05462   31.91828   0.07127468 4.619345   0.6294891  9.569113   2.617617   9.445904   9.506644   3.111502   1.514413  
817.01639999974 12.25      12.55282   -999.25    -0.01444248 75.1742    154.3118   271.683    25.18739   20.84863   31.8274    0.07143523 4.697003   0.6692402  9.57721    2.614478   9.449491   9.503732   3.164347   1.434504  
817.0925999997399 12.25      12.54794   -999.25    -0.0147772 75.62776   155.2508   271.664    25.87448   21.82499   31.82368   0.07508126 4.720571   0.7329144  9.438965   2.610828   9.309785   9.365882   3.159148   1.336045  
817.1687999997399 12.25      12.54071   -999.25    -0.01579509 76.31618   157.2421   271.5038   26.30978   22.69607   32.65643   0.07851446 4.688494   0.7987316  9.211044   2.604029   9.082755   9.146907   3.111785   1.243451  
817.2449999997399 12.25      12.54076   -999.25    -0.0166009 77.08678   159.3486   271.3234   26.37916   23.1493    33.72588   0.08459475 4.613339   0.8503094  8.925103   2.601133   8.800006   8.856      3.004891   1.22737   
817.3211999997399 12.25      12.54225   -999.25    -0.01655916 77.7669    161.385    271.2379   26.68354   23.3777    34.69677   0.08948061 4.515474   0.8998846  8.593916   2.598992   8.474672   8.472515   2.839086   1.208366  
817.3973999997398 12.25      12.54488   -999.25    -0.01672355 78.49133   163.5      271.1534   27.38406   23.21713   35.56822   0.09691074 4.428625   0.9384845  8.237146   2.595702   8.125448   8.12759    2.607096   1.282268  
817.4735999997398 12.25      12.54894   -999.25    -0.01618033 78.91778   164.5599   271.643    28.28937   22.65446   36.39616   0.1011315  4.377548   0.9489479  7.893702   2.595341   7.789894   7.810359   2.386249   1.407382  
817.5497999997398 12.25      12.56191   -999.25    -0.01490475 79.17876   165.2242   272.1669   29.36924   22.2645    37.07407   0.1052023  4.375099   0.9477853  7.617105   2.592599   7.520194   7.562459   2.273029   1.494951  
817.6259999997397 12.25      12.57449   -999.25    -0.0136366 79.34497   165.6796   272.6577   30.07983   21.99615   37.62688   0.1049539  4.417086   0.9526505  7.449922   2.592121   7.357971   7.417185   2.168205   1.535315  
817.7021999997397 12.25      12.57714   -999.25    -0.01222314 79.32081   165.5529   272.7287   30.23874   21.87629   38.0438    0.1026656  4.497948   0.9464688  7.407432   2.592766   7.318296   7.39322    2.160954   1.52184   
817.7783999997397 12.25      12.59005   -999.25    -0.01145373 79.08794   165.7963   272.748    30.41443   21.73069   38.11523   0.09800765 4.588014   0.9401222  7.477911   2.592692   7.389812   7.481817   2.146695   1.509252  
817.8545999997397 12.25      12.58472   -999.25    -0.0117018 78.82771   165.9493   272.6963   30.0899    21.78239   37.75059   0.09531212 4.673924   0.9354569  7.628377   2.594912   7.540305   7.65083    2.184485   1.488684  
817.9307999997396 12.25      12.57909   -999.25    -0.01186798 78.35547   165.5217   273.3726   29.72845   22.44935   36.70655   0.09216645 4.732415   0.9518419  7.815332   2.598587   7.727186   7.855714   2.309552   1.369748  
818.0069999997396 12.25      12.57315   -999.25    -0.01164506 77.93635   165.2086   274.0358   28.63515   22.99572   36.02289   0.08850697 4.747473   0.9642649  7.996622   2.607966   7.909055   8.052088   2.416813   1.283066  
818.0831999997396 12.25      12.56503   -999.25    -0.01092108 77.49203   164.7285   274.1942   27.34266   23.49308   35.75636   0.08461411 4.731906   0.977793   8.142505   2.617256   8.056558   8.208939   2.503971   1.1852    
818.1593999997395 12.25      12.5607    -999.25    -0.009785685 77.1401    164.3667   274.9235   26.54366   24.02751   35.77603   0.08197583 4.672598   1.000931   8.242114   2.626809   8.158818   8.316452   2.556825   1.087007  
818.2355999997395 12.25      12.5572    -999.25    -0.009142749 76.78646   163.962    275.7446   26.37133   24.25624   35.43212   0.08077557 4.601676   1.018947   8.30106    2.631607   8.221071   8.383465   2.541031   1.069871  
818.3117999997395 12.25      12.55483   -999.25    -0.008500079 76.6544    164.2724   277.141    26.56157   24.43647   35.14244   0.08018313 4.546353   1.031186   8.324786   2.630078   8.248407   8.41886    2.537895   1.0869    
818.3879999997395 12.25      12.54819   -999.25    -0.007792151 76.4677    164.4595   278.4028   27.03828   24.59417   35.34301   0.08241943 4.510946   1.053606   8.301284   2.629975   8.228756   8.411657   2.479667   1.117728  
818.4641999997394 12.25      12.55561   -999.25    -0.007830963 76.87305   165.683    278.6917   27.42435   24.42702   36.31073   0.08486128 4.503375   1.054992   8.203209   2.623773   8.134962   8.331771   2.422386   1.199558  
818.5403999997394 12.25      12.55355   -999.25    -0.007772142 76.86477   165.9434   277.763    28.04318   24.41708   37.47159   0.08875206 4.494776   1.055216   8.01845    2.619669   7.9548     8.161884   2.418378   1.252172  
818.6165999997394 12.25      12.55001   -999.25    -0.007922987 76.90807   166.338    276.8412   28.94401   24.38265   38.12219   0.09169602 4.451843   1.048617   7.783898   2.615871   7.724364   7.934959   2.439291   1.303282  
818.6927999997395 12.25      12.53531   -999.25    -0.008420438 76.79866   165.4276   277.3158   29.61096   24.32294   38.80463   0.09162389 4.381761   1.035532   7.579668   2.60939    7.522603   7.730661   2.483214   1.354277  
818.7689999997394 12.25      12.54037   -999.25    -0.007488252 76.56001   164.2143   277.6844   29.90526   24.53907   39.05645   0.09305888 4.31082    1.01716    7.483626   2.608346   7.426478   7.6284     2.635981   1.346186  
