~Version
 VERS              .         2.0                           : CWLS LOG ASCII STANDARD - VERSION 2.0
 WRAP              .         NO                            : ONE LINE PER DEPTH STEP
 DLM               .         SPACE                         : DELIMITING CHARACTER(SPACE TAB OR COMMA)
~Well Information
#_______________________________________________________________________________
#
#PARAMETER_NAME    .UNIT     VALUE                         : DESCRIPTION
#_______________________________________________________________________________
STRT               .m        0                             : First reference value
STOP               .m        2123.99879999932              : Last reference value
STEP               .m        0.0762                        : Step increment
NULL               .         -999.25                       : Missing value
COMP               .         EBN B.V                       : Company
WELL               .         BLT-01                        : Well name
FLD                .         Utrecht-Oost                  : Field
LOC                .                                       : Location
PROV               .         Utrecht                       : Province
SRVC               .         RED Drilling & Services       : Service Company
DATE               .         13-Feb-25                     : Date
UWI                .         BLT-01                        : Unique Well ID
APD                .m        8.629999978637695             : DEPTH ABOVE PD
API                .                                       : API NUMBER
BHT                .degF     167                           : BottomHole Temp
BLI                .m        2115                          : BotLog Interval
BS                 .in       8.5                           : Bit Size
CNTY               .                                       : COUNTY
CTRY               .         The Netherlands               : 
DCS                .         12-Feb-25                     : DateCircEndT
DFD                .g/cc     1.159999966621399             : MudDensity
DLAB               .         13-Feb-25                     : LogStartDateT
EDF                .m        8.629999978637695             : DF ELEV
EGL                .m        2.400000163650513             : GL ELEV
EKB                .m        8.629999978637695             : KB ELEV
EPD                .m        0                             : ELEVATION
LMF                .         DF                            : LOG MEAS FROM
LUL                .         EMMEN                         : LoggingUnitLoc
LUN                .         12102977                      : LoggingUnitNum
LATI               .dega     52.10100072                   : 
LONG               .dega     5.19171536                    : 
MST                .degF     64.40000152587891             : Rm Temperature
ORIGINALWELLNAME   .         BLT-01                        : 
PDAT               .         NAP                           : PERMANENT DATUM
PRODUCER-CODE      .         280                           : 
PRODUCER-NAME      .         Halliburton                   : 
RUN                .         2.1                           : Run Name
STAT               .         Utrecht-Oost                  : STATE NAME
TCS                .         18_25                         : TimeCircEndT
TDD                .m        2123                          : Depth Driller
TDL                .m        2123.800048828125             : Depth Logger
TLAB               .         02_25                         : LogStartTimeT
TLI                .m        1626                          : TopLog Interval
X                  .m        141577.55000000               : 
Y                  .m        456881.76000000               : 
~Parameter Information Block
#_______________________________________________________________________________
#
#PARAMETER_NAME    .UNIT     VALUE                         : DESCRIPTION
#_______________________________________________________________________________
SET                .         LQC                           : 
TLFamily_BITSIZE   .         Bit Size                      : 
TLFamily_CALI      .         Caliper                       : 
TLFamily_CASING_FLAG-(S)GR_NPHI_DTC .         General Flag                  : 
TLFamily_DRHO      .         Bulk Density Correction       : 
TLFamily_DTC       .         Compressional Slowness        : 
TLFamily_DTS       .         Shear Slowness                : 
TLFamily_DTST      .         Stoneley Slowness             : 
TLFamily_GR        .         Gamma Ray                     : 
TLFamily_GRKT      .         Gamma Ray Minus Uranium       : 
TLFamily_GRTO      .         Gamma Ray                     : 
TLFamily_MD        .         Measured Depth                : 
TLFamily_NPHI      .         Neutron Porosity              : 
TLFamily_PE        .         Photoelectric Factor          : 
TLFamily_POTA      .         Potassium Concentration       : 
TLFamily_RD        .         Resistivity - Deep            : 
TLFamily_RHOB      .         Bulk Density                  : 
TLFamily_RM        .         Resistivity - Medium          : 
TLFamily_RS        .         Resistivity - Shallow         : 
TLFamily_THOR      .         Thorium Concentration         : 
TLFamily_URAN      .         Uranium Concentration         : 
~Curve Information
#_______________________________________________________________________________
#
#LOGNAME           .UNIT     LOG_ID                        : DESCRIPTION
#_______________________________________________________________________________
MD                 .m                                      :  
BITSIZE            .in                                     :  
CALI               .in                                     :  
CASING_FLAG-(S)GR_NPHI_DTC .                                       :  
DRHO               .g/cm3                                  :  
DTC                .us/ft                                  :  
DTS                .us/ft                                  :  
DTST               .us/ft                                  :  
GR                 .gAPI                                   : Reference GR  
GRKT               .gAPI                                   : Uranium free GR  
GRTO               .gAPI                                   : Total GR from SGR Tool  
NPHI               .m3/m3                                  :  
PE                 .b/e                                    :  
POTA               .%                                      :  
RD                 .ohm.m                                  :  
RHOB               .g/cm3                                  :  
RM                 .ohm.m                                  :  
RS                 .ohm.m                                  :  
THOR               .ppm                                    :  
URAN               .ppm                                    :  
~Ascii
# ...
688.1621999997809 12.25      13.35651   -999.25    0.0003429207 74.78322   143.0825   269.5991   10.51451   11.25602   15.3611    0.1435624  4.653886   0.4589949  3.637374   2.431494   3.585521   3.941088   1.230392   0.4063677 
688.2383999997809 12.25      13.32878   -999.25    0.0003024414 74.45253   142.7172   269.8327   11.19601   10.3477    14.9412    0.1433633  4.65696    0.4176205  3.692489   2.438273   3.638952   3.981986   1.151797   0.4955106 
688.3145999997809 12.25      13.3048    -999.25    0.0002253765 74.19163   142.6006   269.674    11.7656    9.348531   14.53177   0.1420326  4.636262   0.3771827  3.745644   2.446362   3.690667   4.022224   1.041281   0.6202071 
688.3907999997809 12.25      13.2696    -999.25    0.0006984326 73.77547   142.0872   269.6031   11.99836   8.365986   14.41925   0.1350182  4.585336   0.3374064  3.795534   2.456461   3.739389   4.061447   0.9327487  0.7361218 
688.4669999997809 12.25      13.26789   -999.25    0.001400218 73.32545   141.5502   269.5197   12.01179   7.611095   14.32721   0.1291688  4.537338   0.2977098  3.847636   2.465435   3.790483   4.106934   0.892804   0.8365831 
688.5431999997809 12.25      13.27262   -999.25    0.001629765 73.02022   140.9442   269.2534   11.83946   7.031031   14.68791   0.1267936  4.495235   0.2726198  3.901785   2.475104   3.843757   4.159013   0.836489   0.9132568 
688.6193999997809 12.25      13.25322   -999.25    0.001300928 72.71217   140.3627   268.9619   11.74546   6.603763   14.88689   0.1248414  4.484849   0.2489232  3.95505    2.482184   3.89642    4.214479   0.8197695  0.9884766 
688.6955999997808 12.25      13.16492   -999.25    0.001395284 72.44679   139.6282   268.2728   11.85848   6.521878   15.20217   0.1251636  4.500881   0.2359837  4.0072     2.487654   3.94818    4.272136   0.8566163  1.011472  
688.7717999997808 12.25      13.13384   -999.25    0.0009429524 72.19374   138.9935   267.5709   12.17517   6.259114   15.31781   0.121141   4.535285   0.2280781  4.062402   2.490178   4.003175   4.335252   0.8147304  1.076153  
688.8479999997808 12.25      13.11445   -999.25    0.00136824 71.85088   138.2656   268.4935   12.57019   6.369352   15.59124   0.1208718  4.577251   0.2315738  4.1317     2.4903     4.07203    4.414021   0.8317611  1.07325   
688.9241999997807 12.25      13.11163   -999.25    0.002869372 71.62023   137.5631   269.0633   12.83764   6.86686    15.71452   0.116861   4.611003   0.244398   4.228074   2.49211    4.167442   4.521078   0.9219178  1.024859  
689.0003999997807 12.25      13.09796   -999.25    0.002201469 71.30118   136.628    269.6584   12.67091   7.347329   15.81892   0.1154959  4.648353   0.2694632  4.355381   2.49177    4.293055   4.658698   0.948801   0.9599421 
689.0765999997807 12.25      13.09982   -999.25    0.002597541 71.1353    135.9467   269.7232   12.25798   7.888856   15.50467   0.1125794  4.668046   0.2887929  4.50283    2.492698   4.438561   4.813592   1.021273   0.8849561 
689.1527999997807 12.25      13.08934   -999.25    0.001871324 70.95074   135.1767   269.8068   11.75217   8.390741   15.39982   0.1109151  4.671      0.3220325  4.653921   2.49489    4.587809   4.96623    1.015687   0.7953643 
689.2289999997806 12.25      13.09524   -999.25    -0.0007314543 70.778     134.9157   269.5526   11.20944   8.939312   15.33128   0.1072745  4.645292   0.3546807  4.795311   2.497793   4.72801    5.101904   1.027012   0.700662  
689.3051999997806 12.25      13.10836   -999.25    -0.00233317 70.58427   134.5593   269.4056   10.90506   9.733692   15.37501   0.1035202  4.583678   0.3940951  4.920354   2.50055    4.852537   5.213519   1.080747   0.5668918 
689.3813999997806 12.25      13.12869   -999.25    -0.005880272 70.39947   134.5764   269.1471   10.60516   10.47853   15.21866   0.1009311  4.520303   0.4300626  5.028742   2.502954   4.961342   5.302103   1.135811   0.4522024 
689.4575999997805 12.25      13.14582   -999.25    -0.008637128 70.28865   134.6849   268.9307   10.3433    11.13133   14.83978   0.09828125 4.476963   0.4656832  5.127969   2.505683   5.061443   5.376377   1.164625   0.339733  
689.5337999997805 12.25      13.15665   -999.25    -0.00985033 70.19189   135.1053   268.8582   10.51675   11.87957   14.71135   0.09510858 4.48044    0.4891588  5.230053   2.507521   5.16476    5.450487   1.279876   0.2402656 
689.6099999997805 12.25      13.14784   -999.25    -0.01010083 70.02147   135.4211   268.8423   10.43282   12.31446   14.79215   0.09197587 4.536047   0.5056796  5.349247   2.51383    5.284946   5.539816   1.333119   0.1808744 
689.6861999997805 12.25      13.14064   -999.25    -0.00857525 69.8471    135.7917   268.9001   10.65327   12.86776   14.95801   0.09149124 4.611397   0.5076206  5.495672   2.522959   5.432323   5.655937   1.491413   0.1210946 
689.7623999997804 12.25      13.1462    -999.25    -0.006700833 69.37028   135.6917   268.6589   10.9017    13.47911   15.10433   0.08849198 4.674527   0.5085105  5.673872   2.532848   5.611099   5.80361    1.672315   0.080166  
689.8385999997804 12.25      13.17483   -999.25    -0.005725058 68.88004   135.6665   268.4122   11.08299   13.83531   15.22403   0.08570476 4.706784   0.4936386  5.88497    2.540056   5.822873   5.985008   1.850699   0.08244489
689.9147999997804 12.25      13.18184   -999.25    -0.005153519 68.48199   135.8934   268.0393   11.77791   14.23306   15.55385   0.08018134 4.698494   0.4780371  6.133946   2.54588    6.072353   6.205853   2.045128   0.07597837
689.9909999997803 12.25      13.18349   -999.25    -0.005137034 68.0989    136.1777   267.6658   12.37772   14.37478   16.04998   0.07567361 4.665969   0.4546482  6.426793   2.54817    6.366223   6.475312   2.198869   0.09245392
690.0671999997803 12.25      13.18052   -999.25    -0.006920908 68.24383   135.297    266.5141   13.05138   14.30405   16.36777   0.07436581 4.636293   0.4370726  6.760303   2.549195   6.701216   6.793344   2.260618   0.1133151 
690.1433999997803 12.25      13.18235   -999.25    -0.008626532 68.36324   134.5278   266.7933   13.35352   14.22848   16.408     0.07360728 4.61509    0.4155972  7.102762   2.554117   7.047203   7.134441   2.339444   0.1478353 
690.2195999997803 12.25      13.19229   -999.25    -0.01165766 68.46148   133.7323   267.1239   13.26959   13.78559   16.00233   0.0717383  4.611877   0.4056869  7.398933   2.556869   7.349664   7.448998   2.252315   0.2051983 
690.2957999997802 12.25      13.20217   -999.25    -0.01575853 68.38919   133.1694   267.0187   12.69776   13.65472   15.47678   0.06841996 4.636086   0.4124482  7.584573   2.559621   7.546081   7.678106   2.180722   0.2051983 
690.3719999997802 12.25      13.21609   -999.25    -0.01660008 68.31155   132.6265   266.864    12.21322   13.37834   15.08889   0.06618084 4.664891   0.4241556  7.615579   2.561739   7.591149   7.774848   2.041598   0.2051983 
690.4481999997803 12.25      13.21117   -999.25    -0.01645689 68.42188   131.897    265.6227   11.59663   12.8545    14.53619   0.06784721 4.689819   0.4377477  7.48723    2.560739   7.479117   7.725958   1.818547   0.2051983 
690.5243999997803 12.25      13.14487   -999.25    -0.01427355 68.5492    131.1655   264.4745   11.11992   12.52922   13.94094   0.06887145 4.717827   0.4627737  7.242143   2.5574     7.249538   7.560774   1.60139    0.1768355 
690.6005999997802 12.25      13.1267    -999.25    -0.008792734 68.38731   130.7077   264.3114   10.72266   12.07319   13.13086   0.07089207 4.726438   0.4831959  6.950117   2.556946   6.97179    7.341288   1.366442   0.1610147 
690.6767999997802 12.25      13.11937   -999.25    -0.005679291 68.3919    130.453    265.0117   10.30973   11.35684   12.69906   0.07292169 4.739512   0.4976966  6.678861   2.555975   6.713286   7.133119   1.080721   0.1682888 
690.7529999997802 12.25      13.11894   -999.25    -0.001891697 68.37556   130.152    265.6409   10.19223   10.68432   12.5791    0.07701735 4.76932    0.5033227  6.461257   2.555227   6.507936   6.971695   0.8504279  0.1858053 
690.8291999997801 12.25      13.13785   -999.25    0.001806013 68.49577   129.7749   265.2599   9.932611   10.04844   12.59545   0.08094555 4.796891   0.5012814  6.297193   2.55577    6.354746   6.855515   0.6675743  0.1841818 
