~Version
 VERS              .         2.0                           : CWLS LOG ASCII STANDARD - VERSION 2.0
 WRAP              .         NO                            : ONE LINE PER DEPTH STEP
 DLM               .         SPACE                         : DELIMITING CHARACTER(SPACE TAB OR COMMA)
~Well Information
#_______________________________________________________________________________
#
#PARAMETER_NAME    .UNIT     VALUE                         : DESCRIPTION
#_______________________________________________________________________________
STRT               .m        0                             : First reference value
STOP               .m        2123.99879999932              : Last reference value
STEP               .m        0.0762                        : Step increment
NULL               .         -999.25                       : Missing value
COMP               .         EBN B.V                       : Company
WELL               .         BLT-01                        : Well name
FLD                .         Utrecht-Oost                  : Field
LOC                .                                       : Location
PROV               .         Utrecht                       : Province
SRVC               .         RED Drilling & Services       : Service Company
DATE               .         13-Feb-25                     : Date
UWI                .         BLT-01                        : Unique Well ID
APD                .m        8.629999978637695             : DEPTH ABOVE PD
API                .                                       : API NUMBER
BHT                .degF     167                           : BottomHole Temp
BLI                .m        2115                          : BotLog Interval
BS                 .in       8.5                           : Bit Size
CNTY               .                                       : COUNTY
CTRY               .         The Netherlands               : 
DCS                .         12-Feb-25                     : DateCircEndT
DFD                .g/cc     1.159999966621399             : MudDensity
DLAB               .         13-Feb-25                     : LogStartDateT
EDF                .m        8.629999978637695             : DF ELEV
EGL                .m        2.400000163650513             : GL ELEV
EKB                .m        8.629999978637695             : KB ELEV
EPD                .m        0                             : ELEVATION
LMF                .         DF                            : LOG MEAS FROM
LUL                .         EMMEN                         : LoggingUnitLoc
LUN                .         12102977                      : LoggingUnitNum
LATI               .dega     52.10100072                   : 
LONG               .dega     5.19171536                    : 
MST                .degF     64.40000152587891             : Rm Temperature
ORIGINALWELLNAME   .         BLT-01                        : 
PDAT               .         NAP                           : PERMANENT DATUM
PRODUCER-CODE      .         280                           : 
PRODUCER-NAME      .         Halliburton                   : 
RUN                .         2.1                           : Run Name
STAT               .         Utrecht-Oost                  : STATE NAME
TCS                .         18_25                         : TimeCircEndT
TDD                .m        2123                          : Depth Driller
TDL                .m        2123.800048828125             : Depth Logger
TLAB               .         02_25                         : LogStartTimeT
TLI                .m        1626                          : TopLog Interval
X                  .m        141577.55000000               : 
Y                  .m        456881.76000000               : 
~Parameter Information Block
#_______________________________________________________________________________
#
#PARAMETER_NAME    .UNIT     VALUE                         : DESCRIPTION
#_______________________________________________________________________________
SET                .         LQC                           : 
TLFamily_BITSIZE   .         Bit Size                      : 
TLFamily_CALI      .         Caliper                       : 
TLFamily_CASING_FLAG-(S)GR_NPHI_DTC .         General Flag                  : 
TLFamily_DRHO      .         Bulk Density Correction       : 
TLFamily_DTC       .         Compressional Slowness        : 
TLFamily_DTS       .         Shear Slowness                : 
TLFamily_DTST      .         Stoneley Slowness             : 
TLFamily_GR        .         Gamma Ray                     : 
TLFamily_GRKT      .         Gamma Ray Minus Uranium       : 
TLFamily_GRTO      .         Gamma Ray                     : 
TLFamily_MD        .         Measured Depth                : 
TLFamily_NPHI      .         Neutron Porosity              : 
TLFamily_PE        .         Photoelectric Factor          : 
TLFamily_POTA      .         Potassium Concentration       : 
TLFamily_RD        .         Resistivity - Deep            : 
TLFamily_RHOB      .         Bulk Density                  : 
TLFamily_RM        .         Resistivity - Medium          : 
TLFamily_RS        .         Resistivity - Shallow         : 
TLFamily_THOR      .         Thorium Concentration         : 
TLFamily_URAN      .         Uranium Concentration         : 
~Curve Information
#_______________________________________________________________________________
#
#LOGNAME           .UNIT     LOG_ID                        : DESCRIPTION
#_______________________________________________________________________________
MD                 .m                                      :  
BITSIZE            .in                                     :  
CALI               .in                                     :  
CASING_FLAG-(S)GR_NPHI_DTC .                                       :  
DRHO               .g/cm3                                  :  
DTC                .us/ft                                  :  
DTS                .us/ft                                  :  
DTST               .us/ft                                  :  
GR                 .gAPI                                   : Reference GR  
GRKT               .gAPI                                   : Uranium free GR  
GRTO               .gAPI                                   : Total GR from SGR Tool  
NPHI               .m3/m3                                  :  
PE                 .b/e                                    :  
POTA               .%                                      :  
RD                 .ohm.m                                  :  
RHOB               .g/cm3                                  :  
RM                 .ohm.m                                  :  
RS                 .ohm.m                                  :  
THOR               .ppm                                    :  
URAN               .ppm                                    :  
~Ascii
# ...
559.6127999998218 17.5       -999.25    1          -999.25    160.8785   -999.25    -999.25    42.93538   34.69841   58.50229   0.4724863  -999.25    1.144536   1.205211   -999.25    1.141235   1.249362   5.131212   2.092268  
559.6889999998218 17.5       -999.25    1          -999.25    160.7004   -999.25    -999.25    42.95217   34.65984   57.80793   0.4928732  -999.25    1.123977   1.291306   -999.25    1.210007   1.28       5.216882   2.047799  
559.7651999998218 17.5       -999.25    1          -999.25    160.6185   -999.25    -999.25    42.76641   35.10671   56.67305   0.4917503  -999.25    1.123986   1.288081   -999.25    1.19435    1.248781   5.352738   1.949518  
559.8413999998218 17.5       -999.25    1          -999.25    160.7336   -999.25    -999.25    42.35908   35.6119    55.22864   0.4812163  -999.25    1.125803   1.20801    -999.25    1.11       1.190984   5.497755   1.832357  
559.9175999998217 17.5       -999.25    1          -999.25    160.8867   -999.25    -999.25    41.70668   36.66212   53.89579   0.4927103  -999.25    1.161384   1.192804   -999.25    1.11       1.198583   5.648568   1.636751  
559.9937999998217 17.5       -999.25    1          -999.25    160.6667   -999.25    -999.25    41.30718   37.74285   52.69371   0.5349901  -999.25    1.202245   1.133471   -999.25    1.085073   1.156185   5.783578   1.468024  
560.0699999998217 17.5       -999.25    1          -999.25    160.4537   -999.25    -999.25    41.43251   38.64195   51.35581   0.5525499  -999.25    1.257346   1.088535   -999.25    1.042917   1.106879   5.795823   1.323585  
560.1461999998218 17.5       -999.25    1          -999.25    160.261    -999.25    -999.25    41.92265   39.58257   50.75342   0.5327154  -999.25    1.284954   1.064349   -999.25    0.9986042  1.07       5.951098   1.234159  
560.2223999998217 17.5       -999.25    1          -999.25    160.1367   -999.25    -999.25    42.396     40.3585    50.96543   0.515787   -999.25    1.310806   1.03397    -999.25    0.9910051  1.07       6.064582   1.164554  
560.2985999998217 17.5       -999.25    1          -999.25    160.0125   -999.25    -999.25    42.76529   41.02113   51.85092   0.497788   -999.25    1.344456   1.023398   -999.25    0.9965796  1.076581   6.106653   1.096658  
560.3747999998217 17.5       -999.25    1          -999.25    160.0237   -999.25    -999.25    42.61869   41.31317   53.07222   0.5096443  -999.25    1.385374   1.02       -999.25    0.9957963  1.08418    6.001485   1.090062  
560.4509999998216 17.5       -999.25    1          -999.25    159.9996   -999.25    -999.25    42.53812   40.67768   53.58151   0.5073386  -999.25    1.388621   1.02       -999.25    0.9882004  1.077111   5.792732   1.199597  
560.5271999998216 17.5       -999.25    1          -999.25    160.1249   -999.25    -999.25    42.06365   39.98839   53.9197    0.5044876  -999.25    1.389994   1.02       -999.25    0.9806044  1.02412    5.576536   1.292605  
560.6033999998216 17.5       -999.25    1          -999.25    160.3112   -999.25    -999.25    41.34858   38.99138   53.88683   0.5071679  -999.25    1.370226   0.9776595  -999.25    0.9447593  0.9633706  5.366911   1.410462  
560.6795999998216 17.5       -999.25    1          -999.25    160.5225   -999.25    -999.25    40.85508   38.26518   53.74899   0.5070221  -999.25    1.373521   0.9175538  -999.25    0.8777457  0.9023646  5.130339   1.444431  
560.7557999998215 17.5       -999.25    1          -999.25    160.4977   -999.25    -999.25    39.36788   37.35366   53.05775   0.5341018  -999.25    1.368993   0.8743501  -999.25    0.8221841  0.8643496  4.874449   1.511362  
560.8319999998215 17.5       -999.25    1          -999.25    160.5308   -999.25    -999.25    38.63938   37.1302    52.28381   0.5069061  -999.25    1.370327   0.8895855  -999.25    0.8297938  0.8795854  4.800159   1.459321  
560.9081999998215 17.5       -999.25    1          -999.25    160.5149   -999.25    -999.25    38.16155   37.11074   51.51264   0.4963827  -999.25    1.37249    0.9986572  -999.25    0.9314119  0.9312503  4.784      1.367595  
560.9843999998214 17.5       -999.25    1          -999.25    160.8908   -999.25    -999.25    38.00377   37.19916   51.35826   0.4626179  -999.25    1.379488   1.079229   -999.25    1.028206   1.003452   4.777678   1.267931  
561.0605999998214 17.5       -999.25    1          -999.25    161.2565   -999.25    -999.25    38.44355   37.40968   50.89065   0.474735   -999.25    1.377267   1.147582   -999.25    1.11513    1.089935   4.852271   1.145035  
561.1367999998214 17.5       -999.25    1          -999.25    161.4854   -999.25    -999.25    37.95341   37.81733   50.49314   0.4822166  -999.25    1.37679    1.230777   -999.25    1.190967   1.180391   4.97853    0.9939399 
561.2129999998214 17.5       -999.25    1          -999.25    161.6798   -999.25    -999.25    37.50579   37.54598   49.78572   0.492786   -999.25    1.348956   1.261082   -999.25    1.228812   1.195567   5.027954   0.9449158 
561.2891999998213 17.5       -999.25    1          -999.25    161.8937   -999.25    -999.25    37.28758   37.42219   49.0477    0.5114424  -999.25    1.3262     1.242758   -999.25    1.212752   1.13365    5.098192   0.8923967 
561.3653999998213 17.5       -999.25    1          -999.25    161.8532   -999.25    -999.25    36.93956   36.59655   48.336     0.5232443  -999.25    1.292281   1.179462   -999.25    1.14942    1.067845   5.007764   0.945583  
561.4415999998213 17.5       -999.25    1          -999.25    161.8379   -999.25    -999.25    37.34577   35.64325   47.17891   0.5378399  -999.25    1.255475   1.08173    -999.25    1.049649   1.031021   4.892202   0.9935205 
561.5177999998212 17.5       -999.25    1          -999.25    161.8981   -999.25    -999.25    37.45432   34.1505    46.76934   0.5420995  -999.25    1.228235   0.9821944  -999.25    0.9268974  0.9237254  4.567093   1.111362  
561.5939999998212 17.5       -999.25    1          -999.25    161.7747   -999.25    -999.25    37.79339   32.55606   46.61563   0.5067216  -999.25    1.192779   0.9067159  -999.25    0.8466405  0.8405614  4.250021   1.264796  
561.6701999998212 17.5       -999.25    1          -999.25    161.6479   -999.25    -999.25    38.07539   30.78363   46.79763   0.4842606  -999.25    1.139396   0.8665856  -999.25    0.8200822  0.7896666  3.963844   1.423351  
561.7463999998212 17.5       -999.25    1          -999.25    161.5156   -999.25    -999.25    38.62036   29.30093   46.89242   0.4786996  -999.25    1.113608   0.8739673  -999.25    0.854805   0.7776648  3.634912   1.582654  
561.8225999998211 17.5       -999.25    1          -999.25    161.327    -999.25    -999.25    38.758     27.95584   46.7629    0.5166469  -999.25    1.09148    0.9875628  -999.25    0.9759313  0.8383404  3.330543   1.72266   
561.8987999998211 17.5       -999.25    1          -999.25    161.2059   -999.25    -999.25    38.27905   26.96894   46.24593   0.5461137  -999.25    1.082405   1.198033   -999.25    1.210145   1.01421    3.07322    1.82576   
561.9749999998211 17.5       -999.25    1          -999.25    161.0486   -999.25    -999.25    37.6412    25.95907   46.29356   0.5409736  -999.25    1.065675   1.430256   -999.25    1.519392   1.302001   2.845254   1.953135  
562.0511999998211 17.5       -999.25    1          -999.25    160.8311   -999.25    -999.25    37.14211   25.88079   45.91407   0.500717   -999.25    1.05161    1.588038   -999.25    1.812894   1.67176    2.888127   1.963296  
562.127399999821 17.5       -999.25    1          -999.25    160.7139   -999.25    -999.25    37.84598   26.13847   46.08712   0.4996045  -999.25    1.051955   1.474276   -999.25    1.774913   1.854625   2.964855   1.941114  
562.203599999821 17.5       -999.25    1          -999.25    160.0762   -999.25    -999.25    38.79493   26.89465   45.91157   0.5119277  -999.25    1.07174    1.372775   -999.25    1.586686   1.779524   3.101068   1.885763  
562.2797999998211 17.5       -999.25    1          -999.25    159.4874   -999.25    -999.25    39.99566   27.44742   46.3118    0.5664204  -999.25    1.088506   1.291375   -999.25    1.398575   1.647382   3.189729   1.837667  
