~Version
 VERS              .         2.0                           : CWLS LOG ASCII STANDARD - VERSION 2.0
 WRAP              .         NO                            : ONE LINE PER DEPTH STEP
 DLM               .         SPACE                         : DELIMITING CHARACTER(SPACE TAB OR COMMA)
~Well Information
#_______________________________________________________________________________
#
#PARAMETER_NAME    .UNIT     VALUE                         : DESCRIPTION
#_______________________________________________________________________________
STRT               .m        0                             : First reference value
STOP               .m        2123.99879999932              : Last reference value
STEP               .m        0.0762                        : Step increment
NULL               .         -999.25                       : Missing value
COMP               .         EBN B.V                       : Company
WELL               .         BLT-01                        : Well name
FLD                .         Utrecht-Oost                  : Field
LOC                .                                       : Location
PROV               .         Utrecht                       : Province
SRVC               .         RED Drilling & Services       : Service Company
DATE               .         13-Feb-25                     : Date
UWI                .         BLT-01                        : Unique Well ID
APD                .m        8.629999978637695             : DEPTH ABOVE PD
API                .                                       : API NUMBER
BHT                .degF     167                           : BottomHole Temp
BLI                .m        2115                          : BotLog Interval
BS                 .in       8.5                           : Bit Size
CNTY               .                                       : COUNTY
CTRY               .         The Netherlands               : 
DCS                .         12-Feb-25                     : DateCircEndT
DFD                .g/cc     1.159999966621399             : MudDensity
DLAB               .         13-Feb-25                     : LogStartDateT
EDF                .m        8.629999978637695             : DF ELEV
EGL                .m        2.400000163650513             : GL ELEV
EKB                .m        8.629999978637695             : KB ELEV
EPD                .m        0                             : ELEVATION
LMF                .         DF                            : LOG MEAS FROM
LUL                .         EMMEN                         : LoggingUnitLoc
LUN                .         12102977                      : LoggingUnitNum
LATI               .dega     52.10100072                   : 
LONG               .dega     5.19171536                    : 
MST                .degF     64.40000152587891             : Rm Temperature
ORIGINALWELLNAME   .         BLT-01                        : 
PDAT               .         NAP                           : PERMANENT DATUM
PRODUCER-CODE      .         280                           : 
PRODUCER-NAME      .         Halliburton                   : 
RUN                .         2.1                           : Run Name
STAT               .         Utrecht-Oost                  : STATE NAME
TCS                .         18_25                         : TimeCircEndT
TDD                .m        2123                          : Depth Driller
TDL                .m        2123.800048828125             : Depth Logger
TLAB               .         02_25                         : LogStartTimeT
TLI                .m        1626                          : TopLog Interval
X                  .m        141577.55000000               : 
Y                  .m        456881.76000000               : 
~Parameter Information Block
#_______________________________________________________________________________
#
#PARAMETER_NAME    .UNIT     VALUE                         : DESCRIPTION
#_______________________________________________________________________________
SET                .         LQC                           : 
TLFamily_BITSIZE   .         Bit Size                      : 
TLFamily_CALI      .         Caliper                       : 
TLFamily_CASING_FLAG-(S)GR_NPHI_DTC .         General Flag                  : 
TLFamily_DRHO      .         Bulk Density Correction       : 
TLFamily_DTC       .         Compressional Slowness        : 
TLFamily_DTS       .         Shear Slowness                : 
TLFamily_DTST      .         Stoneley Slowness             : 
TLFamily_GR        .         Gamma Ray                     : 
TLFamily_GRKT      .         Gamma Ray Minus Uranium       : 
TLFamily_GRTO      .         Gamma Ray                     : 
TLFamily_MD        .         Measured Depth                : 
TLFamily_NPHI      .         Neutron Porosity              : 
TLFamily_PE        .         Photoelectric Factor          : 
TLFamily_POTA      .         Potassium Concentration       : 
TLFamily_RD        .         Resistivity - Deep            : 
TLFamily_RHOB      .         Bulk Density                  : 
TLFamily_RM        .         Resistivity - Medium          : 
TLFamily_RS        .         Resistivity - Shallow         : 
TLFamily_THOR      .         Thorium Concentration         : 
TLFamily_URAN      .         Uranium Concentration         : 
~Curve Information
#_______________________________________________________________________________
#
#LOGNAME           .UNIT     LOG_ID                        : DESCRIPTION
#_______________________________________________________________________________
MD                 .m                                      :  
BITSIZE            .in                                     :  
CALI               .in                                     :  
CASING_FLAG-(S)GR_NPHI_DTC .                                       :  
DRHO               .g/cm3                                  :  
DTC                .us/ft                                  :  
DTS                .us/ft                                  :  
DTST               .us/ft                                  :  
GR                 .gAPI                                   : Reference GR  
GRKT               .gAPI                                   : Uranium free GR  
GRTO               .gAPI                                   : Total GR from SGR Tool  
NPHI               .m3/m3                                  :  
PE                 .b/e                                    :  
POTA               .%                                      :  
RD                 .ohm.m                                  :  
RHOB               .g/cm3                                  :  
RM                 .ohm.m                                  :  
RS                 .ohm.m                                  :  
THOR               .ppm                                    :  
URAN               .ppm                                    :  
~Ascii
# ...
1856.536799999409 8.5        8.864882   -999.25    0.02648714 80.83032   142.3913   206.2509   122.246    76.42325   127.7593   0.1874359  3.898407   3.082403   7.053625   2.722261   5.768233   5.650677   9.232648   4.071935  
1856.612999999409 8.5        8.865432   -999.25    0.0253201  80.62603   142.7078   206.4437   118.996    76.47229   124.5732   0.1799188  3.922131   3.068859   7.077517   2.725363   5.930204   5.999187   9.312333   3.894501  
1856.689199999409 8.5        8.865582   -999.25    0.02951349 80.56523   143.4914   206.935    117.5865   77.13474   122.3514   0.1781621  3.941343   3.077171   6.880462   2.722008   5.889549   6.155251   9.479842   3.681677  
1856.765399999409 8.5        8.865366   -999.25    0.04105384 80.60326   144.4003   207.7481   118.5464   78.39709   121.4547   0.1828429  3.954411   3.107769   6.558935   2.711449   5.705276   6.107426   9.728835   3.436917  
1856.841599999409 8.5        8.860975   -999.25    0.05838621 80.68977   144.8608   208.83     121.8109   80.01324   122.4618   0.1939718  3.949196   3.158887   6.319647   2.697457   5.556652   6.030639   9.990738   3.219096  
1856.917799999409 8.5        8.854053   -999.25    0.07480431 80.86697   145.2366   209.8612   125.0606   81.75468   124.4477   0.2094193  3.932075   3.223337   6.154644   2.684684   5.460707   5.986583   10.22889   3.055967  
1856.993999999409 8.5        8.851333   -999.25    0.08985442 81.17165   145.7702   210.9288   128.3856   84.09552   127.4558   0.2269969  3.90621    3.323953   6.043818   2.668261   5.421696   5.929712   10.48307   2.905718  
1857.070199999409 8.5        8.855159   -999.25    0.1022589  81.62679   146.5388   212.147    131.5622   86.87706   131.2176   0.2438304  3.87314    3.455637   5.976534   2.649165   5.434448   5.856643   10.72782   2.76682   
1857.146399999409 8.5        8.866232   -999.25    0.1080177  82.27188   147.5405   213.8214   133.6988   89.00439   134.7341   0.2522281  3.834745   3.57463    5.940018   2.636333   5.477283   5.803951   10.82841   2.680898  
1857.222599999409 8.5        8.85312    -999.25    0.1070185  82.86685   148.6791   215.2469   134.7451   89.81407   136.9013   0.2535622  3.791405   3.642851   5.855166   2.632791   5.436196   5.714409   10.75819   2.686445  
1857.298799999409 8.5        8.835996   -999.25    0.1040396  83.29517   149.7051   215.9258   135.5907   90.40246   138.4766   0.2520616  3.740802   3.700164   5.683336   2.633989   5.293547   5.483693   10.6705    2.700912  
1857.374999999409 8.5        8.823569   -999.25    0.09790689 83.52448   150.5619   215.8671   136.3438   91.0402    139.5182   0.2484723  3.684736   3.75707    5.473524   2.639762   5.105128   5.169324   10.6002    2.704099  
1857.451199999409 8.5        8.826584   -999.25    0.08435798 83.53033   151.2245   215.2759   136.8985   91.88477   139.8634   0.2427725  3.62786    3.82068    5.328396   2.651474   4.980314   4.901394   10.56301   2.684523  
1857.527399999409 8.5        8.828502   -999.25    0.06545702 83.227     151.4376   214.5602   136.7465   92.37229   139.7896   0.235292   3.611665   3.847319   5.4417     2.662666   5.109251   4.965824   10.58999   2.700587  
1857.603599999409 8.5        8.828737   -999.25    0.04730825 82.78678   151.529    213.7325   136.3175   92.59159   139.8999   0.2279251  3.623257   3.837815   5.587689   2.671845   5.269595   5.149794   10.70434   2.735012  
1857.679799999409 8.5        8.827486   -999.25    0.02878946 82.29176   151.6771   212.8199   136.0931   92.64846   140.1704   0.222027   3.654982   3.790704   5.631643   2.679942   5.301569   5.250976   10.94611   2.805531  
1857.755999999409 8.5        8.825103   -999.25    0.00784072 81.8315    152.0767   211.8588   136.6438   92.67466   140.5038   0.2191083  3.697735   3.705076   5.427425   2.688341   5.030975   5.022833   11.36095   2.935733  
1857.832199999409 8.5        8.823944   -999.25    -0.00261848 81.61004   152.2653   211.0662   137.9565   92.98135   141.1995   0.2207128  3.723421   3.629314   5.06892    2.693879   4.57516    4.596857   11.81674   3.061299  
1857.908399999409 8.5        8.821212   -999.25    -0.005176175 81.50996   152.3756   210.4266   139.0396   93.26849   142.6208   0.2250898  3.736434   3.574454   4.929722   2.695554   4.312412   4.347599   12.16725   3.15599   
1857.984599999409 8.5        8.817684   -999.25    -0.003324837 81.4721    152.4932   209.9201   139.7386   93.30577   144.4875   0.2306038  3.741529   3.525482   5.000065   2.694324   4.214475   4.238726   12.4118    3.252069  
1858.060799999409 8.5        8.813961   -999.25    -0.0001626552 81.44431   152.6748   209.5342   139.9521   92.83833   146.4979   0.2358528  3.741841   3.467639   5.274346   2.690671   4.261905   4.24344    12.5408    3.380575  
1858.136999999409 8.5        8.808719   -999.25    0.003430906 81.40656   152.6953   209.3859   139.8929   90.80103   147.8459   0.2407669  3.72123    3.371285   5.557447   2.678369   4.392874   4.317616   12.36236   3.600242  
1858.213199999409 8.5        8.803994   -999.25    0.006422619 81.25613   152.1283   209.3394   139.1215   88.50085   148.1525   0.2413889  3.692869   3.287445   5.999309   2.667021   4.648571   4.484542   12.04236   3.733364  
1858.289399999408 8.5        8.801436   -999.25    0.009512434 80.90631   150.7876   209.2566   137.5071   86.01488   147.4591   0.2370307  3.67037    3.214121   6.501155   2.660892   4.967731   4.685804   11.61428   3.782824  
1858.365599999408 8.5        8.801813   -999.25    0.01331614 80.29435   148.5983   209.0284   134.3382   82.94015   145.1534   0.2255773  3.669886   3.135175   6.994015   2.664297   5.316365   4.898347   11.02886   3.749113  
1858.441799999408 8.5        8.804579   -999.25    0.01942367 79.30728   145.6936   208.4218   125.5516   76.48249   137.2356   0.1959181  3.748712   2.955458   7.446672   2.690508   5.703649   5.191221   9.865035   3.62539   
1858.517999999408 8.5        8.806519   -999.25    0.02302043 77.90161   142.4056   207.4822   114.4498   69.53362   126.5048   0.1639451  3.871621   2.752917   8.919455   2.724451   7.133511   6.507659   8.655959   3.466831  
1858.594199999408 8.5        8.806234   -999.25    0.02321191 75.94187   138.3206   206.4018   102.7534   63.12606   115.1836   0.1351936  4.003855   2.559353   10.75215   2.75684    9.010534   8.372449   7.573202   3.293892  
1858.670399999408 8.5        8.803868   -999.25    0.02043754 73.41898   133.3342   205.2926   90.93062   57.39269   103.883    0.1104349  4.135623   2.379096   12.48346   2.785892   10.87803   10.43993   6.637742   3.099976  
1858.746599999408 8.5        8.801417   -999.25    0.01717977 70.44779   127.5314   204.3337   78.74815   51.68106   92.3214    0.08637416 4.270511   2.192877   13.51882   2.815448   12.10785   12.06346   5.737326   2.840306  
1858.822799999408 8.5        8.798139   -999.25    0.01369185 67.62065   122.1937   203.4935   65.47254   43.45279   75.39653   0.0596269  4.461759   1.892642   14.36446   2.853687   13.39723   13.92223   4.591887   2.414304  
1858.898999999408 8.5        8.797899   -999.25    0.01110697 64.85416   117.0027   202.6487   54.6637    35.40161   58.89193   0.03676969 4.645127   1.587163   15.40088   2.888661   15.11589   16.58401   3.526662   2.013073  
1858.975199999408 8.5        8.801074   -999.25    0.009233264 62.08202   111.7113   201.7652   47.02208   28.54392   45.03299   0.01965638 4.796993   1.319279   16.7269    2.915637   17.45839   20.53894   2.655834   1.686358  
1859.051399999408 8.5        8.807057   -999.25    0.00727105 59.19763   105.9246   200.8173   42.71801   24.009     36.33315   0.009753783 4.891699   1.138281   18.36821   2.92914    20.61788   26.53311   2.098212   1.468241  
1859.127599999408 8.5        8.810143   -999.25    0.005103911 56.79847   101.1374   200.1003   38.25454   20.37454   29.80731   0.002109562 4.958958   0.9935558  20.18854   2.939766   24.46657   34.91819   1.649695   1.236677  
1859.203799999408 8.5        8.811322   -999.25    0.003306089 54.95531   97.63409   199.6701   33.23568   16.71026   23.55768   -0.004593323 5.017478   0.8431826  22.18474   2.950803   28.85448   45.04519   1.218619   0.9562434 
