~Version
 VERS              .         2.0                           : CWLS LOG ASCII STANDARD - VERSION 2.0
 WRAP              .         NO                            : ONE LINE PER DEPTH STEP
 DLM               .         SPACE                         : DELIMITING CHARACTER(SPACE TAB OR COMMA)
~Well Information
#_______________________________________________________________________________
#
#PARAMETER_NAME    .UNIT     VALUE                         : DESCRIPTION
#_______________________________________________________________________________
STRT               .m        0                             : First reference value
STOP               .m        2123.99879999932              : Last reference value
STEP               .m        0.0762                        : Step increment
NULL               .         -999.25                       : Missing value
COMP               .         EBN B.V                       : Company
WELL               .         BLT-01                        : Well name
FLD                .         Utrecht-Oost                  : Field
LOC                .                                       : Location
PROV               .         Utrecht                       : Province
SRVC               .         RED Drilling & Services       : Service Company
DATE               .         13-Feb-25                     : Date
UWI                .         BLT-01                        : Unique Well ID
APD                .m        8.629999978637695             : DEPTH ABOVE PD
API                .                                       : API NUMBER
BHT                .degF     167                           : BottomHole Temp
BLI                .m        2115                          : BotLog Interval
BS                 .in       8.5                           : Bit Size
CNTY               .                                       : COUNTY
CTRY               .         The Netherlands               : 
DCS                .         12-Feb-25                     : DateCircEndT
DFD                .g/cc     1.159999966621399             : MudDensity
DLAB               .         13-Feb-25                     : LogStartDateT
EDF                .m        8.629999978637695             : DF ELEV
EGL                .m        2.400000163650513             : GL ELEV
EKB                .m        8.629999978637695             : KB ELEV
EPD                .m        0                             : ELEVATION
LMF                .         DF                            : LOG MEAS FROM
LUL                .         EMMEN                         : LoggingUnitLoc
LUN                .         12102977                      : LoggingUnitNum
LATI               .dega     52.10100072                   : 
LONG               .dega     5.19171536                    : 
MST                .degF     64.40000152587891             : Rm Temperature
ORIGINALWELLNAME   .         BLT-01                        : 
PDAT               .         NAP                           : PERMANENT DATUM
PRODUCER-CODE      .         280                           : 
PRODUCER-NAME      .         Halliburton                   : 
RUN                .         2.1                           : Run Name
STAT               .         Utrecht-Oost                  : STATE NAME
TCS                .         18_25                         : TimeCircEndT
TDD                .m        2123                          : Depth Driller
TDL                .m        2123.800048828125             : Depth Logger
TLAB               .         02_25                         : LogStartTimeT
TLI                .m        1626                          : TopLog Interval
X                  .m        141577.55000000               : 
Y                  .m        456881.76000000               : 
~Parameter Information Block
#_______________________________________________________________________________
#
#PARAMETER_NAME    .UNIT     VALUE                         : DESCRIPTION
#_______________________________________________________________________________
SET                .         LQC                           : 
TLFamily_BITSIZE   .         Bit Size                      : 
TLFamily_CALI      .         Caliper                       : 
TLFamily_CASING_FLAG-(S)GR_NPHI_DTC .         General Flag                  : 
TLFamily_DRHO      .         Bulk Density Correction       : 
TLFamily_DTC       .         Compressional Slowness        : 
TLFamily_DTS       .         Shear Slowness                : 
TLFamily_DTST      .         Stoneley Slowness             : 
TLFamily_GR        .         Gamma Ray                     : 
TLFamily_GRKT      .         Gamma Ray Minus Uranium       : 
TLFamily_GRTO      .         Gamma Ray                     : 
TLFamily_MD        .         Measured Depth                : 
TLFamily_NPHI      .         Neutron Porosity              : 
TLFamily_PE        .         Photoelectric Factor          : 
TLFamily_POTA      .         Potassium Concentration       : 
TLFamily_RD        .         Resistivity - Deep            : 
TLFamily_RHOB      .         Bulk Density                  : 
TLFamily_RM        .         Resistivity - Medium          : 
TLFamily_RS        .         Resistivity - Shallow         : 
TLFamily_THOR      .         Thorium Concentration         : 
TLFamily_URAN      .         Uranium Concentration         : 
~Curve Information
#_______________________________________________________________________________
#
#LOGNAME           .UNIT     LOG_ID                        : DESCRIPTION
#_______________________________________________________________________________
MD                 .m                                      :  
BITSIZE            .in                                     :  
CALI               .in                                     :  
CASING_FLAG-(S)GR_NPHI_DTC .                                       :  
DRHO               .g/cm3                                  :  
DTC                .us/ft                                  :  
DTS                .us/ft                                  :  
DTST               .us/ft                                  :  
GR                 .gAPI                                   : Reference GR  
GRKT               .gAPI                                   : Uranium free GR  
GRTO               .gAPI                                   : Total GR from SGR Tool  
NPHI               .m3/m3                                  :  
PE                 .b/e                                    :  
POTA               .%                                      :  
RD                 .ohm.m                                  :  
RHOB               .g/cm3                                  :  
RM                 .ohm.m                                  :  
RS                 .ohm.m                                  :  
THOR               .ppm                                    :  
URAN               .ppm                                    :  
~Ascii
# ...
1728.06359999945 8.5        8.684636   -999.25    0.006369901 77.96056   138.753    213.9319   159.8701   91.29401   167.2619   0.1765807  3.466751   3.580598   4.260838   2.636194   3.972974   3.905973   11.55532   5.487399  
1728.13979999945 8.5        8.680943   -999.25    0.006690172 77.67625   138.2599   213.3958   156.7206   88.93848   162.9245   0.1719515  3.430083   3.442482   4.363379   2.631885   4.096247   4.008853   11.47432   5.485164  
1728.21599999945 8.5        8.679908   -999.25    0.006657314 77.37817   137.5965   212.9044   153.5261   86.60921   158.8897   0.1671057  3.390505   3.310828   4.506765   2.628099   4.244887   4.130602   11.37103   5.508286  
1728.29219999945 8.5        8.678914   -999.25    0.006488489 77.05163   136.8096   212.4815   150.8258   84.66718   155.7489   0.1616877  3.358713   3.205948   4.676031   2.625536   4.425385   4.296699   11.26187   5.54756   
1728.36839999945 8.5        8.676939   -999.25    0.006339079 76.69754   135.9342   212.1142   148.6941   83.14613   153.6422   0.1556935  3.337671   3.128643   4.848488   2.624313   4.618461   4.499519   11.15353   5.605221  
1728.44459999945 8.5        8.673956   -999.25    0.006520597 76.34492   135.0446   211.7054   146.5404   81.58057   152.1761   0.1497117  3.322185   3.047896   4.944872   2.62375    4.714861   4.641548   11.04756   5.706483  
1728.52079999945 8.5        8.66933    -999.25    0.006977416 76.02919   134.2478   211.2859   143.4174   79.30157   151.4367   0.1426617  3.293187   2.939707   4.948443   2.624305   4.719604   4.787398   10.84898   5.890171  
1728.59699999945 8.5        8.664645   -999.25    0.007310163 75.77367   133.5919   211.0399   140.4421   77.07933   150.8665   0.1363557  3.256008   2.845116   4.907279   2.62433    4.687028   4.872361   10.60368   6.079314  
1728.67319999945 8.5        8.66113    -999.25    0.007395558 75.58529   133.0917   211.003    138.059    75.26077   150.1442   0.1318667  3.214648   2.780604   4.854443   2.623337   4.658784   4.901637   10.34181   6.238655  
1728.74939999945 8.5        8.660998   -999.25    0.007147905 75.46858   132.7583   211.1609   136.7603   74.28817   148.7719   0.1308903  3.1762     2.764678   4.843843   2.621024   4.708079   4.932768   10.11371   6.322552  
1728.82559999945 8.5        8.656143   -999.25    0.007285084 75.45379   132.6305   211.1315   136.2536   73.89085   147.5944   0.132871   3.126737   2.784295   4.859927   2.6177     4.806372   5.000726   9.897054   6.319588  
1728.90179999945 8.5        8.651314   -999.25    0.007458172 75.52884   132.6493   210.965    136.8222   74.01048   147.2857   0.1355576  3.087134   2.824345   4.887802   2.615459   4.836183   5.022451   9.745087   6.253653  
1728.97799999945 8.5        8.648655   -999.25    0.007509235 75.6628    132.7968   210.692    138.4626   74.73359   147.5946   0.1383695  3.062361   2.884988   4.898991   2.614873   4.785207   4.980994   9.684013   6.119755  
1729.05419999945 8.5        8.650626   -999.25    0.007256797 75.80918   133.0537   210.3525   141.1049   76.19598   148.0064   0.140801   3.056258   2.968835   4.852279   2.616442   4.660507   4.868279   9.743806   5.906925  
1729.13039999945 8.5        8.649628   -999.25    0.005983261 75.96181   133.4234   209.9906   145.1921   79.84827   148.227    0.1450158  3.066754   3.147652   4.863131   2.618655   4.566027   4.760106   10.03794   5.440376  
1729.20659999945 8.5        8.647133   -999.25    0.004709783 76.09072   133.8175   209.5813   147.9967   83.57365   148.9487   0.1488796  3.081848   3.324245   4.914236   2.620644   4.562827   4.742188   10.36535   4.977533  
1729.282799999449 8.5        8.645637   -999.25    0.003551692 76.13644   134.1666   209.1335   149.3092   86.93565   149.8971   0.1518403  3.097564   3.474208   4.96644    2.621814   4.596439   4.721379   10.70534   4.567152  
1729.358999999449 8.5        8.64735    -999.25    0.002577569 76.0414    134.3978   208.6623   149.0886   89.58327   150.7488   0.1533898  3.110412   3.577348   4.982071   2.621645   4.612047   4.615808   11.044     4.246964  
1729.435199999449 8.5        8.647491   -999.25    0.001493203 75.74487   134.281    208.2844   148.4826   91.63599   150.7865   0.1520373  3.122533   3.637806   5.007344   2.6206     4.63662    4.680604   11.39914   3.989697  
1729.511399999449 8.5        8.646894   -999.25    0.000233592 75.43286   133.9675   208.0189   147.6633   93.14581   150.0589   0.1496455  3.13686    3.674683   5.117047   2.619682   4.725296   4.673386   11.6963    3.809146  
1729.587599999449 8.5        8.646086   -999.25    -0.001205142 75.13029   133.5389   207.8961   146.1922   93.80476   148.691    0.1441909  3.15716    3.664767   5.330883   2.61953    4.955701   4.780472   11.94925   3.763967  
1729.663799999449 8.5        8.645784   -999.25    -0.002747573 74.85164   133.0523   207.9334   143.8496   93.4517    146.912    0.1348383  3.184757   3.5964     5.660004   2.620655   5.392928   5.137109   12.16293   3.884238  
1729.739999999449 8.5        8.649179   -999.25    -0.003755374 74.58863   132.5544   208.1283   141.0485   92.29794   145.9469   0.1249827  3.211418   3.490557   6.032143   2.624002   6.043468   5.822613   12.30405   4.123145  
1729.81619999945 8.5        8.652675   -999.25    -0.004265282 74.42034   132.1046   208.3994   139.2398   91.17598   145.9914   0.1177769  3.228884   3.390413   6.00929    2.627608   6.18085    6.111867   12.42809   4.365932  
1729.892399999449 8.5        8.653852   -999.25    -0.004453931 74.36211   131.7889   208.7637   138.7171   90.0841    146.7081   0.112108   3.241442   3.292853   5.667244   2.630706   5.885232   6.03446    12.54924   4.631072  
1729.968599999449 8.5        8.652921   -999.25    -0.004389673 74.41854   131.6582   209.2233   139.7353   89.04286   148.0833   0.107805   3.250945   3.198633   5.137281   2.632876   5.304308   5.646894   12.67033   4.924424  
1730.044799999449 8.5        8.654711   -999.25    -0.004079992 74.58376   131.7887   209.7598   142.8979   88.14245   150.5982   0.1059287  3.258375   3.115989   4.680865   2.633575   4.70417    5.046286   12.78064   5.240974  
1730.120999999449 8.5        8.656555   -999.25    -0.002056651 74.86038   132.1689   210.1918   149.3203   87.89406   156.6479   0.113063   3.272359   3.050017   4.449734   2.632921   4.378234   4.700955   13.01564   5.608262  
1730.197199999449 8.5        8.658467   -999.25    0.0005454303 75.20731   132.8086   210.5802   155.515    88.1272    163.0438   0.1254703  3.292295   3.010635   4.338268   2.632761   4.235075   4.4953     13.27505   5.920264  
1730.273399999449 8.5        8.660142   -999.25    0.003192173 75.63184   133.7462   210.9728   160.1952   88.73527   168.5459   0.141299   3.316074   3.00072    4.291844   2.633501   4.199037   4.362182   13.51191   6.142267  
1730.349599999449 8.5        8.660818   -999.25    0.005175591 76.17485   135.0724   211.4556   162.0606   89.54753   171.8087   0.1579974  3.338799   3.022113   4.235389   2.63514    4.145158   4.210209   13.66415   6.245528  
1730.425799999449 8.5        8.660199   -999.25    0.007552507 76.80405   136.5565   212.0111   162.8659   90.56004   174.7221   0.1698778  3.356247   3.061859   4.211328   2.638867   4.115396   4.082672   13.79165   6.382849  
1730.501999999449 8.5        8.661068   -999.25    0.009611947 77.38333   137.909    212.4478   163.0214   91.43635   176.5448   0.1758979  3.363989   3.108445   4.19398    2.642612   4.064035   3.956868   13.84406   6.505769  
1730.578199999449 8.5        8.663111   -999.25    0.01110664 77.88992   139.0725   212.7247   162.6901   92.01392   177.1953   0.1774973  3.365505   3.153746   4.168205   2.645699   3.992886   3.834219   13.8092    6.607847  
1730.654399999449 8.5        8.665379   -999.25    0.011788   78.31291   140.0104   212.8131   162.0585   92.1067    176.6899   0.1770943  3.366885   3.187379   4.115836   2.647459   3.911933   3.719864   13.67825   6.687646  
1730.730599999449 8.5        8.669776   -999.25    0.01194626 78.58951   140.5612   212.5409   161.6808   91.74263   175.6411   0.1777822  3.385457   3.203932   4.09778    2.647272   3.847325   3.661098   13.48547   6.791368  
