~Version
 VERS              .         2.0                           : CWLS LOG ASCII STANDARD - VERSION 2.0
 WRAP              .         NO                            : ONE LINE PER DEPTH STEP
 DLM               .         SPACE                         : DELIMITING CHARACTER(SPACE TAB OR COMMA)
~Well Information
#_______________________________________________________________________________
#
#PARAMETER_NAME    .UNIT     VALUE                         : DESCRIPTION
#_______________________________________________________________________________
STRT               .m        0                             : First reference value
STOP               .m        2123.99879999932              : Last reference value
STEP               .m        0.0762                        : Step increment
NULL               .         -999.25                       : Missing value
COMP               .         EBN B.V                       : Company
WELL               .         BLT-01                        : Well name
FLD                .         Utrecht-Oost                  : Field
LOC                .                                       : Location
PROV               .         Utrecht                       : Province
SRVC               .         RED Drilling & Services       : Service Company
DATE               .         13-Feb-25                     : Date
UWI                .         BLT-01                        : Unique Well ID
APD                .m        8.629999978637695             : DEPTH ABOVE PD
API                .                                       : API NUMBER
BHT                .degF     167                           : BottomHole Temp
BLI                .m        2115                          : BotLog Interval
BS                 .in       8.5                           : Bit Size
CNTY               .                                       : COUNTY
CTRY               .         The Netherlands               : 
DCS                .         12-Feb-25                     : DateCircEndT
DFD                .g/cc     1.159999966621399             : MudDensity
DLAB               .         13-Feb-25                     : LogStartDateT
EDF                .m        8.629999978637695             : DF ELEV
EGL                .m        2.400000163650513             : GL ELEV
EKB                .m        8.629999978637695             : KB ELEV
EPD                .m        0                             : ELEVATION
LMF                .         DF                            : LOG MEAS FROM
LUL                .         EMMEN                         : LoggingUnitLoc
LUN                .         12102977                      : LoggingUnitNum
LATI               .dega     52.10100072                   : 
LONG               .dega     5.19171536                    : 
MST                .degF     64.40000152587891             : Rm Temperature
ORIGINALWELLNAME   .         BLT-01                        : 
PDAT               .         NAP                           : PERMANENT DATUM
PRODUCER-CODE      .         280                           : 
PRODUCER-NAME      .         Halliburton                   : 
RUN                .         2.1                           : Run Name
STAT               .         Utrecht-Oost                  : STATE NAME
TCS                .         18_25                         : TimeCircEndT
TDD                .m        2123                          : Depth Driller
TDL                .m        2123.800048828125             : Depth Logger
TLAB               .         02_25                         : LogStartTimeT
TLI                .m        1626                          : TopLog Interval
X                  .m        141577.55000000               : 
Y                  .m        456881.76000000               : 
~Parameter Information Block
#_______________________________________________________________________________
#
#PARAMETER_NAME    .UNIT     VALUE                         : DESCRIPTION
#_______________________________________________________________________________
SET                .         LQC                           : 
TLFamily_BITSIZE   .         Bit Size                      : 
TLFamily_CALI      .         Caliper                       : 
TLFamily_CASING_FLAG-(S)GR_NPHI_DTC .         General Flag                  : 
TLFamily_DRHO      .         Bulk Density Correction       : 
TLFamily_DTC       .         Compressional Slowness        : 
TLFamily_DTS       .         Shear Slowness                : 
TLFamily_DTST      .         Stoneley Slowness             : 
TLFamily_GR        .         Gamma Ray                     : 
TLFamily_GRKT      .         Gamma Ray Minus Uranium       : 
TLFamily_GRTO      .         Gamma Ray                     : 
TLFamily_MD        .         Measured Depth                : 
TLFamily_NPHI      .         Neutron Porosity              : 
TLFamily_PE        .         Photoelectric Factor          : 
TLFamily_POTA      .         Potassium Concentration       : 
TLFamily_RD        .         Resistivity - Deep            : 
TLFamily_RHOB      .         Bulk Density                  : 
TLFamily_RM        .         Resistivity - Medium          : 
TLFamily_RS        .         Resistivity - Shallow         : 
TLFamily_THOR      .         Thorium Concentration         : 
TLFamily_URAN      .         Uranium Concentration         : 
~Curve Information
#_______________________________________________________________________________
#
#LOGNAME           .UNIT     LOG_ID                        : DESCRIPTION
#_______________________________________________________________________________
MD                 .m                                      :  
BITSIZE            .in                                     :  
CALI               .in                                     :  
CASING_FLAG-(S)GR_NPHI_DTC .                                       :  
DRHO               .g/cm3                                  :  
DTC                .us/ft                                  :  
DTS                .us/ft                                  :  
DTST               .us/ft                                  :  
GR                 .gAPI                                   : Reference GR  
GRKT               .gAPI                                   : Uranium free GR  
GRTO               .gAPI                                   : Total GR from SGR Tool  
NPHI               .m3/m3                                  :  
PE                 .b/e                                    :  
POTA               .%                                      :  
RD                 .ohm.m                                  :  
RHOB               .g/cm3                                  :  
RM                 .ohm.m                                  :  
RS                 .ohm.m                                  :  
THOR               .ppm                                    :  
URAN               .ppm                                    :  
~Ascii
# ...
299.0087999999049 17.5       -999.25    1          -999.25    160.6592   -999.25    -999.25    44.76949   34.11632   55.30629   0.5206492  -999.25    1.18109    3.062265   -999.25    2.83       4.852266   4.783424   2.234572  
299.0849999999048 17.5       -999.25    1          -999.25    160.918    -999.25    -999.25    44.67661   33.45716   54.867     0.5129597  -999.25    1.129747   3.06       -999.25    2.83       4.855378   4.826273   2.285798  
299.1611999999048 17.5       -999.25    1          -999.25    161.159    -999.25    -999.25    43.92461   32.16037   53.85538   0.5086643  -999.25    1.091622   3.056967   -999.25    2.83       4.853933   4.612338   2.411036  
299.2373999999048 17.5       -999.25    1          -999.25    161.2657   -999.25    -999.25    43.12338   31.09504   53.74312   0.483786   -999.25    1.062173   3.047957   -999.25    2.82864    4.838642   4.427739   2.495833  
299.3135999999047 17.5       -999.25    1          -999.25    161.3843   -999.25    -999.25    43.2476    30.24837   54.196     0.46833    -999.25    1.055766   3.025      -999.25    2.813337   4.823341   4.200408   2.564435  
299.3897999999047 17.5       -999.25    1          -999.25    161.4657   -999.25    -999.25    44.15066   29.21885   55.06851   0.4823677  -999.25    1.039163   3.008034   -999.25    2.792036   4.790062   3.965784   2.656718  
299.4659999999047 17.5       -999.25    1          -999.25    161.5742   -999.25    -999.25    45.69158   29.09872   55.01924   0.4537852  -999.25    1.05415    2.989094   -999.25    2.772736   4.751821   3.858166   2.662435  
299.5421999999047 17.5       -999.25    1          -999.25    161.4098   -999.25    -999.25    46.63493   28.71793   55.44896   0.4556264  -999.25    1.067326   2.968726   -999.25    2.757447   4.713609   3.679795   2.746875  
299.6183999999046 17.5       -999.25    1          -999.25    161.1826   -999.25    -999.25    47.25488   28.59116   55.86318   0.443714   -999.25    1.103724   2.961078   -999.25    2.742151   4.67537    3.468589   2.77755   
299.6945999999046 17.5       -999.25    1          -999.25    161.2399   -999.25    -999.25    47.4205    28.69943   57.32675   0.4639565  -999.25    1.120012   2.953427   -999.25    2.746565   4.67       3.424297   2.787072  
299.7707999999046 17.5       -999.25    1          -999.25    161.4379   -999.25    -999.25    47.26384   28.83267   58.0812    0.4854199  -999.25    1.12252    2.95       -999.25    2.75       4.674215   3.452971   2.794072  
299.8469999999045 17.5       -999.25    1          -999.25    161.6391   -999.25    -999.25    46.88784   29.55773   58.33335   0.4856398  -999.25    1.128361   2.942492   -999.25    2.746255   4.672507   3.645977   2.735271  
299.9231999999045 17.5       -999.25    1          -999.25    161.4584   -999.25    -999.25    46.48834   30.64949   58.09428   0.4783987  -999.25    1.146656   2.911926   -999.25    2.730966   4.641931   3.891446   2.680629  
299.9993999999045 17.5       -999.25    1          -999.25    161.3393   -999.25    -999.25    46.91469   31.69022   58.25031   0.4874921  -999.25    1.14918    2.881288   -999.25    2.701284   4.589745   4.196152   2.648666  
300.0755999999045 17.5       -999.25    1          -999.25    160.5524   -999.25    -999.25    46.92029   33.06609   58.45124   0.5313317  -999.25    1.168115   2.840966   -999.25    2.656082   4.511851   4.525045   2.534295  
300.1517999999045 17.5       -999.25    1          -999.25    159.8302   -999.25    -999.25    46.88112   34.25898   58.97909   0.5373083  -999.25    1.167753   2.797611   -999.25    2.602596   4.420161   4.889797   2.472291  
300.2279999999045 17.5       -999.25    1          -999.25    160.253    -999.25    -999.25    46.27572   35.57104   59.09183   0.4979005  -999.25    1.170448   2.75989    -999.25    2.54989    4.329337   5.276314   2.399499  
300.3041999999044 17.5       -999.25    1          -999.25    160.6636   -999.25    -999.25    45.92994   36.06824   59.4916    0.4627234  -999.25    1.158173   2.752239   -999.25    2.542238   4.283377   5.485826   2.446267  
300.3803999999044 17.5       -999.25    1          -999.25    161.1352   -999.25    -999.25    46.36636   36.32978   60.27695   0.4794035  -999.25    1.129881   2.776923   -999.25    2.56155    4.291582   5.699598   2.525764  
300.4565999999044 17.5       -999.25    1          -999.25    161.5018   -999.25    -999.25    47.62416   36.22565   61.42183   0.5006552  -999.25    1.114214   2.818199   -999.25    2.598187   4.340313   5.742216   2.607074  
300.5327999999043 17.5       -999.25    1          -999.25    160.8577   -999.25    -999.25    48.82937   35.53333   62.5022    0.5181435  -999.25    1.105851   2.860703   -999.25    2.641404   4.412805   5.571145   2.736224  
300.6089999999043 17.5       -999.25    1          -999.25    161.5548   -999.25    -999.25    49.5713    34.15679   63.03835   0.5397931  -999.25    1.062173   2.86835    -999.25    2.656695   4.443387   5.359405   2.931066  
300.6851999999043 17.5       -999.25    1          -999.25    162.5597   -999.25    -999.25    49.89694   32.25096   63.12544   0.5319554  -999.25    1.015436   2.863994   -999.25    2.647979   4.443995   5.00107    3.121083  
300.7613999999043 17.5       -999.25    1          -999.25    163.9142   -999.25    -999.25    50.1269    30.34876   62.91545   0.5020615  -999.25    0.9764383  2.86       -999.25    2.64       4.443647   4.607115   3.304899  
300.8375999999042 17.5       -999.25    1          -999.25    165.4208   -999.25    -999.25    50.24944   29.0262    62.71282   0.4909445  -999.25    0.9678134  2.862589   -999.25    2.642589   4.459029   4.245511   3.404324  
300.9137999999042 17.5       -999.25    1          -999.25    165.9399   -999.25    -999.25    50.77483   27.69673   62.10614   0.4969412  -999.25    0.9687729  2.877888   -999.25    2.657887   4.512579   3.83634    3.503297  
300.9899999999042 17.5       -999.25    1          -999.25    166.3839   -999.25    -999.25    51.27336   26.75659   61.36378   0.5278687  -999.25    0.9536672  2.899753   -999.25    2.67975    4.579164   3.621871   3.530029  
301.0661999999041 17.5       -999.25    1          -999.25    166.6243   -999.25    -999.25    51.12061   25.9829    60.66028   0.5022119  -999.25    0.9439032  2.91424    -999.25    2.702693   4.631156   3.432702   3.504419  
301.1423999999042 17.5       -999.25    1          -999.25    166.6338   -999.25    -999.25    51.42331   25.70991   60.44547   0.4836017  -999.25    0.9478099  2.92       -999.25    2.72189    4.661891   3.331077   3.439904  
301.2185999999041 17.5       -999.25    1          -999.25    165.9415   -999.25    -999.25    50.44527   26.19053   59.98684   0.4953882  -999.25    0.9633765  2.92       -999.25    2.729541   4.669541   3.403422   3.307322  
301.2947999999041 17.5       -999.25    1          -999.25    164.8407   -999.25    -999.25    49.34413   26.74365   58.97245   0.5021604  -999.25    0.9857855  2.92       -999.25    2.73       4.677188   3.465384   3.161643  
301.3709999999041 17.5       -999.25    1          -999.25    163.7044   -999.25    -999.25    48.01136   27.60294   57.43561   0.5199931  -999.25    1.005547   2.92       -999.25    2.734834   4.684836   3.63313    2.960762  
301.4471999999041 17.5       -999.25    1          -999.25    163.1143   -999.25    -999.25    46.03513   28.50208   55.78942   0.4690855  -999.25    1.031435   2.922484   -999.25    2.74       4.692486   3.783979   2.740825  
301.523399999904 17.5       -999.25    1          -999.25    163.3085   -999.25    -999.25    44.44385   28.91152   53.94185   0.4602218  -999.25    1.053762   2.930136   -999.25    2.740136   4.700136   3.802751   2.581902  
301.599599999904 17.5       -999.25    1          -999.25    163.4292   -999.25    -999.25    42.54148   29.57006   51.74074   0.4676237  -999.25    1.075086   2.937782   -999.25    2.747782   4.707783   3.902134   2.38692   
301.675799999904 17.5       -999.25    1          -999.25    163.5745   -999.25    -999.25    40.60554   30.61873   49.78704   0.4955     -999.25    1.109055   2.945429   -999.25    2.755429   4.720856   4.060309   2.17171   
