~Version
 VERS              .         2.0                           : CWLS LOG ASCII STANDARD - VERSION 2.0
 WRAP              .         NO                            : ONE LINE PER DEPTH STEP
 DLM               .         SPACE                         : DELIMITING CHARACTER(SPACE TAB OR COMMA)
~Well Information
#_______________________________________________________________________________
#
#PARAMETER_NAME    .UNIT     VALUE                         : DESCRIPTION
#_______________________________________________________________________________
STRT               .m        0                             : First reference value
STOP               .m        2123.99879999932              : Last reference value
STEP               .m        0.0762                        : Step increment
NULL               .         -999.25                       : Missing value
COMP               .         EBN B.V                       : Company
WELL               .         BLT-01                        : Well name
FLD                .         Utrecht-Oost                  : Field
LOC                .                                       : Location
PROV               .         Utrecht                       : Province
SRVC               .         RED Drilling & Services       : Service Company
DATE               .         13-Feb-25                     : Date
UWI                .         BLT-01                        : Unique Well ID
APD                .m        8.629999978637695             : DEPTH ABOVE PD
API                .                                       : API NUMBER
BHT                .degF     167                           : BottomHole Temp
BLI                .m        2115                          : BotLog Interval
BS                 .in       8.5                           : Bit Size
CNTY               .                                       : COUNTY
CTRY               .         The Netherlands               : 
DCS                .         12-Feb-25                     : DateCircEndT
DFD                .g/cc     1.159999966621399             : MudDensity
DLAB               .         13-Feb-25                     : LogStartDateT
EDF                .m        8.629999978637695             : DF ELEV
EGL                .m        2.400000163650513             : GL ELEV
EKB                .m        8.629999978637695             : KB ELEV
EPD                .m        0                             : ELEVATION
LMF                .         DF                            : LOG MEAS FROM
LUL                .         EMMEN                         : LoggingUnitLoc
LUN                .         12102977                      : LoggingUnitNum
LATI               .dega     52.10100072                   : 
LONG               .dega     5.19171536                    : 
MST                .degF     64.40000152587891             : Rm Temperature
ORIGINALWELLNAME   .         BLT-01                        : 
PDAT               .         NAP                           : PERMANENT DATUM
PRODUCER-CODE      .         280                           : 
PRODUCER-NAME      .         Halliburton                   : 
RUN                .         2.1                           : Run Name
STAT               .         Utrecht-Oost                  : STATE NAME
TCS                .         18_25                         : TimeCircEndT
TDD                .m        2123                          : Depth Driller
TDL                .m        2123.800048828125             : Depth Logger
TLAB               .         02_25                         : LogStartTimeT
TLI                .m        1626                          : TopLog Interval
X                  .m        141577.55000000               : 
Y                  .m        456881.76000000               : 
~Parameter Information Block
#_______________________________________________________________________________
#
#PARAMETER_NAME    .UNIT     VALUE                         : DESCRIPTION
#_______________________________________________________________________________
SET                .         LQC                           : 
TLFamily_BITSIZE   .         Bit Size                      : 
TLFamily_CALI      .         Caliper                       : 
TLFamily_CASING_FLAG-(S)GR_NPHI_DTC .         General Flag                  : 
TLFamily_DRHO      .         Bulk Density Correction       : 
TLFamily_DTC       .         Compressional Slowness        : 
TLFamily_DTS       .         Shear Slowness                : 
TLFamily_DTST      .         Stoneley Slowness             : 
TLFamily_GR        .         Gamma Ray                     : 
TLFamily_GRKT      .         Gamma Ray Minus Uranium       : 
TLFamily_GRTO      .         Gamma Ray                     : 
TLFamily_MD        .         Measured Depth                : 
TLFamily_NPHI      .         Neutron Porosity              : 
TLFamily_PE        .         Photoelectric Factor          : 
TLFamily_POTA      .         Potassium Concentration       : 
TLFamily_RD        .         Resistivity - Deep            : 
TLFamily_RHOB      .         Bulk Density                  : 
TLFamily_RM        .         Resistivity - Medium          : 
TLFamily_RS        .         Resistivity - Shallow         : 
TLFamily_THOR      .         Thorium Concentration         : 
TLFamily_URAN      .         Uranium Concentration         : 
~Curve Information
#_______________________________________________________________________________
#
#LOGNAME           .UNIT     LOG_ID                        : DESCRIPTION
#_______________________________________________________________________________
MD                 .m                                      :  
BITSIZE            .in                                     :  
CALI               .in                                     :  
CASING_FLAG-(S)GR_NPHI_DTC .                                       :  
DRHO               .g/cm3                                  :  
DTC                .us/ft                                  :  
DTS                .us/ft                                  :  
DTST               .us/ft                                  :  
GR                 .gAPI                                   : Reference GR  
GRKT               .gAPI                                   : Uranium free GR  
GRTO               .gAPI                                   : Total GR from SGR Tool  
NPHI               .m3/m3                                  :  
PE                 .b/e                                    :  
POTA               .%                                      :  
RD                 .ohm.m                                  :  
RHOB               .g/cm3                                  :  
RM                 .ohm.m                                  :  
RS                 .ohm.m                                  :  
THOR               .ppm                                    :  
URAN               .ppm                                    :  
~Ascii
# ...
1588.617599999494 12.25      12.12595   -999.25    -0.004486134 82.152     145.3676   288.0786   122.2556   87.99149   154.4636   0.2118868  3.411279   3.346676   5.076164   2.58097    5.633732   6.100863   10.94412   6.368585  
1588.693799999494 12.25      12.12731   -999.25    -0.003323329 82.95623   147.5288   287.3726   124.3244   90.2004    155.7869   0.2098619  3.396597   3.466606   5.147875   2.5748     5.729555   6.15578    11.0483    6.134586  
1588.769999999494 12.25      12.13274   -999.25    -0.001071173 83.54356   149.3428   286.8347   124.9564   91.25198   156.4962   0.2092306  3.372559   3.542535   5.196226   2.573474   5.797318   6.171076   11.00848   5.978079  
1588.846199999494 12.25      12.13184   -999.25    -0.0002155175 83.87323   150.8734   286.4649   125.402    91.75539   156.3006   0.209008   3.346767   3.608427   5.213266   2.57194    5.826641   6.142285   10.84932   5.86071   
1588.922399999494 12.25      12.11685   -999.25    0.0002126691 83.97409   151.9663   286.3201   126.3168   92.76698   156.0137   0.2077062  3.319426   3.67967    5.201133   2.573981   5.819749   6.080981   10.82002   5.634655  
1588.998599999494 12.25      12.11717   -999.25    -0.0004259473 83.95193   152.7989   286.141    126.3219   94.21464   155.2237   0.2049763  3.296821   3.761255   5.169344   2.57547    5.788287   6.007874   10.87471   5.333827  
1589.074799999494 12.25      12.11922   -999.25    -0.002170638 83.84982   153.2614   286.1786   126.7566   94.50591   154.973    0.2047405  3.28808    3.800384   5.130085   2.576121   5.747257   5.943849   10.77846   5.183597  
1589.150999999494 12.25      12.11475   -999.25    -0.003490585 83.76196   153.4908   286.2051   126.2984   94.9508    154.3921   0.2070184  3.300661   3.817217   5.095966   2.578015   5.71225    5.906697   10.8348    5.042466  
1589.227199999494 12.25      12.1023    -999.25    -0.004531172 83.68426   153.5904   286.2125   125.3399   93.46003   153.994    0.2060453  3.319181   3.781842   5.083008   2.579527   5.703214   5.916286   10.54871   5.135057  
1589.303399999494 12.25      12.10335   -999.25    -0.004733364 83.41783   152.9483   286.1824   123.5665   92.56203   152.8647   0.2083945  3.341504   3.731605   5.108989   2.580865   5.742561   5.994514   10.51361   5.153677  
1589.379599999494 12.25      12.0941    -999.25    -0.004173727 83.23262   152.4056   286.1801   120.6962   90.46184   151.4954   0.2063692  3.34902    3.643168   5.190518   2.58334    5.851598   6.163144   10.29336   5.329296  
1589.455799999494 12.25      12.09753   -999.25    -0.003913226 82.9754    151.5475   286.3382   118.8095   88.23151   149.8162   0.2088079  3.327454   3.541898   5.34128    2.587975   6.048838   6.443279   10.09407   5.516611  
1589.531999999494 12.25      12.10501   -999.25    -0.002730611 82.60457   150.7556   286.4014   117.3281   86.0218    147.8548   0.2069058  3.298306   3.42418    5.561449   2.594779   6.336619   6.840507   9.978889   5.637064  
1589.608199999494 12.25      12.09896   -999.25    -0.001173736 82.06739   149.5178   286.4452   118.0323   84.13062   144.8352   0.2011523  3.264253   3.284176   5.830065   2.602399   6.690067   7.331409   10.06628   5.675497  
1589.684399999494 12.25      12.09333   -999.25    0.0004042796 81.71163   148.1533   286.6173   118.4511   81.48108   141.2511   0.1899222  3.252352   3.140891   6.123278   2.608252   7.079338   7.883875   9.938255   5.747057  
1589.760599999494 12.25      12.11056   -999.25    0.002708653 81.09879   146.2138   287.0167   116.2354   79.64603   137.2081   0.1804675  3.283673   3.018931   6.435937   2.61333    7.498197   8.490809   9.957552   5.640588  
1589.836799999494 12.25      12.11737   -999.25    0.005107729 80.62859   144.7588   288.393    113.052    77.52101   133.26     0.1747715  3.346324   2.921376   6.778417   2.619155   7.961318   9.169321   9.772762   5.466212  
1589.912999999494 12.25      12.11611   -999.25    0.006975364 79.84101   142.6535   290.0149   108.107    76.0815    129.487    0.1633095  3.423824   2.828364   7.157908   2.624355   8.480103   9.931408   9.775388   5.110205  
1589.989199999494 12.25      12.10594   -999.25    0.009370944 78.84265   140.6604   289.6658   102.9429   74.04871   124.739    0.1490939  3.502135   2.72224    7.576951   2.632623   9.059823   10.77716   9.65906    4.758729  
1590.065399999494 12.25      12.08021   -999.25    0.0110734  77.53603   138.3297   289.3605   97.55132   72.25251   119.4579   0.1365617  3.54772    2.629669   8.055276   2.641992   9.731347   11.73748   9.550649   4.344504  
1590.141599999494 12.25      12.08005   -999.25    0.01123937 75.96792   135.8256   290.9327   91.54291   70.29046   113.1383   0.1262554  3.561759   2.554936   8.637422   2.646468   10.56537   12.90029   9.3075     3.910275  
1590.217799999494 12.25      12.08875   -999.25    0.008290738 74.18103   133.114    292.467    85.99609   67.92951   106.6423   0.1104611  3.569307   2.441242   9.368624   2.650077   11.64245   14.3736    9.127546   3.531813  
1590.293999999494 12.25      12.10349   -999.25    0.002953021 72.33881   130.1072   293.31     81.11652   64.95611   100.6394   0.09646893 3.575583   2.307481   10.27393   2.652827   13.02328   16.23904   8.855889   3.259736  
1590.370199999494 12.25      12.09007   -999.25    -0.002996563 70.35978   126.8771   293.3459   78.49125   61.49293   94.81474   0.08076037 3.61072    2.147175   11.35978   2.654603   14.75166   18.54858   8.560536   3.098274  
1590.446399999494 12.25      12.07734   -999.25    -0.00826149 67.87293   123.2127   293.0423   76.00529   59.19005   89.67987   0.0704696  3.666308   2.003741   12.6231    2.662748   16.86777   21.33758   8.538432   2.878415  
1590.522599999494 12.25      12.08388   -999.25    -0.00770501 65.57375   119.7063   292.7787   74.98977   56.58058   85.04083   0.06001141 3.729241   1.832896   14.03845   2.678027   19.38495   24.58803   8.552965   2.808996  
1590.598799999494 12.25      12.10267   -999.25    -0.006405213 64.05069   116.8446   291.7997   74.89661   53.32357   81.72694   0.05295639 3.777466   1.658012   15.54066   2.693834   22.24063   28.15767   8.389336   2.939031  
1590.674999999494 12.25      12.11842   -999.25    -0.004403852 62.89598   114.4272   290.7111   75.31541   50.42586   80.0971    0.04593025 3.800651   1.500829   17.02314   2.712608   25.2631    31.75801   8.25151    3.14928   
1590.751199999494 12.25      12.12049   -999.25    -0.004244308 61.86616   111.8937   287.9469   77.66371   48.04123   79.69977   0.04255714 3.807548   1.369119   18.36673   2.726869   28.19678   35.04418   8.149049   3.35071   
1590.827399999494 12.25      12.1152    -999.25    -0.008752352 61.13609   110.016    285.2877   79.56301   46.9735    79.93826   0.04075188 3.798256   1.295032   19.4559    2.731349   30.7459    37.67155   8.174488   3.490644  
1590.903599999494 12.25      12.1233    -999.25    -0.01229093 61.48317   109.5566   287.9334   81.63771   46.99287   81.61738   0.04415084 3.801881   1.283355   20.18575   2.73216    32.57942   39.32868   8.235073   3.61461   
1590.979799999493 12.25      12.11724   -999.25    -0.01706862 62.01333   109.6005   290.5659   83.77368   46.81855   84.10027   0.04831505 3.801553   1.305845   20.46723   2.724611   33.385     39.73352   8.07466    3.853363  
1591.055999999494 12.25      12.12145   -999.25    -0.01937787 62.78977   109.9899   291.8093   85.36832   48.17621   88.14066   0.05529204 3.786079   1.398136   20.2933    2.714749   33.0853    38.87596   8.050214   3.943608  
1591.132199999494 12.25      12.12337   -999.25    -0.01835648 63.45028   110.4795   292.968    87.51352   49.56551   92.53806   0.06308606 3.753888   1.515931   19.77393   2.705978   31.96329   37.16936   7.914686   4.052236  
1591.208399999494 12.25      12.14968   -999.25    -0.01701582 64.49881   111.0794   293.2742   89.27265   51.7211    97.7093    0.07277058 3.689403   1.670736   19.0659    2.694057   30.43255   35.14895   7.83729    4.077503  
