~Version
 VERS              .         2.0                           : CWLS LOG ASCII STANDARD - VERSION 2.0
 WRAP              .         NO                            : ONE LINE PER DEPTH STEP
 DLM               .         SPACE                         : DELIMITING CHARACTER(SPACE TAB OR COMMA)
~Well Information
#_______________________________________________________________________________
#
#PARAMETER_NAME    .UNIT     VALUE                         : DESCRIPTION
#_______________________________________________________________________________
STRT               .m        0                             : First reference value
STOP               .m        2123.99879999932              : Last reference value
STEP               .m        0.0762                        : Step increment
NULL               .         -999.25                       : Missing value
COMP               .         EBN B.V                       : Company
WELL               .         BLT-01                        : Well name
FLD                .         Utrecht-Oost                  : Field
LOC                .                                       : Location
PROV               .         Utrecht                       : Province
SRVC               .         RED Drilling & Services       : Service Company
DATE               .         13-Feb-25                     : Date
UWI                .         BLT-01                        : Unique Well ID
APD                .m        8.629999978637695             : DEPTH ABOVE PD
API                .                                       : API NUMBER
BHT                .degF     167                           : BottomHole Temp
BLI                .m        2115                          : BotLog Interval
BS                 .in       8.5                           : Bit Size
CNTY               .                                       : COUNTY
CTRY               .         The Netherlands               : 
DCS                .         12-Feb-25                     : DateCircEndT
DFD                .g/cc     1.159999966621399             : MudDensity
DLAB               .         13-Feb-25                     : LogStartDateT
EDF                .m        8.629999978637695             : DF ELEV
EGL                .m        2.400000163650513             : GL ELEV
EKB                .m        8.629999978637695             : KB ELEV
EPD                .m        0                             : ELEVATION
LMF                .         DF                            : LOG MEAS FROM
LUL                .         EMMEN                         : LoggingUnitLoc
LUN                .         12102977                      : LoggingUnitNum
LATI               .dega     52.10100072                   : 
LONG               .dega     5.19171536                    : 
MST                .degF     64.40000152587891             : Rm Temperature
ORIGINALWELLNAME   .         BLT-01                        : 
PDAT               .         NAP                           : PERMANENT DATUM
PRODUCER-CODE      .         280                           : 
PRODUCER-NAME      .         Halliburton                   : 
RUN                .         2.1                           : Run Name
STAT               .         Utrecht-Oost                  : STATE NAME
TCS                .         18_25                         : TimeCircEndT
TDD                .m        2123                          : Depth Driller
TDL                .m        2123.800048828125             : Depth Logger
TLAB               .         02_25                         : LogStartTimeT
TLI                .m        1626                          : TopLog Interval
X                  .m        141577.55000000               : 
Y                  .m        456881.76000000               : 
~Parameter Information Block
#_______________________________________________________________________________
#
#PARAMETER_NAME    .UNIT     VALUE                         : DESCRIPTION
#_______________________________________________________________________________
SET                .         LQC                           : 
TLFamily_BITSIZE   .         Bit Size                      : 
TLFamily_CALI      .         Caliper                       : 
TLFamily_CASING_FLAG-(S)GR_NPHI_DTC .         General Flag                  : 
TLFamily_DRHO      .         Bulk Density Correction       : 
TLFamily_DTC       .         Compressional Slowness        : 
TLFamily_DTS       .         Shear Slowness                : 
TLFamily_DTST      .         Stoneley Slowness             : 
TLFamily_GR        .         Gamma Ray                     : 
TLFamily_GRKT      .         Gamma Ray Minus Uranium       : 
TLFamily_GRTO      .         Gamma Ray                     : 
TLFamily_MD        .         Measured Depth                : 
TLFamily_NPHI      .         Neutron Porosity              : 
TLFamily_PE        .         Photoelectric Factor          : 
TLFamily_POTA      .         Potassium Concentration       : 
TLFamily_RD        .         Resistivity - Deep            : 
TLFamily_RHOB      .         Bulk Density                  : 
TLFamily_RM        .         Resistivity - Medium          : 
TLFamily_RS        .         Resistivity - Shallow         : 
TLFamily_THOR      .         Thorium Concentration         : 
TLFamily_URAN      .         Uranium Concentration         : 
~Curve Information
#_______________________________________________________________________________
#
#LOGNAME           .UNIT     LOG_ID                        : DESCRIPTION
#_______________________________________________________________________________
MD                 .m                                      :  
BITSIZE            .in                                     :  
CALI               .in                                     :  
CASING_FLAG-(S)GR_NPHI_DTC .                                       :  
DRHO               .g/cm3                                  :  
DTC                .us/ft                                  :  
DTS                .us/ft                                  :  
DTST               .us/ft                                  :  
GR                 .gAPI                                   : Reference GR  
GRKT               .gAPI                                   : Uranium free GR  
GRTO               .gAPI                                   : Total GR from SGR Tool  
NPHI               .m3/m3                                  :  
PE                 .b/e                                    :  
POTA               .%                                      :  
RD                 .ohm.m                                  :  
RHOB               .g/cm3                                  :  
RM                 .ohm.m                                  :  
RS                 .ohm.m                                  :  
THOR               .ppm                                    :  
URAN               .ppm                                    :  
~Ascii
# ...
1074.343799999658 12.25      12.48131   -999.25    0.003376254 102.2904   222.9685   292.8065   65.51428   63.61757   87.28053   0.231649   3.271753   1.971314   2.59468    2.497733   2.567605   2.588012   9.997581   2.043882  
1074.419999999658 12.25      12.49775   -999.25    0.001986589 102.1599   222.8282   292.8354   65.60493   64.51096   87.68867   0.2308572  3.276133   2.053786   2.585133   2.493629   2.558922   2.580251   9.878345   1.843688  
1074.496199999658 12.25      12.50303   -999.25    0.00133036 102.0189   222.1817   292.8148   66.01673   64.85993   88.0168    0.2333418  3.271366   2.104506   2.575472   2.490693   2.550149   2.572491   9.743746   1.689478  
1074.572399999658 12.25      12.4934    -999.25    0.000753546 101.8793   221.4798   292.7605   66.2853    64.95647   88.01939   0.2351202  3.273662   2.146826   2.56645    2.487488   2.542023   2.565344   9.571767   1.616589  
1074.648599999658 12.25      12.49071   -999.25    0.0003816891 101.937    221.9626   292.9009   66.86608   64.46054   87.85173   0.2308642  3.285289   2.179605   2.558726   2.48719    2.535186   2.559343   9.2648     1.645306  
1074.724799999658 12.25      12.48452   -999.25    0.0000136  101.9753   222.433    293.0296   67.20515   63.63975   87.95798   0.2260109  3.318988   2.215604   2.552971   2.48624    2.530293   2.555109   8.844102   1.690363  
1074.800999999658 12.25      12.51083   -999.25    -0.0006508949 102.0711   222.5812   293.046    67.59458   62.20245   88.23963   0.2267675  3.354006   2.219003   2.548724   2.486378   2.526883   2.55227    8.39082    1.838469  
1074.877199999658 12.25      12.52651   -999.25    -0.0013128 102.1268   222.6743   293.0627   67.54758   59.8753    88.14521   0.232045   3.37791    2.1819     2.544204   2.489387   2.523205   2.549248   7.859144   2.073385  
1074.953399999658 12.25      12.51918   -999.25    -0.001318311 102.3152   222.7901   293.2588   66.46994   57.92119   87.23637   0.2321827  3.388956   2.133825   2.537607   2.490628   2.517467   2.54443    7.492631   2.234589  
1075.029599999658 12.25      12.51048   -999.25    -0.0008889659 102.5771   222.8258   293.3157   64.75221   56.58136   86.54676   0.2300078  3.378952   2.102306   2.527941   2.493212   2.508681   2.536938   7.234238   2.364251  
1075.105799999658 12.25      12.50384   -999.25    -0.000545216 102.8554   222.9395   293.39     62.56673   55.25219   86.05567   0.2321087  3.364591   2.053936   2.514861   2.493203   2.496489   2.526425   7.059002   2.50467   
1075.181999999658 12.25      12.49996   -999.25    -0.000575884 102.9827   223.145    293.3293   62.04861   53.7639    85.58221   0.2317204  3.347219   2.00827    2.498434   2.489242   2.480941   2.512824   6.823025   2.636176  
1075.258199999658 12.25      12.51983   -999.25    -0.001124795 103.1403   223.3008   293.2751   62.61708   52.1797    85.28284   0.2341199  3.333423   1.937244   2.479615   2.487892   2.462959   2.49682    6.678365   2.788386  
1075.334399999658 12.25      12.53332   -999.25    -0.001665525 103.215    223.405    293.1296   64.08079   50.88802   85.2171    0.237691   3.325289   1.881806   2.461244   2.486191   2.445322   2.48092    6.548545   2.892778  
1075.410599999658 12.25      12.52552   -999.25    -0.001910528 103.3272   223.447    293.0155   64.99057   50.89577   85.34191   0.2433305  3.317076   1.865883   2.447124   2.485301   2.431762   2.46864    6.626225   2.886795  
1075.486799999658 12.25      12.51123   -999.25    -0.001723225 103.3572   223.5941   293.0945   64.34712   51.12656   85.20696   0.239933   3.310668   1.857018   2.43932    2.486907   2.424322   2.461944   6.738225   2.878695  
1075.562999999658 12.25      12.50944   -999.25    -0.00162985 103.0565   224.2966   293.0593   63.27396   52.18422   84.38875   0.2348162  3.307023   1.860886   2.437798   2.484936   2.422963   2.460828   7.041412   2.74751   
1075.639199999658 12.25      12.51886   -999.25    -0.001770684 102.745    225.0508   293.0046   61.26752   52.87769   84.18626   0.2312651  3.298442   1.858783   2.440625   2.48307    2.425772   2.463502   7.262528   2.693704  
1075.715399999658 12.25      12.52906   -999.25    -0.001030131 102.6677   225.2617   292.9896   60.44167   54.38426   83.91      0.2290076  3.285034   1.879829   2.445405   2.482499   2.43038    2.467728   7.621313   2.52163   
1075.791599999658 12.25      12.52579   -999.25    -0.0006155485 102.5657   225.5592   292.9613   60.4439    55.37963   83.58855   0.2279615  3.263035   1.899651   2.451779   2.481024   2.436428   2.47332    7.830226   2.408257  
1075.867799999658 12.25      12.50875   -999.25    0.0001985768 102.8176   224.7612   293.1353   61.09071   57.18699   82.90401   0.2267954  3.231818   1.925628   2.459752   2.482253   2.443922   2.480412   8.256451   2.239806  
1075.943999999658 12.25      12.49424   -999.25    0.001166501 103.0423   224.1384   293.3186   62.7648    59.03413   82.44492   0.2330842  3.214772   1.953426   2.468733   2.483266   2.45228    2.488463   8.686153   2.050578  
1076.020199999658 12.25      12.4902    -999.25    -0.0000411 102.8703   224.1698   293.3044   63.35901   60.5813    82.33045   0.2351363  3.213903   1.958575   2.479251   2.481578   2.462017   2.497937   9.132245   1.909341  
1076.096399999657 12.25      12.50247   -999.25    -0.0002752818 102.9359   223.2887   293.1884   63.72493   60.76997   82.98318   0.2337703  3.250556   1.933907   2.491899   2.481582   2.473719   2.509319   9.306837   1.922392  
1076.172599999657 12.25      12.52425   -999.25    -0.0006534773 103.0443   222.3209   293.0884   63.28515   61.25758   83.14304   0.2305818  3.309236   1.913937   2.506397   2.481235   2.487124   2.522249   9.549962   1.875075  
1076.248799999657 12.25      12.52144   -999.25    -0.001012447 102.8079   221.7523   292.8542   62.47496   60.94822   83.50817   0.2304443  3.360125   1.871298   2.522798   2.48099    2.502292   2.536736   9.657945   2.004208  
1076.324999999657 12.25      12.51389   -999.25    -0.000191041 102.6226   221.0483   292.6368   62.25899   61.23667   83.31085   0.2356202  3.399941   1.835446   2.541448   2.484272   2.519569   2.553112   9.915148   2.076016  
1076.401199999657 12.25      12.50881   -999.25    -0.0004288913 102.3672   221.417    292.5635   62.32278   60.46675   83.33135   0.2370729  3.396458   1.789866   2.56197    2.486387   2.538596   2.570979   9.896711   2.241897  
1076.477399999657 12.25      12.51365   -999.25    -0.0006722671 102.1253   221.7151   292.4683   63.13296   59.43032   83.65437   0.2311588  3.374864   1.728001   2.583381   2.488715   2.558417   2.5893     9.874746   2.410036  
1076.553599999657 12.25      12.52507   -999.25    -0.001250789 101.7649   221.8934   292.2633   63.49329   57.83904   84.09405   0.231389   3.350674   1.674783   2.605136   2.493254   2.578512   2.607449   9.643421   2.588474  
1076.629799999657 12.25      12.54434   -999.25    -0.002079115 101.4748   222.2922   292.219    64.5687    56.38913   83.91549   0.2248794  3.325616   1.646332   2.627412   2.495127   2.599068   2.625549   9.337539   2.753268  
1076.705999999657 12.25      12.53382   -999.25    -0.002385096 101.1591   222.7734   292.1752   64.73991   55.48492   83.16      0.2253328  3.31929    1.655515   2.650587   2.498615   2.620471   2.644006   9.018806   2.797355  
1076.782199999657 12.25      12.52359   -999.25    -0.002644032 101.0124   222.5661   292.1434   64.75893   54.57966   82.09402   0.222838   3.313884   1.658924   2.674683   2.502787   2.642768   2.662978   8.727096   2.806275  
1076.858399999657 12.25      12.51253   -999.25    -0.002234  100.854    222.5204   292.0982   64.60786   53.68131   81.86538   0.2263273  3.317956   1.682057   2.699295   2.504071   2.665574   2.682239   8.344049   2.775803  
1076.934599999657 12.25      12.51666   -999.25    -0.001399181 100.6739   221.9246   291.5943   63.56379   52.88432   81.58627   0.2229224  3.331702   1.715471   2.724006   2.50676    2.688495   2.701549   7.943268   2.68114   
