# LAS format data
~Version Information
VERS.     2.00: CWLS LOG ASCII STANDARD - VERSION 2.0
WRAP.       NO: ONE LINE PER DEPTH STEP
~Well Information
#MNEM   .UNITS    DATA                           DESCRIPTION
#----   ------    ----                           -----------
STRT    .M        2196.9004                     :First Index Value
STOP    .M        40.1002                       :Last Index Value
STEP    .M        -0.1000                       :Frame Spacing
NULL    .         -999.2500                     :Absent Value
WELL    .         EVERDINGEN-01                 :Well Name   
FLD     .         UNKNOWN                       :Field Name  
CNTY    .                                       :County
STAT    .                                       :State
CTRY    .                                       :Country
LOC     .                                       :Location
API     .                                       :API Number
DATE    .                                       :Date
COMP    .         NAM                           :Company Name
SRVC    .                                       :Service Company
~Parameter Information
#MNEM   .UNITS    VALUE                          DESCRIPTION
#----   ------    -----                          -----------
TDD     .M        2197.50000                    :Total Depth (Driller)   
UBID    .         1308                          :Unique Borehole Id  
PDAT    .         Mean Sea Level                :Permanent Datum 
EPD     .M           0.00000                    :Elevation of Permanent Datum (PDAT) above Mean Sea Level
LMF     .                                       :Logging Measured From (Name of Logging Elevation Reference) 
APD     .M           6.32000                    :Elevation of Depth Reference (LMF) Above Permanent Datum
~Curve Information
#MNEM   .UNITS    API CODE                       CURVE DESCRIPTION
#----   ------    --------                       -----------------
DEPT    .M                                      :1     Index curve
GR      .GAPI                                   :2     SNAM  
DT      .US/F                                   :3     SNAM  
RHOB    .G/C3                                   :4     SNAM  
DRHO    .G/C3                                   :5     SNAM  
~Ascii Log Data
# ...
    2047.4002    111.479263     75.764587   -999.250000   -999.250000
    2047.3002    111.060822     75.324158   -999.250000   -999.250000
    2047.2002    111.420197     74.734970   -999.250000   -999.250000
    2047.1002    111.750992     73.805847   -999.250000   -999.250000
    2047.0002    111.488190     72.961777   -999.250000   -999.250000
    2046.9002    110.368240     72.611206   -999.250000   -999.250000
    2046.8002    108.792053     72.889603   -999.250000   -999.250000
    2046.7002    107.180267     74.244171   -999.250000   -999.250000
    2046.6002    105.776855     76.844833   -999.250000   -999.250000
    2046.5002    104.782425     80.646255   -999.250000   -999.250000
    2046.4002    104.102310     84.797379   -999.250000   -999.250000
    2046.3002    103.708130     88.260254   -999.250000   -999.250000
    2046.2002    103.569916     89.317947   -999.250000   -999.250000
    2046.1002    103.647949     87.635056   -999.250000   -999.250000
    2046.0002    104.056183     84.039215   -999.250000   -999.250000
    2045.9002    104.931885     79.325607   -999.250000   -999.250000
    2045.8002    106.092606     74.995132   -999.250000   -999.250000
    2045.7002    107.099319     72.229340   -999.250000   -999.250000
    2045.6002    107.609863     71.111435   -999.250000   -999.250000
    2045.5002    107.622025     70.767151   -999.250000   -999.250000
    2045.4002    107.164108     70.313171   -999.250000   -999.250000
    2045.3002    106.456573     69.795013   -999.250000   -999.250000
    2045.2002    105.676086     69.500549   -999.250000   -999.250000
    2045.1002    104.731339     69.509018   -999.250000   -999.250000
    2045.0002    103.718597     69.520859   -999.250000   -999.250000
    2044.9002    102.800797     69.382111   -999.250000   -999.250000
    2044.8002    102.218765     69.249130   -999.250000   -999.250000
    2044.7002    102.285156     69.189423   -999.250000   -999.250000
    2044.6002    103.041077     69.046753   -999.250000   -999.250000
    2044.5002    104.170792     68.552719   -999.250000   -999.250000
    2044.4002    105.175552     68.016586   -999.250000   -999.250000
    2044.3002    105.867416     67.764542   -999.250000   -999.250000
    2044.2002    105.947571     67.648636   -999.250000   -999.250000
    2044.1002    105.899719     67.688644   -999.250000   -999.250000
    2044.0002    106.503220     67.910355   -999.250000   -999.250000
    2043.9002    107.644958     68.050369   -999.250000   -999.250000
    2043.8002    108.974930     68.048096   -999.250000   -999.250000
    2043.7002    110.417923     68.052017   -999.250000   -999.250000
    2043.6003    112.235840     68.076965   -999.250000   -999.250000
    2043.5003    114.292191     68.387787   -999.250000   -999.250000
    2043.4003    116.116638     69.150391   -999.250000   -999.250000
    2043.3003    117.685577     69.755417   -999.250000   -999.250000
    2043.2003    119.161911     70.108704   -999.250000   -999.250000
    2043.1003    120.589432     70.805069   -999.250000   -999.250000
    2043.0003    121.786667     71.433075   -999.250000   -999.250000
    2042.9003    122.627304     71.491592   -999.250000   -999.250000
    2042.8003    123.133743     71.233978   -999.250000   -999.250000
    2042.7003    123.318619     71.070694   -999.250000   -999.250000
    2042.6003    123.367432     71.105850   -999.250000   -999.250000
    2042.5003    123.368561     71.023361   -999.250000   -999.250000
    2042.4003    123.515884     70.959335   -999.250000   -999.250000
    2042.3003    123.989212     71.059830   -999.250000   -999.250000
    2042.2003    124.598267     70.949936   -999.250000   -999.250000
    2042.1003    124.950104     70.672882   -999.250000   -999.250000
    2042.0003    124.675430     70.448761   -999.250000   -999.250000
    2041.9003    124.068573     70.217468   -999.250000   -999.250000
    2041.8003    123.407074     70.189178   -999.250000   -999.250000
    2041.7003    122.925812     70.488556   -999.250000   -999.250000
    2041.6003    122.988495     70.504456   -999.250000   -999.250000
    2041.5003    123.827225     70.108170   -999.250000   -999.250000
    2041.4003    125.165680     69.648117   -999.250000   -999.250000
    2041.3003    127.501007     69.292038   -999.250000   -999.250000
    2041.2003    131.418274     69.149979   -999.250000   -999.250000
    2041.1003    136.318115     69.215668   -999.250000   -999.250000
    2041.0003    141.107117     69.186783   -999.250000   -999.250000
    2040.9003    144.841858     69.328857   -999.250000   -999.250000
    2040.8003    148.183014     70.520096   -999.250000   -999.250000
    2040.7003    150.118622     73.357513   -999.250000   -999.250000
    2040.6003    149.884979     78.188202   -999.250000   -999.250000
    2040.5003    148.185608     84.049164   -999.250000   -999.250000
    2040.4003    144.362366     88.740662   -999.250000   -999.250000
    2040.3003    138.827576     90.264145   -999.250000   -999.250000
    2040.2003    133.196930     88.749771   -999.250000   -999.250000
    2040.1003    128.079803     84.982101   -999.250000   -999.250000
    2040.0003    123.740082     80.630234   -999.250000   -999.250000
    2039.9003    119.634155     77.696426   -999.250000   -999.250000
    2039.8003    116.107758     75.921753   -999.250000   -999.250000
    2039.7003    113.453400     74.734116   -999.250000   -999.250000
    2039.6003    111.250458     74.091904   -999.250000   -999.250000
    2039.5003    109.551147     73.566223   -999.250000   -999.250000
    2039.4003    108.298264     72.861877   -999.250000   -999.250000
    2039.3003    107.487030     72.283722   -999.250000   -999.250000
    2039.2003    107.090775     72.035522   -999.250000   -999.250000
    2039.1003    106.888504     71.855942   -999.250000   -999.250000
    2039.0003    106.756531     71.272781   -999.250000   -999.250000
    2038.9003    106.490082     70.633423   -999.250000   -999.250000
    2038.8003    105.972321     70.368240   -999.250000   -999.250000
    2038.7003    105.159714     70.387146   -999.250000   -999.250000
    2038.6003    104.959991     70.503983   -999.250000   -999.250000
    2038.5003    106.041916     70.996124   -999.250000   -999.250000
    2038.4003    108.269608     72.537964   -999.250000   -999.250000
    2038.3003    110.986191     74.351013   -999.250000   -999.250000
    2038.2003    113.661606     75.567642   -999.250000   -999.250000
    2038.1003    115.581696     76.339417   -999.250000   -999.250000
    2038.0003    116.514694     76.755905   -999.250000   -999.250000
    2037.9003    116.571106     76.731461   -999.250000   -999.250000
    2037.8003    116.066711     76.074951   -999.250000   -999.250000
    2037.7003    115.563995     75.671463   -999.250000   -999.250000
    2037.6003    115.366440     75.919449   -999.250000   -999.250000
    2037.5003    114.890030     75.842392   -999.250000   -999.250000
    2037.4003    113.971100     75.489838   -999.250000   -999.250000
    2037.3003    112.747223     75.356354   -999.250000   -999.250000
    2037.2003    111.101944     75.297699   -999.250000   -999.250000
    2037.1003    108.792419     74.905350   -999.250000   -999.250000
    2037.0003    105.263672     74.208191   -999.250000   -999.250000
    2036.9003    100.142578     74.154465   -999.250000   -999.250000
    2036.8003     93.685257     75.337982   -999.250000   -999.250000
    2036.7003     85.315765     77.648285   -999.250000   -999.250000
    2036.6003     75.296600     81.059082   -999.250000   -999.250000
    2036.5003     65.172272     85.470673   -999.250000   -999.250000
    2036.4003     56.776947     90.539886   -999.250000   -999.250000
    2036.3003     50.849854     92.382172   -999.250000   -999.250000
    2036.2003     47.086380     90.645798   -999.250000   -999.250000
    2036.1003     46.086105     87.375366   -999.250000   -999.250000
    2036.0003     48.200806     81.876175   -999.250000   -999.250000
