# LAS format data
~Version Information
VERS.     2.00: CWLS LOG ASCII STANDARD - VERSION 2.0
WRAP.       NO: ONE LINE PER DEPTH STEP
~Well Information
#MNEM   .UNITS    DATA                           DESCRIPTION
#----   ------    ----                           -----------
STRT    .M        2196.9004                     :First Index Value
STOP    .M        40.1002                       :Last Index Value
STEP    .M        -0.1000                       :Frame Spacing
NULL    .         -999.2500                     :Absent Value
WELL    .         EVERDINGEN-01                 :Well Name   
FLD     .         UNKNOWN                       :Field Name  
CNTY    .                                       :County
STAT    .                                       :State
CTRY    .                                       :Country
LOC     .                                       :Location
API     .                                       :API Number
DATE    .                                       :Date
COMP    .         NAM                           :Company Name
SRVC    .                                       :Service Company
~Parameter Information
#MNEM   .UNITS    VALUE                          DESCRIPTION
#----   ------    -----                          -----------
TDD     .M        2197.50000                    :Total Depth (Driller)   
UBID    .         1308                          :Unique Borehole Id  
PDAT    .         Mean Sea Level                :Permanent Datum 
EPD     .M           0.00000                    :Elevation of Permanent Datum (PDAT) above Mean Sea Level
LMF     .                                       :Logging Measured From (Name of Logging Elevation Reference) 
APD     .M           6.32000                    :Elevation of Depth Reference (LMF) Above Permanent Datum
~Curve Information
#MNEM   .UNITS    API CODE                       CURVE DESCRIPTION
#----   ------    --------                       -----------------
DEPT    .M                                      :1     Index curve
GR      .GAPI                                   :2     SNAM  
DT      .US/F                                   :3     SNAM  
RHOB    .G/C3                                   :4     SNAM  
DRHO    .G/C3                                   :5     SNAM  
~Ascii Log Data
# ...
     782.4002     67.017563    141.862274   -999.250000   -999.250000
     782.3002     65.993973    142.360229   -999.250000   -999.250000
     782.2002     65.317444    142.836487   -999.250000   -999.250000
     782.1002     65.125107    143.349487   -999.250000   -999.250000
     782.0002     65.628845    143.954285   -999.250000   -999.250000
     781.9002     66.122681    144.649933   -999.250000   -999.250000
     781.8002     66.183502    145.343567   -999.250000   -999.250000
     781.7002     65.513580    145.931183   -999.250000   -999.250000
     781.6002     64.288498    146.165924   -999.250000   -999.250000
     781.5002     62.864838    145.925201   -999.250000   -999.250000
     781.4002     61.646713    145.231659   -999.250000   -999.250000
     781.3002     60.344910    144.197418   -999.250000   -999.250000
     781.2002     58.989555    142.967438   -999.250000   -999.250000
     781.1002     58.563240    141.641479   -999.250000   -999.250000
     781.0002     58.692459    140.687653   -999.250000   -999.250000
     780.9002     58.835617    140.248077   -999.250000   -999.250000
     780.8002     58.930305    140.080933   -999.250000   -999.250000
     780.7002     59.217514    139.922455   -999.250000   -999.250000
     780.6002     59.797699    139.657806   -999.250000   -999.250000
     780.5002     60.544807    139.275391   -999.250000   -999.250000
     780.4002     61.259331    138.874298   -999.250000   -999.250000
     780.3002     61.819450    138.567322   -999.250000   -999.250000
     780.2002     61.701668    138.397064   -999.250000   -999.250000
     780.1002     60.925804    138.375031   -999.250000   -999.250000
     780.0002     59.866089    138.461700   -999.250000   -999.250000
     779.9002     58.879929    138.626709   -999.250000   -999.250000
     779.8002     57.938416    138.842529   -999.250000   -999.250000
     779.7002     56.666512    139.087921   -999.250000   -999.250000
     779.6002     55.550575    139.364990   -999.250000   -999.250000
     779.5002     55.132126    139.971252   -999.250000   -999.250000
     779.4002     55.550812    141.024261   -999.250000   -999.250000
     779.3002     56.505966    141.868286   -999.250000   -999.250000
     779.2002     57.539124    142.218292   -999.250000   -999.250000
     779.1002     58.697205    142.499725   -999.250000   -999.250000
     779.0002     60.251930    142.901947   -999.250000   -999.250000
     778.9002     62.168213    143.500427   -999.250000   -999.250000
     778.8002     64.023392    144.358826   -999.250000   -999.250000
     778.7002     64.863480    145.493286   -999.250000   -999.250000
     778.6002     64.293777    146.614716   -999.250000   -999.250000
     778.5002     63.287064    147.245178   -999.250000   -999.250000
     778.4002     62.608795    147.232269   -999.250000   -999.250000
     778.3002     62.728477    146.753876   -999.250000   -999.250000
     778.2002     63.443909    146.141388   -999.250000   -999.250000
     778.1002     64.502319    145.508972   -999.250000   -999.250000
     778.0002     65.471359    144.818634   -999.250000   -999.250000
     777.9002     66.238892    144.030945   -999.250000   -999.250000
     777.8002     66.701950    143.311005   -999.250000   -999.250000
     777.7002     66.893158    142.869904   -999.250000   -999.250000
     777.6002     66.667221    142.684479   -999.250000   -999.250000
     777.5002     65.976074    142.856567   -999.250000   -999.250000
     777.4002     65.095428    143.452179   -999.250000   -999.250000
     777.3002     64.219147    144.119263   -999.250000   -999.250000
     777.2002     63.685585    144.544739   -999.250000   -999.250000
     777.1002     63.674225    144.633636   -999.250000   -999.250000
     777.0002     63.775452    144.634583   -999.250000   -999.250000
     776.9002     63.512520    144.612335   -999.250000   -999.250000
     776.8002     62.929489    144.437775   -999.250000   -999.250000
     776.7002     62.242241    144.194580   -999.250000   -999.250000
     776.6002     61.648109    144.062073   -999.250000   -999.250000
     776.5002     61.021133    144.189453   -999.250000   -999.250000
     776.4002     60.404739    144.491394   -999.250000   -999.250000
     776.3002     59.845718    144.733948   -999.250000   -999.250000
     776.2002     59.325317    144.678345   -999.250000   -999.250000
     776.1002     58.819397    144.500336   -999.250000   -999.250000
     776.0002     58.303802    144.500336   -999.250000   -999.250000
     775.9002     57.804573    144.770081   -999.250000   -999.250000
     775.8002     57.340691    144.959503   -999.250000   -999.250000
     775.7002     56.994667    144.816223   -999.250000   -999.250000
     775.6002     56.901878    144.608521   -999.250000   -999.250000
     775.5002     57.167984    144.548767   -999.250000   -999.250000
     775.4002     57.709373    144.615509   -999.250000   -999.250000
     775.3002     58.378517    144.569031   -999.250000   -999.250000
     775.2002     59.034821    144.452148   -999.250000   -999.250000
     775.1002     59.524445    144.404785   -999.250000   -999.250000
     775.0002     59.789459    144.424194   -999.250000   -999.250000
     774.9002     59.962456    144.530945   -999.250000   -999.250000
     774.8002     60.363075    144.674622   -999.250000   -999.250000
     774.7002     61.333237    144.703796   -999.250000   -999.250000
     774.6002     62.410088    144.628204   -999.250000   -999.250000
     774.5002     62.850479    144.553040   -999.250000   -999.250000
     774.4002     62.294144    144.524872   -999.250000   -999.250000
     774.3002     60.880348    144.454285   -999.250000   -999.250000
     774.2002     59.285400    144.311249   -999.250000   -999.250000
     774.1002     59.003090    144.234894   -999.250000   -999.250000
     774.0002     59.788788    144.317871   -999.250000   -999.250000
     773.9002     60.442101    144.536682   -999.250000   -999.250000
     773.8002     60.610062    144.832062   -999.250000   -999.250000
     773.7002     60.469681    145.153320   -999.250000   -999.250000
     773.6002     60.371758    145.435242   -999.250000   -999.250000
     773.5002     60.176826    145.576111   -999.250000   -999.250000
     773.4002     59.848457    145.618561   -999.250000   -999.250000
     773.3002     59.440453    145.697571   -999.250000   -999.250000
     773.2002     59.547935    145.981445   -999.250000   -999.250000
     773.1002     60.070732    146.467621   -999.250000   -999.250000
     773.0002     60.605217    146.990540   -999.250000   -999.250000
     772.9002     60.795486    147.299194   -999.250000   -999.250000
     772.8002     60.704002    147.747894   -999.250000   -999.250000
     772.7002     60.522087    148.619171   -999.250000   -999.250000
     772.6002     60.506752    149.202698   -999.250000   -999.250000
     772.5002     60.756851    149.448822   -999.250000   -999.250000
     772.4002     61.367447    149.806000   -999.250000   -999.250000
     772.3002     62.332916    150.383881   -999.250000   -999.250000
     772.2002     63.332146    150.840088   -999.250000   -999.250000
     772.1002     63.904587    150.923248   -999.250000   -999.250000
     772.0002     64.150040    151.243317   -999.250000   -999.250000
     771.9002     64.450287    151.761780   -999.250000   -999.250000
     771.8002     65.472000    152.008209   -999.250000   -999.250000
     771.7002     66.867844    151.799072   -999.250000   -999.250000
     771.6002     68.264435    151.264648   -999.250000   -999.250000
     771.5002     69.389648    150.542328   -999.250000   -999.250000
     771.4002     70.180099    149.547455   -999.250000   -999.250000
     771.3002     70.687286    148.242615   -999.250000   -999.250000
     771.2002     70.541977    146.681213   -999.250000   -999.250000
     771.1002     69.904572    145.330658   -999.250000   -999.250000
     771.0002     69.024002    144.470917   -999.250000   -999.250000
