# LAS format data
~Version Information
VERS.     2.00: CWLS LOG ASCII STANDARD - VERSION 2.0
WRAP.       NO: ONE LINE PER DEPTH STEP
~Well Information
#MNEM   .UNITS    DATA                           DESCRIPTION
#----   ------    ----                           -----------
STRT    .M        2196.9004                     :First Index Value
STOP    .M        40.1002                       :Last Index Value
STEP    .M        -0.1000                       :Frame Spacing
NULL    .         -999.2500                     :Absent Value
WELL    .         EVERDINGEN-01                 :Well Name   
FLD     .         UNKNOWN                       :Field Name  
CNTY    .                                       :County
STAT    .                                       :State
CTRY    .                                       :Country
LOC     .                                       :Location
API     .                                       :API Number
DATE    .                                       :Date
COMP    .         NAM                           :Company Name
SRVC    .                                       :Service Company
~Parameter Information
#MNEM   .UNITS    VALUE                          DESCRIPTION
#----   ------    -----                          -----------
TDD     .M        2197.50000                    :Total Depth (Driller)   
UBID    .         1308                          :Unique Borehole Id  
PDAT    .         Mean Sea Level                :Permanent Datum 
EPD     .M           0.00000                    :Elevation of Permanent Datum (PDAT) above Mean Sea Level
LMF     .                                       :Logging Measured From (Name of Logging Elevation Reference) 
APD     .M           6.32000                    :Elevation of Depth Reference (LMF) Above Permanent Datum
~Curve Information
#MNEM   .UNITS    API CODE                       CURVE DESCRIPTION
#----   ------    --------                       -----------------
DEPT    .M                                      :1     Index curve
GR      .GAPI                                   :2     SNAM  
DT      .US/F                                   :3     SNAM  
RHOB    .G/C3                                   :4     SNAM  
DRHO    .G/C3                                   :5     SNAM  
~Ascii Log Data
# ...
    1219.4002    100.283508     71.299622      2.655087     -0.035499
    1219.3002     99.771011     70.605423      2.652748     -0.032977
    1219.2002     99.300339     69.752335      2.647046     -0.028107
    1219.1002     98.839539     68.781052      2.640287     -0.023279
    1219.0002     98.342346     67.854782      2.633482     -0.018562
    1218.9002     97.782196     67.180161      2.626632     -0.014604
    1218.8002     97.092285     66.674988      2.620142     -0.013544
    1218.7002     96.195892     66.240540      2.613945     -0.015595
    1218.6002     95.183517     65.930374      2.608553     -0.017717
    1218.5002     94.231262     66.005173      2.605847     -0.019838
    1218.4002     93.622772     66.648972      2.605870     -0.021995
    1218.3002     93.498779     67.655151      2.605537     -0.024135
    1218.2002     93.856323     68.571701      2.602707     -0.026269
    1218.1002     94.485092     69.257416      2.597925     -0.028242
    1218.0002     95.108429     69.779358      2.594049     -0.029183
    1217.9002     95.682083     69.921524      2.594208     -0.028584
    1217.8002     96.255096     69.563110      2.597414     -0.027371
    1217.7002     96.970108     68.974823      2.598675     -0.026156
    1217.6002     97.828262     68.540833      2.595940     -0.024934
    1217.5002     98.698090     68.488770      2.590388     -0.023739
    1217.4002     99.487915     68.742249      2.584321     -0.022360
    1217.3002    100.065781     69.223373      2.582984     -0.019890
    1217.2002    100.396042     69.706223      2.587500     -0.018116
    1217.1002    100.553879     69.969650      2.591815     -0.018893
    1217.0002    100.755524     70.288528      2.592500     -0.024122
    1216.9002    101.101395     70.872803      2.590634     -0.023847
    1216.8002    101.344635     71.580627      2.589117     -0.014112
    1216.7002    101.198395     72.182587      2.592293     -0.011125
    1216.6002    100.631821     72.669922      2.600944     -0.015131
    1216.5002     99.678726     73.194260      2.609334     -0.019389
    1216.4002     98.595215     73.493698      2.611094     -0.023607
    1216.3002     97.578735     73.451111      2.604908     -0.026445
    1216.2002     96.624512     73.242981      2.596886     -0.018964
    1216.1002     95.973907     73.210861      2.597128     -0.001681
    1216.0002     95.710037     73.153595      2.607808      0.004263
    1215.9002     95.599792     72.479584      2.617112     -0.001547
    1215.8002     95.311890     71.390427      2.620729     -0.009500
    1215.7002     94.747375     70.249542      2.621995     -0.017916
    1215.6002     94.302460     69.071869      2.621992     -0.026990
    1215.5002     94.299423     67.830627      2.619785     -0.030648
    1215.4002     94.805435     66.590012      2.613873     -0.027955
    1215.3002     95.862076     65.444611      2.604577     -0.023391
    1215.2002     97.085831     65.169418      2.597223     -0.018560
    1215.1002     98.167801     65.988159      2.597011     -0.013373
    1215.0002     98.676437     67.507904      2.600171     -0.013628
    1214.9002     98.710571     69.068130      2.603383     -0.022996
    1214.8002     98.452255     70.322998      2.607286     -0.028289
    1214.7002     98.303574     71.374786      2.614457     -0.029039
    1214.6002     98.574142     71.923553      2.622301     -0.028951
    1214.5002     99.484680     71.902634      2.624733     -0.027984
    1214.4002    100.190201     71.806122      2.620974     -0.025067
    1214.3002    100.009735     72.276825      2.613883     -0.021273
    1214.2002     98.326218     73.375671      2.607715     -0.017450
    1214.1002     95.773941     74.250870      2.604972     -0.014449
    1214.0002     93.232437     74.271637      2.604301     -0.014046
    1213.9002     91.221573     73.414810      2.602376     -0.014982
    1213.8002     90.118576     71.335327      2.599533     -0.016235
    1213.7002     89.769562     68.685730      2.596092     -0.018716
    1213.6002     90.091934     66.268707      2.590147     -0.023528
    1213.5002     90.888031     64.864517      2.579717     -0.027936
    1213.4002     91.818054     64.668900      2.565957     -0.027018
    1213.3002     92.430206     65.432053      2.553707     -0.022606
    1213.2002     92.055862     66.935028      2.549498     -0.020890
    1213.1002     90.696701     68.736862      2.553859     -0.022111
    1213.0002     88.675430     70.415710      2.559110     -0.024117
    1212.9002     86.442764     70.998474      2.562629     -0.026175
    1212.8002     84.187408     70.326797      2.566468     -0.028245
    1212.7002     82.036148     68.864944      2.571083     -0.030488
    1212.6002     80.402252     66.933029      2.577157     -0.033949
    1212.5002     79.402466     64.888870      2.585986     -0.038602
    1212.4002     79.603424     63.213074      2.596406     -0.039661
    1212.3002     80.782516     62.015892      2.599637     -0.037101
    1212.2002     82.434647     61.244537      2.586037     -0.033879
    1212.1002     84.494659     61.036903      2.560740     -0.030594
    1212.0002     86.726852     61.410774      2.532241     -0.026565
    1211.9002     88.838943     62.100479      2.508375     -0.020705
    1211.8002     90.792694     62.790276      2.495464     -0.013929
    1211.7002     92.618179     65.263351      2.495895     -0.009145
    1211.6002     94.200684     70.147430      2.506621     -0.012991
    1211.5002     95.253052     74.870850      2.518683     -0.024436
    1211.4002     95.683685     77.803040      2.527165     -0.036118
    1211.3002     95.581741     79.307358      2.533703     -0.041366
    1211.2002     94.660065     79.575165      2.540074     -0.040899
    1211.1002     93.025757     78.070877      2.547366     -0.040213
    1211.0002     91.199493     74.895905      2.555890     -0.039516
    1210.9002     89.571167     71.345047      2.564091     -0.038808
    1210.8002     88.501373     68.767242      2.570452     -0.038091
    1210.7002     88.144684     67.467484      2.575331     -0.037381
    1210.6002     88.537659     66.662048      2.578743     -0.036640
    1210.5002     89.397339     65.657257      2.579910     -0.035724
    1210.4002     90.603378     64.600494      2.579549     -0.034524
    1210.3002     92.042053     64.337631      2.580394     -0.033158
    1210.2002     93.454514     65.516235      2.583710     -0.031803
    1210.1002     94.834839     67.489716      2.587452     -0.030399
    1210.0002     96.060394     69.582458      2.592485     -0.028717
    1209.9002     96.858566     71.131454      2.602402     -0.026488
    1209.8002     96.908508     71.910553      2.615904     -0.023896
    1209.7002     96.136688     71.478790      2.629408     -0.021805
    1209.6002     95.189636     69.739120      2.639397     -0.022069
    1209.5002     94.440216     67.786026      2.643352     -0.026380
    1209.4002     94.244827     66.330414      2.643532     -0.032582
    1209.3002     94.483185     65.481888      2.644276     -0.036431
    1209.2002     95.216385     64.943710      2.644258     -0.033809
    1209.1002     96.367126     64.901276      2.641874     -0.027155
    1209.0002     97.608521     65.596069      2.639797     -0.029083
    1208.9002     98.996765     66.497543      2.638824     -0.039006
    1208.8002    100.482361     67.233200      2.638879     -0.045564
    1208.7002    101.902878     67.826340      2.640621     -0.045329
    1208.6002    103.120834     68.424515      2.643149     -0.038131
    1208.5002    104.107361     69.131302      2.644701     -0.029915
    1208.4002    105.045776     69.932037      2.643457     -0.021546
    1208.3002    105.928528     70.782364      2.637221     -0.013054
    1208.2002    106.769974     72.035660      2.627027     -0.004860
    1208.1002    107.567200     74.161057      2.618169     -0.001322
    1208.0002    108.270142     76.749908      2.615077     -0.005963
