# LAS format data
~Version Information
VERS.     2.00: CWLS LOG ASCII STANDARD - VERSION 2.0
WRAP.       NO: ONE LINE PER DEPTH STEP
~Well Information
#MNEM   .UNITS    DATA                           DESCRIPTION
#----   ------    ----                           -----------
STRT    .M        2196.9004                     :First Index Value
STOP    .M        40.1002                       :Last Index Value
STEP    .M        -0.1000                       :Frame Spacing
NULL    .         -999.2500                     :Absent Value
WELL    .         EVERDINGEN-01                 :Well Name   
FLD     .         UNKNOWN                       :Field Name  
CNTY    .                                       :County
STAT    .                                       :State
CTRY    .                                       :Country
LOC     .                                       :Location
API     .                                       :API Number
DATE    .                                       :Date
COMP    .         NAM                           :Company Name
SRVC    .                                       :Service Company
~Parameter Information
#MNEM   .UNITS    VALUE                          DESCRIPTION
#----   ------    -----                          -----------
TDD     .M        2197.50000                    :Total Depth (Driller)   
UBID    .         1308                          :Unique Borehole Id  
PDAT    .         Mean Sea Level                :Permanent Datum 
EPD     .M           0.00000                    :Elevation of Permanent Datum (PDAT) above Mean Sea Level
LMF     .                                       :Logging Measured From (Name of Logging Elevation Reference) 
APD     .M           6.32000                    :Elevation of Depth Reference (LMF) Above Permanent Datum
~Curve Information
#MNEM   .UNITS    API CODE                       CURVE DESCRIPTION
#----   ------    --------                       -----------------
DEPT    .M                                      :1     Index curve
GR      .GAPI                                   :2     SNAM  
DT      .US/F                                   :3     SNAM  
RHOB    .G/C3                                   :4     SNAM  
DRHO    .G/C3                                   :5     SNAM  
~Ascii Log Data
# ...
      57.9002     24.962513    191.747101   -999.250000   -999.250000
      57.8002     24.836521    189.265778   -999.250000   -999.250000
      57.7002     24.781593    187.077393   -999.250000   -999.250000
      57.6002     24.741516    185.350830   -999.250000   -999.250000
      57.5002     24.740067    184.165344   -999.250000   -999.250000
      57.4002     24.809685    183.432770   -999.250000   -999.250000
      57.3002     24.930977    182.596802   -999.250000   -999.250000
      57.2002     25.006184    181.039276   -999.250000   -999.250000
      57.1002     24.909348    179.079163   -999.250000   -999.250000
      57.0002     24.652245    177.940094   -999.250000   -999.250000
      56.9002     24.529514    178.523712   -999.250000   -999.250000
      56.8002     24.551403    180.566986   -999.250000   -999.250000
      56.7002     24.595634    183.177551   -999.250000   -999.250000
      56.6002     24.636311    185.680634   -999.250000   -999.250000
      56.5002     24.682003    187.237122   -999.250000   -999.250000
      56.4002     24.744286    187.116180   -999.250000   -999.250000
      56.3002     24.764877    185.186737   -999.250000   -999.250000
      56.2002     24.754047    182.121124   -999.250000   -999.250000
      56.1002     24.741898    179.071655   -999.250000   -999.250000
      56.0002     24.703499    177.128967   -999.250000   -999.250000
      55.9002     24.547379    177.426422   -999.250000   -999.250000
      55.8002     24.189018    179.529877   -999.250000   -999.250000
      55.7002     23.790981    181.243500   -999.250000   -999.250000
      55.6002     23.573029    181.798004   -999.250000   -999.250000
      55.5002     23.690845    181.825928   -999.250000   -999.250000
      55.4002     24.012486    181.326996   -999.250000   -999.250000
      55.3002     24.236965    179.880005   -999.250000   -999.250000
      55.2002     24.086914    177.732880   -999.250000   -999.250000
      55.1002     23.590237    176.128601   -999.250000   -999.250000
      55.0002     23.032150    175.620331   -999.250000   -999.250000
      54.9002     22.699142    175.878021   -999.250000   -999.250000
      54.8002     22.704906    176.677094   -999.250000   -999.250000
      54.7002     22.938049    177.901825   -999.250000   -999.250000
      54.6002     23.295464    179.394714   -999.250000   -999.250000
      54.5002     23.750011    180.985321   -999.250000   -999.250000
      54.4002     24.217285    182.542206   -999.250000   -999.250000
      54.3002     24.419434    183.765228   -999.250000   -999.250000
      54.2002     24.492813    184.116547   -999.250000   -999.250000
      54.1002     24.613281    183.481964   -999.250000   -999.250000
      54.0002     24.921532    182.251648   -999.250000   -999.250000
      53.9002     25.445206    181.059387   -999.250000   -999.250000
      53.8002     26.134033    180.015015   -999.250000   -999.250000
      53.7002     26.982468    178.901886   -999.250000   -999.250000
      53.6002     27.888779    178.109741   -999.250000   -999.250000
      53.5002     28.765068    178.102905   -999.250000   -999.250000
      53.4002     29.520729    178.798157   -999.250000   -999.250000
      53.3002     30.081783    179.892517   -999.250000   -999.250000
      53.2002     30.420937    181.271973   -999.250000   -999.250000
      53.1002     30.327599    183.081665   -999.250000   -999.250000
      53.0002     29.805431    185.285553   -999.250000   -999.250000
      52.9002     28.999290    187.443115   -999.250000   -999.250000
      52.8002     28.084270    189.175751   -999.250000   -999.250000
      52.7002     27.285667    190.298859   -999.250000   -999.250000
      52.6002     26.662842    191.021759   -999.250000   -999.250000
      52.5002     26.179394    191.652954   -999.250000   -999.250000
      52.4002     25.751251    192.407440   -999.250000   -999.250000
      52.3002     25.319359    193.417664   -999.250000   -999.250000
      52.2002     24.891766    194.759430   -999.250000   -999.250000
      52.1002     24.585239    196.315674   -999.250000   -999.250000
      52.0002     24.585823    197.919769   -999.250000   -999.250000
      51.9002     24.882462    199.656738   -999.250000   -999.250000
      51.8002     25.206001    201.524902   -999.250000   -999.250000
      51.7002     25.291161    203.333588   -999.250000   -999.250000
      51.6002     25.084991    204.851715   -999.250000   -999.250000
      51.5002     24.756851    205.919037   -999.250000   -999.250000
      51.4002     24.428017    206.578888   -999.250000   -999.250000
      51.3002     24.159958    206.889893   -999.250000   -999.250000
      51.2002     23.960758    206.890839   -999.250000   -999.250000
      51.1002     23.811508    206.630066   -999.250000   -999.250000
      51.0002     23.666504    206.113831   -999.250000   -999.250000
      50.9002     23.457836    205.326385   -999.250000   -999.250000
      50.8002     23.190029    204.274231   -999.250000   -999.250000
      50.7002     22.892204    202.995300   -999.250000   -999.250000
      50.6002     22.620388    201.534515   -999.250000   -999.250000
      50.5002     22.425808    199.987366   -999.250000   -999.250000
      50.4002     22.402908    198.437531   -999.250000   -999.250000
      50.3002     22.588142    196.852203   -999.250000   -999.250000
      50.2002     22.958130    195.220154   -999.250000   -999.250000
      50.1002     23.440090    193.361816   -999.250000   -999.250000
      50.0002     23.909420    190.916779   -999.250000   -999.250000
      49.9002     24.343163    188.035187   -999.250000   -999.250000
      49.8002     24.704903    185.964050   -999.250000   -999.250000
      49.7002     24.958794    185.884216   -999.250000   -999.250000
      49.6002     25.070309    186.949951   -999.250000   -999.250000
      49.5002     25.055088    187.486572   -999.250000   -999.250000
      49.4002     24.983017    187.262604   -999.250000   -999.250000
      49.3002     24.847607    186.742828   -999.250000   -999.250000
      49.2002     24.694477    186.103546   -999.250000   -999.250000
      49.1002     24.643555    185.265442   -999.250000   -999.250000
      49.0002     24.767788    184.099152   -999.250000   -999.250000
      48.9002     25.017262    182.989532   -999.250000   -999.250000
      48.8002     25.169884    182.961182   -999.250000   -999.250000
      48.7002     25.119873    184.539032   -999.250000   -999.250000
      48.6002     24.901794    186.913879   -999.250000   -999.250000
      48.5002     24.690327    188.625397   -999.250000   -999.250000
      48.4002     24.661392    189.161316   -999.250000   -999.250000
      48.3002     24.883614    189.022156   -999.250000   -999.250000
      48.2002     25.193779    188.683594   -999.250000   -999.250000
      48.1002     25.498043    188.508667   -999.250000   -999.250000
      48.0002     25.745789    189.049591   -999.250000   -999.250000
      47.9002     25.978195    190.569031   -999.250000   -999.250000
      47.8002     26.240398    192.388702   -999.250000   -999.250000
      47.7002     26.561775    193.760590   -999.250000   -999.250000
      47.6002     26.968906    195.232330   -999.250000   -999.250000
      47.5002     27.382473    197.647858   -999.250000   -999.250000
      47.4002     27.701374    200.421021   -999.250000   -999.250000
      47.3002     27.847462    201.769043   -999.250000   -999.250000
      47.2002     27.893326    201.175415   -999.250000   -999.250000
      47.1002     27.984100    199.758698   -999.250000   -999.250000
      47.0002     27.996498    198.278656   -999.250000   -999.250000
      46.9002     27.872620    196.847534   -999.250000   -999.250000
      46.8002     27.649548    195.483673   -999.250000   -999.250000
      46.7002     27.177147    194.773834   -999.250000   -999.250000
      46.6002     26.457706    195.877106   -999.250000   -999.250000
      46.5002     25.585854    198.506378   -999.250000   -999.250000
