# LAS format data
~Version Information
VERS.     2.00: CWLS LOG ASCII STANDARD - VERSION 2.0
WRAP.       NO: ONE LINE PER DEPTH STEP
~Well Information
#MNEM   .UNITS    DATA                           DESCRIPTION
#----   ------    ----                           -----------
STRT    .M        2196.9004                     :First Index Value
STOP    .M        40.1002                       :Last Index Value
STEP    .M        -0.1000                       :Frame Spacing
NULL    .         -999.2500                     :Absent Value
WELL    .         EVERDINGEN-01                 :Well Name   
FLD     .         UNKNOWN                       :Field Name  
CNTY    .                                       :County
STAT    .                                       :State
CTRY    .                                       :Country
LOC     .                                       :Location
API     .                                       :API Number
DATE    .                                       :Date
COMP    .         NAM                           :Company Name
SRVC    .                                       :Service Company
~Parameter Information
#MNEM   .UNITS    VALUE                          DESCRIPTION
#----   ------    -----                          -----------
TDD     .M        2197.50000                    :Total Depth (Driller)   
UBID    .         1308                          :Unique Borehole Id  
PDAT    .         Mean Sea Level                :Permanent Datum 
EPD     .M           0.00000                    :Elevation of Permanent Datum (PDAT) above Mean Sea Level
LMF     .                                       :Logging Measured From (Name of Logging Elevation Reference) 
APD     .M           6.32000                    :Elevation of Depth Reference (LMF) Above Permanent Datum
~Curve Information
#MNEM   .UNITS    API CODE                       CURVE DESCRIPTION
#----   ------    --------                       -----------------
DEPT    .M                                      :1     Index curve
GR      .GAPI                                   :2     SNAM  
DT      .US/F                                   :3     SNAM  
RHOB    .G/C3                                   :4     SNAM  
DRHO    .G/C3                                   :5     SNAM  
~Ascii Log Data
# ...
     368.4002     39.317650    139.533295   -999.250000   -999.250000
     368.3002     39.152084    139.765747   -999.250000   -999.250000
     368.2002     38.871338    140.868195   -999.250000   -999.250000
     368.1002     38.083038    144.096039   -999.250000   -999.250000
     368.0002     36.606735    147.118866   -999.250000   -999.250000
     367.9002     34.855255    147.345215   -999.250000   -999.250000
     367.8002     33.729233    146.124115   -999.250000   -999.250000
     367.7002     33.591660    144.440948   -999.250000   -999.250000
     367.6002     33.812828    142.600220   -999.250000   -999.250000
     367.5002     34.265602    141.016998   -999.250000   -999.250000
     367.4002     34.845070    139.782928   -999.250000   -999.250000
     367.3002     35.483772    138.359558   -999.250000   -999.250000
     367.2002     35.884209    136.085632   -999.250000   -999.250000
     367.1002     35.945045    133.450195   -999.250000   -999.250000
     367.0002     36.065804    131.605255   -999.250000   -999.250000
     366.9002     36.289032    130.349365   -999.250000   -999.250000
     366.8002     36.612167    129.461456   -999.250000   -999.250000
     366.7002     36.943016    129.187744   -999.250000   -999.250000
     366.6002     37.222946    129.952972   -999.250000   -999.250000
     366.5002     37.407600    131.843750   -999.250000   -999.250000
     366.4002     37.531219    134.152710   -999.250000   -999.250000
     366.3002     37.602730    136.283844   -999.250000   -999.250000
     366.2002     37.690498    137.868805   -999.250000   -999.250000
     366.1002     37.901184    138.805267   -999.250000   -999.250000
     366.0002     38.334190    139.116028   -999.250000   -999.250000
     365.9002     39.008797    138.860901   -999.250000   -999.250000
     365.8002     39.742889    138.263062   -999.250000   -999.250000
     365.7002     40.299210    137.579620   -999.250000   -999.250000
     365.6002     40.406532    137.085815   -999.250000   -999.250000
     365.5002     40.062965    136.907715   -999.250000   -999.250000
     365.4002     39.229942    136.957489   -999.250000   -999.250000
     365.3002     38.128540    137.021362   -999.250000   -999.250000
     365.2002     37.043549    136.921997   -999.250000   -999.250000
     365.1002     36.185440    136.686371   -999.250000   -999.250000
     365.0002     35.681183    136.473938   -999.250000   -999.250000
     364.9002     35.595612    136.403320   -999.250000   -999.250000
     364.8002     35.973808    136.608093   -999.250000   -999.250000
     364.7002     36.632034    136.920197   -999.250000   -999.250000
     364.6002     37.570824    136.632385   -999.250000   -999.250000
     364.5002     38.708664    135.326508   -999.250000   -999.250000
     364.4002     39.783226    133.535645   -999.250000   -999.250000
     364.3002     40.575363    132.527832   -999.250000   -999.250000
     364.2002     40.966492    132.572205   -999.250000   -999.250000
     364.1002     41.121300    133.704742   -999.250000   -999.250000
     364.0002     41.197235    137.567902   -999.250000   -999.250000
     363.9002     41.146698    143.488251   -999.250000   -999.250000
     363.8002     40.726990    148.473724   -999.250000   -999.250000
     363.7002     39.957764    150.931152   -999.250000   -999.250000
     363.6002     39.230797    150.801697   -999.250000   -999.250000
     363.5002     38.967056    149.191559   -999.250000   -999.250000
     363.4002     39.204628    145.911285   -999.250000   -999.250000
     363.3002     39.745644    141.994568   -999.250000   -999.250000
     363.2002     40.407219    139.235687   -999.250000   -999.250000
     363.1002     40.763535    137.258911   -999.250000   -999.250000
     363.0002     40.645721    135.819427   -999.250000   -999.250000
     362.9002     40.159073    135.313904   -999.250000   -999.250000
     362.8002     39.638329    135.585358   -999.250000   -999.250000
     362.7002     39.312576    136.344543   -999.250000   -999.250000
     362.6002     39.178093    137.434021   -999.250000   -999.250000
     362.5002     39.256653    138.160828   -999.250000   -999.250000
     362.4002     39.329567    137.291077   -999.250000   -999.250000
     362.3002     38.951607    134.131805   -999.250000   -999.250000
     362.2002     38.373047    129.310089   -999.250000   -999.250000
     362.1002     37.937164    124.820755   -999.250000   -999.250000
     362.0002     37.869209    122.343124   -999.250000   -999.250000
     361.9002     37.695473    122.633224   -999.250000   -999.250000
     361.8002     37.249115    125.056030   -999.250000   -999.250000
     361.7002     37.096306    128.612457   -999.250000   -999.250000
     361.6002     37.509171    134.879608   -999.250000   -999.250000
     361.5002     38.325180    141.809418   -999.250000   -999.250000
     361.4002     39.066826    144.718140   -999.250000   -999.250000
     361.3002     39.672546    144.380371   -999.250000   -999.250000
     361.2002     40.213043    143.342896   -999.250000   -999.250000
     361.1002     40.478477    142.099854   -999.250000   -999.250000
     361.0002     40.555641    140.462036   -999.250000   -999.250000
     360.9002     40.574265    138.348083   -999.250000   -999.250000
     360.8002     40.870781    135.385193   -999.250000   -999.250000
     360.7002     41.556496    133.255524   -999.250000   -999.250000
     360.6002     42.638321    132.635925   -999.250000   -999.250000
     360.5002     43.737984    132.156952   -999.250000   -999.250000
     360.4002     44.400757    132.175964   -999.250000   -999.250000
     360.3002     44.394470    133.311646   -999.250000   -999.250000
     360.2002     44.009544    134.976410   -999.250000   -999.250000
     360.1002     43.572044    136.582275   -999.250000   -999.250000
     360.0002     43.188210    138.054626   -999.250000   -999.250000
     359.9002     42.879707    139.267761   -999.250000   -999.250000
     359.8002     42.672630    140.007202   -999.250000   -999.250000
     359.7002     42.619850    140.267303   -999.250000   -999.250000
     359.6002     42.601143    140.143066   -999.250000   -999.250000
     359.5002     42.427277    140.343140   -999.250000   -999.250000
     359.4002     41.851776    141.405273   -999.250000   -999.250000
     359.3002     41.027435    141.498352   -999.250000   -999.250000
     359.2002     40.322586    139.927917   -999.250000   -999.250000
     359.1002     40.300507    137.463928   -999.250000   -999.250000
     359.0002     40.913185    134.842224   -999.250000   -999.250000
     358.9002     41.788467    132.943207   -999.250000   -999.250000
     358.8002     42.663429    132.627930   -999.250000   -999.250000
     358.7002     43.226700    132.697449   -999.250000   -999.250000
     358.6002     43.363640    133.370087   -999.250000   -999.250000
     358.5002     42.897705    136.958893   -999.250000   -999.250000
     358.4002     42.147827    141.943604   -999.250000   -999.250000
     358.3002     41.534348    145.456177   -999.250000   -999.250000
     358.2002     41.135452    147.041016   -999.250000   -999.250000
     358.1002     40.835243    147.484253   -999.250000   -999.250000
     358.0002     40.538963    147.578796   -999.250000   -999.250000
     357.9002     40.767509    147.336090   -999.250000   -999.250000
     357.8002     41.502953    146.865753   -999.250000   -999.250000
     357.7002     42.199821    146.600128   -999.250000   -999.250000
     357.6002     42.528313    146.810791   -999.250000   -999.250000
     357.5002     42.488068    147.142853   -999.250000   -999.250000
     357.4002     42.468147    147.042633   -999.250000   -999.250000
     357.3002     42.456871    146.694946   -999.250000   -999.250000
     357.2002     42.390701    146.316986   -999.250000   -999.250000
     357.1002     42.189835    145.936523   -999.250000   -999.250000
     357.0002     41.790596    145.559509   -999.250000   -999.250000
