# LAS format data
~Version Information
VERS.     2.00: CWLS LOG ASCII STANDARD - VERSION 2.0
WRAP.       NO: ONE LINE PER DEPTH STEP
~Well Information
#MNEM   .UNITS    DATA                           DESCRIPTION
#----   ------    ----                           -----------
STRT    .M        2196.9004                     :First Index Value
STOP    .M        40.1002                       :Last Index Value
STEP    .M        -0.1000                       :Frame Spacing
NULL    .         -999.2500                     :Absent Value
WELL    .         EVERDINGEN-01                 :Well Name   
FLD     .         UNKNOWN                       :Field Name  
CNTY    .                                       :County
STAT    .                                       :State
CTRY    .                                       :Country
LOC     .                                       :Location
API     .                                       :API Number
DATE    .                                       :Date
COMP    .         NAM                           :Company Name
SRVC    .                                       :Service Company
~Parameter Information
#MNEM   .UNITS    VALUE                          DESCRIPTION
#----   ------    -----                          -----------
TDD     .M        2197.50000                    :Total Depth (Driller)   
UBID    .         1308                          :Unique Borehole Id  
PDAT    .         Mean Sea Level                :Permanent Datum 
EPD     .M           0.00000                    :Elevation of Permanent Datum (PDAT) above Mean Sea Level
LMF     .                                       :Logging Measured From (Name of Logging Elevation Reference) 
APD     .M           6.32000                    :Elevation of Depth Reference (LMF) Above Permanent Datum
~Curve Information
#MNEM   .UNITS    API CODE                       CURVE DESCRIPTION
#----   ------    --------                       -----------------
DEPT    .M                                      :1     Index curve
GR      .GAPI                                   :2     SNAM  
DT      .US/F                                   :3     SNAM  
RHOB    .G/C3                                   :4     SNAM  
DRHO    .G/C3                                   :5     SNAM  
~Ascii Log Data
# ...
    1081.4003     76.310883     91.318497   -999.250000   -999.250000
    1081.3003     77.414429     91.191498   -999.250000   -999.250000
    1081.2003     78.549316     91.314041   -999.250000   -999.250000
    1081.1003     79.700699     91.637894   -999.250000   -999.250000
    1081.0003     80.888657     92.295578   -999.250000   -999.250000
    1080.9003     81.883545     92.469238   -999.250000   -999.250000
    1080.8003     82.409821     92.053131   -999.250000   -999.250000
    1080.7003     82.352783     91.740021   -999.250000   -999.250000
    1080.6003     81.512436     90.037506   -999.250000   -999.250000
    1080.5003     80.056107     86.575241   -999.250000   -999.250000
    1080.4003     78.160965     83.332840   -999.250000   -999.250000
    1080.3003     75.804260     81.006104   -999.250000   -999.250000
    1080.2003     73.185699     79.657471   -999.250000   -999.250000
    1080.1003     70.441971     79.121887   -999.250000   -999.250000
    1080.0003     68.833313     79.149628   -999.250000   -999.250000
    1079.9003     69.215714     79.158127   -999.250000   -999.250000
    1079.8003     71.842926     78.578262   -999.250000   -999.250000
    1079.7003     75.935715     78.696411   -999.250000   -999.250000
    1079.6003     80.286240     79.509857   -999.250000   -999.250000
    1079.5003     84.195541     79.137497   -999.250000   -999.250000
    1079.4003     86.623413     78.566788   -999.250000   -999.250000
    1079.3003     87.432587     78.667694   -999.250000   -999.250000
    1079.2003     86.184830     78.514267   -999.250000   -999.250000
    1079.1003     83.735504     76.753784   -999.250000   -999.250000
    1079.0003     81.116440     74.393112   -999.250000   -999.250000
    1078.9003     78.722931     74.368912   -999.250000   -999.250000
    1078.8003     76.777664     76.577835   -999.250000   -999.250000
    1078.7003     75.331329     78.831940   -999.250000   -999.250000
    1078.6003     74.482758     79.239243   -999.250000   -999.250000
    1078.5003     73.881165     78.174744   -999.250000   -999.250000
    1078.4003     73.256424     76.719009   -999.250000   -999.250000
    1078.3003     72.589066     75.125732   -999.250000   -999.250000
    1078.2003     71.932724     74.463776   -999.250000   -999.250000
    1078.1003     71.360764     75.231277   -999.250000   -999.250000
    1078.0003     71.135376     76.815735   -999.250000   -999.250000
    1077.9003     71.413666     78.453613   -999.250000   -999.250000
    1077.8003     72.369339     79.843613   -999.250000   -999.250000
    1077.7003     74.140411     81.175400   -999.250000   -999.250000
    1077.6003     76.337952     83.026154   -999.250000   -999.250000
    1077.5003     78.507690     85.450912   -999.250000   -999.250000
    1077.4003     80.954224     87.205643   -999.250000   -999.250000
    1077.3003     83.581985     87.567734   -999.250000   -999.250000
    1077.2003     86.098114     86.788818   -999.250000   -999.250000
    1077.1003     87.475769     85.239090   -999.250000   -999.250000
    1077.0003     87.750046     83.626648   -999.250000   -999.250000
    1076.9003     87.451950     82.413544   -999.250000   -999.250000
    1076.8003     86.734772     81.747192   -999.250000   -999.250000
    1076.7003     85.778931     81.781876   -999.250000   -999.250000
    1076.6003     84.903534     82.636505   -999.250000   -999.250000
    1076.5003     84.603851     84.008789   -999.250000   -999.250000
    1076.4003     84.974701     85.136398   -999.250000   -999.250000
    1076.3003     86.220215     85.334259   -999.250000   -999.250000
    1076.2003     87.543579     84.720291   -999.250000   -999.250000
    1076.1003     88.448196     83.868042   -999.250000   -999.250000
    1076.0003     88.839996     83.202545   -999.250000   -999.250000
    1075.9003     88.977234     82.808029   -999.250000   -999.250000
    1075.8003     89.076294     82.422318   -999.250000   -999.250000
    1075.7003     89.098465     81.692841   -999.250000   -999.250000
    1075.6003     89.050995     80.626907   -999.250000   -999.250000
    1075.5003     88.966248     79.441864   -999.250000   -999.250000
    1075.4003     89.137909     78.329498   -999.250000   -999.250000
    1075.3003     89.613785     77.290100   -999.250000   -999.250000
    1075.2003     90.284500     76.337021   -999.250000   -999.250000
    1075.1003     90.927750     75.752747   -999.250000   -999.250000
    1075.0003     91.242477     75.387268   -999.250000   -999.250000
    1074.9003     90.970657     74.764191   -999.250000   -999.250000
    1074.8003     89.503021     73.239136   -999.250000   -999.250000
    1074.7003     86.625290     70.868774   -999.250000   -999.250000
    1074.6003     82.205322     68.294525   -999.250000   -999.250000
    1074.5003     75.971832     66.017334   -999.250000   -999.250000
    1074.4003     69.018463     65.048996   -999.250000   -999.250000
    1074.3003     63.522942     66.176575   -999.250000   -999.250000
    1074.2003     60.478905     69.293579   -999.250000   -999.250000
    1074.1003     59.731148     73.756729   -999.250000   -999.250000
    1074.0003     61.083069     78.440536   -999.250000   -999.250000
    1073.9003     64.404724     82.687988   -999.250000   -999.250000
    1073.8003     69.086563     85.774673   -999.250000   -999.250000
    1073.7003     75.214905     87.290131   -999.250000   -999.250000
    1073.6003     82.146698     88.086746   -999.250000   -999.250000
    1073.5003     88.474777     88.640945   -999.250000   -999.250000
    1073.4003     93.634781     88.144730   -999.250000   -999.250000
    1073.3003     96.687683     86.545883   -999.250000   -999.250000
    1073.2003     97.352768     84.271835   -999.250000   -999.250000
    1073.1003     96.078918     81.413452   -999.250000   -999.250000
    1073.0003     93.640900     78.702316   -999.250000   -999.250000
    1072.9003     91.267334     77.358292   -999.250000   -999.250000
    1072.8003     88.264709     77.483704   -999.250000   -999.250000
    1072.7002     84.413788     79.344971   -999.250000   -999.250000
    1072.6002     80.809372     82.984512   -999.250000   -999.250000
    1072.5002     78.126236     87.649033   -999.250000   -999.250000
    1072.4002     77.142136     92.265366   -999.250000   -999.250000
    1072.3002     77.412491     95.572311   -999.250000   -999.250000
    1072.2002     78.864090     96.933838   -999.250000   -999.250000
    1072.1002     81.090118     95.866806   -999.250000   -999.250000
    1072.0002     83.581787     93.169739   -999.250000   -999.250000
    1071.9002     85.813965     90.720764   -999.250000   -999.250000
    1071.8002     86.972763     89.239166   -999.250000   -999.250000
    1071.7002     86.964111     87.629990   -999.250000   -999.250000
    1071.6002     85.608780     85.428284   -999.250000   -999.250000
    1071.5002     83.447113     83.140121   -999.250000   -999.250000
    1071.4002     81.371704     81.704086   -999.250000   -999.250000
    1071.3002     79.463287     80.691406   -999.250000   -999.250000
    1071.2002     77.568039     79.884995   -999.250000   -999.250000
    1071.1002     75.908752     80.020752   -999.250000   -999.250000
    1071.0002     74.709915     81.060013   -999.250000   -999.250000
    1070.9002     73.989090     82.347412   -999.250000   -999.250000
    1070.8002     73.695023     83.156509   -999.250000   -999.250000
    1070.7002     73.768112     83.550674   -999.250000   -999.250000
    1070.6002     73.970627     83.969589   -999.250000   -999.250000
    1070.5002     74.289856     84.641449   -999.250000   -999.250000
    1070.4002     74.689575     85.432571   -999.250000   -999.250000
    1070.3002     75.068848     85.969513   -999.250000   -999.250000
    1070.2002     75.336761     85.971985   -999.250000   -999.250000
    1070.1002     75.502747     85.448563   -999.250000   -999.250000
    1070.0002     75.618240     84.530182   -999.250000   -999.250000
