# LAS format data
~Version Information
VERS.     2.00: CWLS LOG ASCII STANDARD - VERSION 2.0
WRAP.       NO: ONE LINE PER DEPTH STEP
~Well Information
#MNEM   .UNITS    DATA                           DESCRIPTION
#----   ------    ----                           -----------
STRT    .M        2196.9004                     :First Index Value
STOP    .M        40.1002                       :Last Index Value
STEP    .M        -0.1000                       :Frame Spacing
NULL    .         -999.2500                     :Absent Value
WELL    .         EVERDINGEN-01                 :Well Name   
FLD     .         UNKNOWN                       :Field Name  
CNTY    .                                       :County
STAT    .                                       :State
CTRY    .                                       :Country
LOC     .                                       :Location
API     .                                       :API Number
DATE    .                                       :Date
COMP    .         NAM                           :Company Name
SRVC    .                                       :Service Company
~Parameter Information
#MNEM   .UNITS    VALUE                          DESCRIPTION
#----   ------    -----                          -----------
TDD     .M        2197.50000                    :Total Depth (Driller)   
UBID    .         1308                          :Unique Borehole Id  
PDAT    .         Mean Sea Level                :Permanent Datum 
EPD     .M           0.00000                    :Elevation of Permanent Datum (PDAT) above Mean Sea Level
LMF     .                                       :Logging Measured From (Name of Logging Elevation Reference) 
APD     .M           6.32000                    :Elevation of Depth Reference (LMF) Above Permanent Datum
~Curve Information
#MNEM   .UNITS    API CODE                       CURVE DESCRIPTION
#----   ------    --------                       -----------------
DEPT    .M                                      :1     Index curve
GR      .GAPI                                   :2     SNAM  
DT      .US/F                                   :3     SNAM  
RHOB    .G/C3                                   :4     SNAM  
DRHO    .G/C3                                   :5     SNAM  
~Ascii Log Data
# ...
    1495.4003    118.483170     55.513374   -999.250000   -999.250000
    1495.3003    121.749466     56.158325   -999.250000   -999.250000
    1495.2003    123.257004     57.695793   -999.250000   -999.250000
    1495.1003    124.011124     59.694054   -999.250000   -999.250000
    1495.0003    124.771530     61.726372   -999.250000   -999.250000
    1494.9003    125.293304     63.450089   -999.250000   -999.250000
    1494.8003    125.089523     64.725586   -999.250000   -999.250000
    1494.7003    123.791702     65.447739   -999.250000   -999.250000
    1494.6003    121.762817     65.660278   -999.250000   -999.250000
    1494.5003    119.179825     65.400314   -999.250000   -999.250000
    1494.4003    116.413330     64.769241   -999.250000   -999.250000
    1494.3003    113.521484     64.084457   -999.250000   -999.250000
    1494.2003    110.824417     63.574120   -999.250000   -999.250000
    1494.1003    108.800308     63.290710   -999.250000   -999.250000
    1494.0003    107.814438     63.179947   -999.250000   -999.250000
    1493.9003    108.198456     63.302185   -999.250000   -999.250000
    1493.8003    109.537949     63.477760   -999.250000   -999.250000
    1493.7003    110.806442     63.199936   -999.250000   -999.250000
    1493.6003    111.021194     62.361435   -999.250000   -999.250000
    1493.5003    109.305145     61.132111   -999.250000   -999.250000
    1493.4003    105.876923     59.983521   -999.250000   -999.250000
    1493.3003    101.107452     59.183182   -999.250000   -999.250000
    1493.2003     96.282623     58.958557   -999.250000   -999.250000
    1493.1003     92.149780     59.364861   -999.250000   -999.250000
    1493.0003     89.502579     60.173180   -999.250000   -999.250000
    1492.9003     88.480972     60.963997   -999.250000   -999.250000
    1492.8003     88.569016     61.329025   -999.250000   -999.250000
    1492.7003     89.654678     61.203278   -999.250000   -999.250000
    1492.6003     91.690964     60.651642   -999.250000   -999.250000
    1492.5003     95.181000     59.788376   -999.250000   -999.250000
    1492.4003    100.505234     58.794037   -999.250000   -999.250000
    1492.3003    106.821411     57.939232   -999.250000   -999.250000
    1492.2003    113.763947     57.288879   -999.250000   -999.250000
    1492.1003    120.152557     57.030365   -999.250000   -999.250000
    1492.0003    124.386261     57.234207   -999.250000   -999.250000
    1491.9003    125.289658     57.550812   -999.250000   -999.250000
    1491.8003    122.737885     57.935158   -999.250000   -999.250000
    1491.7003    118.511856     58.544434   -999.250000   -999.250000
    1491.6003    113.105316     59.408966   -999.250000   -999.250000
    1491.5003    107.624268     60.291145   -999.250000   -999.250000
    1491.4003    102.604965     60.806892   -999.250000   -999.250000
    1491.3003     99.730331     60.645973   -999.250000   -999.250000
    1491.2003     99.480377     59.649254   -999.250000   -999.250000
    1491.1003    100.554321     58.095444   -999.250000   -999.250000
    1491.0003    102.661942     56.557152   -999.250000   -999.250000
    1490.9003    105.157837     55.319191   -999.250000   -999.250000
    1490.8003    107.673599     54.405029   -999.250000   -999.250000
    1490.7003    109.902634     54.255989   -999.250000   -999.250000
    1490.6003    111.882095     55.095093   -999.250000   -999.250000
    1490.5003    113.804443     56.600609   -999.250000   -999.250000
    1490.4003    115.221054     58.430199   -999.250000   -999.250000
    1490.3003    115.673843     60.044212   -999.250000   -999.250000
    1490.2003    114.336990     61.051613   -999.250000   -999.250000
    1490.1003    110.877289     61.475746   -999.250000   -999.250000
    1490.0003    106.126450     61.703148   -999.250000   -999.250000
    1489.9003    101.162827     62.047722   -999.250000   -999.250000
    1489.8003     96.862885     62.530266   -999.250000   -999.250000
    1489.7003     93.708191     63.239120   -999.250000   -999.250000
    1489.6003     93.242218     64.275192   -999.250000   -999.250000
    1489.5003     95.153229     64.876907   -999.250000   -999.250000
    1489.4003     98.300156     64.528046   -999.250000   -999.250000
    1489.3003    101.856308     63.314827   -999.250000   -999.250000
    1489.2003    105.187897     61.105637   -999.250000   -999.250000
    1489.1003    108.020477     58.674156   -999.250000   -999.250000
    1489.0003    110.032898     57.031960   -999.250000   -999.250000
    1488.9003    111.769165     56.595703   -999.250000   -999.250000
    1488.8003    113.631851     57.114899   -999.250000   -999.250000
    1488.7003    115.993225     58.357567   -999.250000   -999.250000
    1488.6003    118.572861     59.977066   -999.250000   -999.250000
    1488.5003    121.052536     61.481339   -999.250000   -999.250000
    1488.4003    123.508087     62.496346   -999.250000   -999.250000
    1488.3003    125.108810     62.941765   -999.250000   -999.250000
    1488.2003    125.200882     63.101143   -999.250000   -999.250000
    1488.1003    122.700974     63.320808   -999.250000   -999.250000
    1488.0003    118.204086     63.594521   -999.250000   -999.250000
    1487.9003    112.077774     63.825905   -999.250000   -999.250000
    1487.8003    104.548080     64.007751   -999.250000   -999.250000
    1487.7003     96.875259     64.207794   -999.250000   -999.250000
    1487.6003     89.900955     64.488190   -999.250000   -999.250000
    1487.5003     83.794373     64.929611   -999.250000   -999.250000
    1487.4003     78.909744     65.177673   -999.250000   -999.250000
    1487.3003     76.116562     64.844757   -999.250000   -999.250000
    1487.2003     75.720276     63.225792   -999.250000   -999.250000
    1487.1003     77.021500     60.824242   -999.250000   -999.250000
    1487.0003     79.877899     58.543175   -999.250000   -999.250000
    1486.9003     83.650620     56.491272   -999.250000   -999.250000
    1486.8003     87.683609     54.768921   -999.250000   -999.250000
    1486.7003     91.537277     53.628914   -999.250000   -999.250000
    1486.6003     94.931610     53.379631   -999.250000   -999.250000
    1486.5003     98.077591     53.798820   -999.250000   -999.250000
    1486.4003    101.209381     54.456627   -999.250000   -999.250000
    1486.3003    104.400467     55.111755   -999.250000   -999.250000
    1486.2003    107.589020     55.748878   -999.250000   -999.250000
    1486.1003    110.477005     56.448677   -999.250000   -999.250000
    1486.0003    113.169403     57.435921   -999.250000   -999.250000
    1485.9003    115.774673     58.662590   -999.250000   -999.250000
    1485.8003    118.024002     59.838463   -999.250000   -999.250000
    1485.7003    119.798584     60.429817   -999.250000   -999.250000
    1485.6003    121.081039     60.362503   -999.250000   -999.250000
    1485.5003    121.518234     60.232887   -999.250000   -999.250000
    1485.4003    121.131699     60.215286   -999.250000   -999.250000
    1485.3003    120.349243     60.240883   -999.250000   -999.250000
    1485.2003    119.183472     60.411308   -999.250000   -999.250000
    1485.1003    117.811554     60.838745   -999.250000   -999.250000
    1485.0003    116.479767     61.473030   -999.250000   -999.250000
    1484.9003    115.201523     62.193634   -999.250000   -999.250000
    1484.8003    114.126343     62.861130   -999.250000   -999.250000
    1484.7003    113.539169     63.372925   -999.250000   -999.250000
    1484.6003    113.789856     63.770828   -999.250000   -999.250000
    1484.5003    114.797195     63.950462   -999.250000   -999.250000
    1484.4003    115.852966     63.772087   -999.250000   -999.250000
    1484.3003    116.078506     63.354805   -999.250000   -999.250000
    1484.2003    114.708984     62.877144   -999.250000   -999.250000
    1484.1003    111.988953     62.493706   -999.250000   -999.250000
    1484.0003    107.917114     62.422256   -999.250000   -999.250000
