# LAS format data
~Version Information
VERS.     2.00: CWLS LOG ASCII STANDARD - VERSION 2.0
WRAP.       NO: ONE LINE PER DEPTH STEP
~Well Information
#MNEM   .UNITS    DATA                           DESCRIPTION
#----   ------    ----                           -----------
STRT    .M        2196.9004                     :First Index Value
STOP    .M        40.1002                       :Last Index Value
STEP    .M        -0.1000                       :Frame Spacing
NULL    .         -999.2500                     :Absent Value
WELL    .         EVERDINGEN-01                 :Well Name   
FLD     .         UNKNOWN                       :Field Name  
CNTY    .                                       :County
STAT    .                                       :State
CTRY    .                                       :Country
LOC     .                                       :Location
API     .                                       :API Number
DATE    .                                       :Date
COMP    .         NAM                           :Company Name
SRVC    .                                       :Service Company
~Parameter Information
#MNEM   .UNITS    VALUE                          DESCRIPTION
#----   ------    -----                          -----------
TDD     .M        2197.50000                    :Total Depth (Driller)   
UBID    .         1308                          :Unique Borehole Id  
PDAT    .         Mean Sea Level                :Permanent Datum 
EPD     .M           0.00000                    :Elevation of Permanent Datum (PDAT) above Mean Sea Level
LMF     .                                       :Logging Measured From (Name of Logging Elevation Reference) 
APD     .M           6.32000                    :Elevation of Depth Reference (LMF) Above Permanent Datum
~Curve Information
#MNEM   .UNITS    API CODE                       CURVE DESCRIPTION
#----   ------    --------                       -----------------
DEPT    .M                                      :1     Index curve
GR      .GAPI                                   :2     SNAM  
DT      .US/F                                   :3     SNAM  
RHOB    .G/C3                                   :4     SNAM  
DRHO    .G/C3                                   :5     SNAM  
~Ascii Log Data
# ...
    1357.4003     94.501984     69.894135   -999.250000   -999.250000
    1357.3003     96.083023     70.343842   -999.250000   -999.250000
    1357.2003     98.079498     70.674118   -999.250000   -999.250000
    1357.1003    100.680252     70.931656   -999.250000   -999.250000
    1357.0003    103.782501     71.271179   -999.250000   -999.250000
    1356.9003    107.199432     71.742859   -999.250000   -999.250000
    1356.8003    110.470123     72.402573   -999.250000   -999.250000
    1356.7003    113.160828     73.380325   -999.250000   -999.250000
    1356.6003    114.964523     74.988235   -999.250000   -999.250000
    1356.5003    116.170090     77.405243   -999.250000   -999.250000
    1356.4003    117.096420     79.946396   -999.250000   -999.250000
    1356.3003    118.047623     81.831589   -999.250000   -999.250000
    1356.2003    119.281433     82.475250   -999.250000   -999.250000
    1356.1003    120.604370     82.084274   -999.250000   -999.250000
    1356.0003    121.854279     80.489914   -999.250000   -999.250000
    1355.9003    122.726303     77.891586   -999.250000   -999.250000
    1355.8003    122.320816     75.761276   -999.250000   -999.250000
    1355.7003    120.002350     74.294098   -999.250000   -999.250000
    1355.6003    116.284225     73.113358   -999.250000   -999.250000
    1355.5003    110.053436     72.393417   -999.250000   -999.250000
    1355.4003    100.847168     71.969788   -999.250000   -999.250000
    1355.3003     90.680023     71.157272   -999.250000   -999.250000
    1355.2003     80.020920     69.429031   -999.250000   -999.250000
    1355.1003     69.728836     67.114334   -999.250000   -999.250000
    1355.0003     60.697731     64.921677   -999.250000   -999.250000
    1354.9003     53.526924     62.451752   -999.250000   -999.250000
    1354.8003     48.093086     60.285774   -999.250000   -999.250000
    1354.7003     43.496918     59.475449   -999.250000   -999.250000
    1354.6003     40.882088     59.467697   -999.250000   -999.250000
    1354.5003     40.955177     59.694756   -999.250000   -999.250000
    1354.4003     43.261246     60.007584   -999.250000   -999.250000
    1354.3003     47.872940     60.532753   -999.250000   -999.250000
    1354.2003     53.592773     61.317215   -999.250000   -999.250000
    1354.1003     59.444000     62.228760   -999.250000   -999.250000
    1354.0003     65.322235     63.093018   -999.250000   -999.250000
    1353.9003     71.157410     63.953232   -999.250000   -999.250000
    1353.8003     76.705093     64.919861   -999.250000   -999.250000
    1353.7003     81.053665     65.601471   -999.250000   -999.250000
    1353.6003     84.119690     65.937271   -999.250000   -999.250000
    1353.5003     86.064362     66.259521   -999.250000   -999.250000
    1353.4003     87.379852     66.642685   -999.250000   -999.250000
    1353.3003     88.690002     66.821854   -999.250000   -999.250000
    1353.2003     90.053757     66.541412   -999.250000   -999.250000
    1353.1003     91.532776     66.016129   -999.250000   -999.250000
    1353.0003     93.213181     65.590302   -999.250000   -999.250000
    1352.9003     95.311218     65.415573   -999.250000   -999.250000
    1352.8003     97.876923     65.589951   -999.250000   -999.250000
    1352.7003    100.748947     66.142426   -999.250000   -999.250000
    1352.6003    103.626114     67.047058   -999.250000   -999.250000
    1352.5003    106.049240     68.113434   -999.250000   -999.250000
    1352.4003    107.739456     69.125763   -999.250000   -999.250000
    1352.3003    106.952255     69.974869   -999.250000   -999.250000
    1352.2003    104.643829     70.375351   -999.250000   -999.250000
    1352.1003    102.079346     70.068069   -999.250000   -999.250000
    1352.0003     99.446350     68.809250   -999.250000   -999.250000
    1351.9003     97.097061     67.135193   -999.250000   -999.250000
    1351.8003     95.299683     65.679352   -999.250000   -999.250000
    1351.7003     94.925385     64.625992   -999.250000   -999.250000
    1351.6003     95.735657     64.020660   -999.250000   -999.250000
    1351.5003     97.343674     63.868919   -999.250000   -999.250000
    1351.4003     99.583115     64.358170   -999.250000   -999.250000
    1351.3003    101.218277     65.168854   -999.250000   -999.250000
    1351.2003    101.059296     66.003662   -999.250000   -999.250000
    1351.1003     98.927856     67.010483   -999.250000   -999.250000
    1351.0003     96.065338     68.087448   -999.250000   -999.250000
    1350.9003     93.425980     68.940491   -999.250000   -999.250000
    1350.8003     91.226181     68.802551   -999.250000   -999.250000
    1350.7003     89.369217     67.901520   -999.250000   -999.250000
    1350.6003     87.806473     66.824890   -999.250000   -999.250000
    1350.5003     86.151535     65.604309   -999.250000   -999.250000
    1350.4003     83.916779     64.525940   -999.250000   -999.250000
    1350.3003     80.053360     63.893562   -999.250000   -999.250000
    1350.2003     75.323547     64.101974   -999.250000   -999.250000
    1350.1003     70.622162     64.604507   -999.250000   -999.250000
    1350.0003     66.734680     64.640030   -999.250000   -999.250000
    1349.9003     63.277649     64.375656   -999.250000   -999.250000
    1349.8003     59.689285     64.015289   -999.250000   -999.250000
    1349.7003     55.878014     63.461479   -999.250000   -999.250000
    1349.6003     52.377441     62.374603   -999.250000   -999.250000
    1349.5003     49.425987     60.956306   -999.250000   -999.250000
    1349.4003     47.753624     59.772964   -999.250000   -999.250000
    1349.3003     47.223457     58.887375   -999.250000   -999.250000
    1349.2003     47.290474     57.982201   -999.250000   -999.250000
    1349.1003     48.177551     56.782143   -999.250000   -999.250000
    1349.0003     49.636536     55.714668   -999.250000   -999.250000
    1348.9003     51.211655     55.251434   -999.250000   -999.250000
    1348.8003     53.196548     55.299515   -999.250000   -999.250000
    1348.7003     55.926987     55.529907   -999.250000   -999.250000
    1348.6003     59.311256     55.715385   -999.250000   -999.250000
    1348.5003     63.119232     56.017548   -999.250000   -999.250000
    1348.4003     67.221588     56.992981   -999.250000   -999.250000
    1348.3003     71.650955     58.821449   -999.250000   -999.250000
    1348.2003     75.865936     61.135544   -999.250000   -999.250000
    1348.1003     79.578720     65.284637   -999.250000   -999.250000
    1348.0003     82.937653     71.143326   -999.250000   -999.250000
    1347.9003     84.694611     73.442902   -999.250000   -999.250000
    1347.8003     84.341660     71.392380   -999.250000   -999.250000
    1347.7003     83.102539     70.031082   -999.250000   -999.250000
    1347.6003     81.721054     69.646164   -999.250000   -999.250000
    1347.5003     81.071960     68.873764   -999.250000   -999.250000
    1347.4003     81.631851     67.441315   -999.250000   -999.250000
    1347.3003     84.339905     65.543076   -999.250000   -999.250000
    1347.2003     89.155014     63.663132   -999.250000   -999.250000
    1347.1003     94.970444     62.274979   -999.250000   -999.250000
    1347.0003    101.003021     61.503998   -999.250000   -999.250000
    1346.9003    105.892090     61.489082   -999.250000   -999.250000
    1346.8003    108.297424     62.289093   -999.250000   -999.250000
    1346.7003    106.445084     63.866669   -999.250000   -999.250000
    1346.6003    100.674484     66.240524   -999.250000   -999.250000
    1346.5003     93.144943     69.443527   -999.250000   -999.250000
    1346.4003     84.583221     72.647736   -999.250000   -999.250000
    1346.3003     74.485199     74.515823   -999.250000   -999.250000
    1346.2003     64.409378     74.629761   -999.250000   -999.250000
    1346.1003     56.476509     73.289963   -999.250000   -999.250000
    1346.0003     51.007408     71.208542   -999.250000   -999.250000
