# LAS format data
~Version Information
VERS.     2.00: CWLS LOG ASCII STANDARD - VERSION 2.0
WRAP.       NO: ONE LINE PER DEPTH STEP
~Well Information
#MNEM   .UNITS    DATA                           DESCRIPTION
#----   ------    ----                           -----------
STRT    .M        2196.9004                     :First Index Value
STOP    .M        40.1002                       :Last Index Value
STEP    .M        -0.1000                       :Frame Spacing
NULL    .         -999.2500                     :Absent Value
WELL    .         EVERDINGEN-01                 :Well Name   
FLD     .         UNKNOWN                       :Field Name  
CNTY    .                                       :County
STAT    .                                       :State
CTRY    .                                       :Country
LOC     .                                       :Location
API     .                                       :API Number
DATE    .                                       :Date
COMP    .         NAM                           :Company Name
SRVC    .                                       :Service Company
~Parameter Information
#MNEM   .UNITS    VALUE                          DESCRIPTION
#----   ------    -----                          -----------
TDD     .M        2197.50000                    :Total Depth (Driller)   
UBID    .         1308                          :Unique Borehole Id  
PDAT    .         Mean Sea Level                :Permanent Datum 
EPD     .M           0.00000                    :Elevation of Permanent Datum (PDAT) above Mean Sea Level
LMF     .                                       :Logging Measured From (Name of Logging Elevation Reference) 
APD     .M           6.32000                    :Elevation of Depth Reference (LMF) Above Permanent Datum
~Curve Information
#MNEM   .UNITS    API CODE                       CURVE DESCRIPTION
#----   ------    --------                       -----------------
DEPT    .M                                      :1     Index curve
GR      .GAPI                                   :2     SNAM  
DT      .US/F                                   :3     SNAM  
RHOB    .G/C3                                   :4     SNAM  
DRHO    .G/C3                                   :5     SNAM  
~Ascii Log Data
# ...
     506.4002     50.035873    160.834747   -999.250000   -999.250000
     506.3002     50.623901    161.068939   -999.250000   -999.250000
     506.2002     50.994049    161.518982   -999.250000   -999.250000
     506.1002     50.909340    162.043762   -999.250000   -999.250000
     506.0002     50.471359    162.506622   -999.250000   -999.250000
     505.9002     49.884880    162.662842   -999.250000   -999.250000
     505.8002     49.383476    162.400146   -999.250000   -999.250000
     505.7002     49.012871    161.902466   -999.250000   -999.250000
     505.6002     48.746407    161.794189   -999.250000   -999.250000
     505.5002     48.527168    162.074677   -999.250000   -999.250000
     505.4002     48.378616    162.110382   -999.250000   -999.250000
     505.3002     48.413765    161.877655   -999.250000   -999.250000
     505.2002     48.667206    161.807159   -999.250000   -999.250000
     505.1002     49.094955    162.181305   -999.250000   -999.250000
     505.0002     49.467018    162.474426   -999.250000   -999.250000
     504.9002     49.541901    162.144836   -999.250000   -999.250000
     504.8002     49.298141    161.410614   -999.250000   -999.250000
     504.7002     48.758209    160.605591   -999.250000   -999.250000
     504.6002     48.119141    159.935974   -999.250000   -999.250000
     504.5002     47.623337    159.348846   -999.250000   -999.250000
     504.4002     47.551544    158.711456   -999.250000   -999.250000
     504.3002     47.930557    158.052429   -999.250000   -999.250000
     504.2002     48.703674    157.705780   -999.250000   -999.250000
     504.1002     49.734604    157.590302   -999.250000   -999.250000
     504.0002     50.857536    157.268097   -999.250000   -999.250000
     503.9002     52.199348    156.739807   -999.250000   -999.250000
     503.8002     53.556267    156.392914   -999.250000   -999.250000
     503.7002     54.320099    156.625763   -999.250000   -999.250000
     503.6002     54.095627    157.197815   -999.250000   -999.250000
     503.5002     52.840569    157.876892   -999.250000   -999.250000
     503.4002     51.251358    158.605255   -999.250000   -999.250000
     503.3002     49.135429    159.317078   -999.250000   -999.250000
     503.2002     46.673775    159.907135   -999.250000   -999.250000
     503.1002     44.780830    160.273346   -999.250000   -999.250000
     503.0002     43.899300    160.420410   -999.250000   -999.250000
     502.9002     43.960594    160.274902   -999.250000   -999.250000
     502.8002     44.184692    159.694916   -999.250000   -999.250000
     502.7002     44.802139    158.645874   -999.250000   -999.250000
     502.6002     46.076324    157.246490   -999.250000   -999.250000
     502.5002     47.575500    155.925568   -999.250000   -999.250000
     502.4002     49.071938    154.851532   -999.250000   -999.250000
     502.3002     50.146019    154.141113   -999.250000   -999.250000
     502.2002     50.323357    153.881775   -999.250000   -999.250000
     502.1002     49.634140    153.912476   -999.250000   -999.250000
     502.0002     48.715927    153.932922   -999.250000   -999.250000
     501.9002     47.687080    153.783142   -999.250000   -999.250000
     501.8002     46.708008    153.701813   -999.250000   -999.250000
     501.7002     45.963058    153.845490   -999.250000   -999.250000
     501.6002     45.374397    153.823730   -999.250000   -999.250000
     501.5002     45.070908    153.884552   -999.250000   -999.250000
     501.4002     45.173996    154.685059   -999.250000   -999.250000
     501.3002     45.582573    156.440826   -999.250000   -999.250000
     501.2002     46.217995    158.746735   -999.250000   -999.250000
     501.1002     46.960022    160.567047   -999.250000   -999.250000
     501.0002     47.707169    161.059479   -999.250000   -999.250000
     500.9002     48.429474    160.370605   -999.250000   -999.250000
     500.8002     49.197235    159.081390   -999.250000   -999.250000
     500.7002     49.725075    156.715607   -999.250000   -999.250000
     500.6002     49.850571    153.875549   -999.250000   -999.250000
     500.5002     49.717224    152.036438   -999.250000   -999.250000
     500.4002     49.462158    152.092590   -999.250000   -999.250000
     500.3002     49.345047    153.565277   -999.250000   -999.250000
     500.2002     49.515785    155.062897   -999.250000   -999.250000
     500.1002     49.896881    155.943512   -999.250000   -999.250000
     500.0002     50.223091    157.067963   -999.250000   -999.250000
     499.9002     50.280373    159.299347   -999.250000   -999.250000
     499.8002     50.277016    161.938354   -999.250000   -999.250000
     499.7002     50.459694    164.307587   -999.250000   -999.250000
     499.6002     50.937645    166.221558   -999.250000   -999.250000
     499.5002     51.361389    166.936401   -999.250000   -999.250000
     499.4002     51.433281    166.459534   -999.250000   -999.250000
     499.3002     50.980011    165.441620   -999.250000   -999.250000
     499.2002     50.208366    163.774811   -999.250000   -999.250000
     499.1002     49.586990    161.746521   -999.250000   -999.250000
     499.0002     49.686676    159.966034   -999.250000   -999.250000
     498.9002     50.347809    159.362518   -999.250000   -999.250000
     498.8002     51.159988    159.864899   -999.250000   -999.250000
     498.7002     51.822937    160.763794   -999.250000   -999.250000
     498.6002     51.985191    161.623596   -999.250000   -999.250000
     498.5002     51.643272    162.307831   -999.250000   -999.250000
     498.4002     50.811996    162.841492   -999.250000   -999.250000
     498.3002     49.766144    163.066040   -999.250000   -999.250000
     498.2002     48.732964    162.913849   -999.250000   -999.250000
     498.1002     47.845665    162.403168   -999.250000   -999.250000
     498.0002     47.197128    161.615265   -999.250000   -999.250000
     497.9002     46.824043    160.727234   -999.250000   -999.250000
     497.8002     47.232353    159.854675   -999.250000   -999.250000
     497.7002     48.380356    159.057861   -999.250000   -999.250000
     497.6002     50.059723    158.387421   -999.250000   -999.250000
     497.5002     51.887299    158.001038   -999.250000   -999.250000
     497.4002     53.660316    157.892548   -999.250000   -999.250000
     497.3002     55.408218    157.922546   -999.250000   -999.250000
     497.2002     56.797653    157.998505   -999.250000   -999.250000
     497.1002     57.825211    158.090027   -999.250000   -999.250000
     497.0002     58.615150    158.191650   -999.250000   -999.250000
     496.9002     58.701752    158.297516   -999.250000   -999.250000
     496.8002     58.457100    158.389801   -999.250000   -999.250000
     496.7002     58.362747    158.470856   -999.250000   -999.250000
     496.6002     57.920036    158.584351   -999.250000   -999.250000
     496.5002     57.266144    158.768402   -999.250000   -999.250000
     496.4002     56.899765    159.019348   -999.250000   -999.250000
     496.3002     56.981049    159.295898   -999.250000   -999.250000
     496.2002     57.259895    159.519501   -999.250000   -999.250000
     496.1002     57.447098    159.635254   -999.250000   -999.250000
     496.0002     57.314957    159.635559   -999.250000   -999.250000
     495.9002     56.805168    159.536407   -999.250000   -999.250000
     495.8002     55.774353    159.358551   -999.250000   -999.250000
     495.7002     54.900917    159.210968   -999.250000   -999.250000
     495.6002     54.661209    159.199066   -999.250000   -999.250000
     495.5002     55.109596    159.341492   -999.250000   -999.250000
     495.4002     55.981216    159.638092   -999.250000   -999.250000
     495.3002     56.759415    159.988281   -999.250000   -999.250000
     495.2002     56.702118    160.255829   -999.250000   -999.250000
     495.1002     55.962715    160.387390   -999.250000   -999.250000
     495.0002     55.193932    160.484497   -999.250000   -999.250000
