# LAS format data
~Version Information
VERS.     2.00: CWLS LOG ASCII STANDARD - VERSION 2.0
WRAP.       NO: ONE LINE PER DEPTH STEP
~Well Information
#MNEM   .UNITS    DATA                           DESCRIPTION
#----   ------    ----                           -----------
STRT    .M        2196.9004                     :First Index Value
STOP    .M        40.1002                       :Last Index Value
STEP    .M        -0.1000                       :Frame Spacing
NULL    .         -999.2500                     :Absent Value
WELL    .         EVERDINGEN-01                 :Well Name   
FLD     .         UNKNOWN                       :Field Name  
CNTY    .                                       :County
STAT    .                                       :State
CTRY    .                                       :Country
LOC     .                                       :Location
API     .                                       :API Number
DATE    .                                       :Date
COMP    .         NAM                           :Company Name
SRVC    .                                       :Service Company
~Parameter Information
#MNEM   .UNITS    VALUE                          DESCRIPTION
#----   ------    -----                          -----------
TDD     .M        2197.50000                    :Total Depth (Driller)   
UBID    .         1308                          :Unique Borehole Id  
PDAT    .         Mean Sea Level                :Permanent Datum 
EPD     .M           0.00000                    :Elevation of Permanent Datum (PDAT) above Mean Sea Level
LMF     .                                       :Logging Measured From (Name of Logging Elevation Reference) 
APD     .M           6.32000                    :Elevation of Depth Reference (LMF) Above Permanent Datum
~Curve Information
#MNEM   .UNITS    API CODE                       CURVE DESCRIPTION
#----   ------    --------                       -----------------
DEPT    .M                                      :1     Index curve
GR      .GAPI                                   :2     SNAM  
DT      .US/F                                   :3     SNAM  
RHOB    .G/C3                                   :4     SNAM  
DRHO    .G/C3                                   :5     SNAM  
~Ascii Log Data
# ...
    2185.4004    111.305099     78.072525   -999.250000   -999.250000
    2185.3004    112.196548     80.502701   -999.250000   -999.250000
    2185.2004    112.350861     82.511871   -999.250000   -999.250000
    2185.1004    111.673904     84.709488   -999.250000   -999.250000
    2185.0004    110.804382     88.161743   -999.250000   -999.250000
    2184.9004    110.019730     92.883392   -999.250000   -999.250000
    2184.8004    109.315994     95.730942   -999.250000   -999.250000
    2184.7004    108.843109     92.528641   -999.250000   -999.250000
    2184.6004    108.575241     87.312790   -999.250000   -999.250000
    2184.5004    108.421616     83.583328   -999.250000   -999.250000
    2184.4004    108.469070     80.782425   -999.250000   -999.250000
    2184.3004    108.696045     78.555496   -999.250000   -999.250000
    2184.2004    109.062241     77.058258   -999.250000   -999.250000
    2184.1004    109.615448     76.703735   -999.250000   -999.250000
    2184.0004    110.251526     77.432205   -999.250000   -999.250000
    2183.9004    110.881317     78.775192   -999.250000   -999.250000
    2183.8004    109.277344     80.311493   -999.250000   -999.250000
    2183.7004    105.447876     82.305679   -999.250000   -999.250000
    2183.6004     99.928528     84.894348   -999.250000   -999.250000
    2183.5004     94.394867     87.874573   -999.250000   -999.250000
    2183.4004     89.917847     92.210159   -999.250000   -999.250000
    2183.3004     87.353592     98.160782   -999.250000   -999.250000
    2183.2004     88.398849    104.324051   -999.250000   -999.250000
    2183.1004     91.989700    108.617325   -999.250000   -999.250000
    2183.0004     96.761215    110.149200   -999.250000   -999.250000
    2182.9004    101.507324    109.063843   -999.250000   -999.250000
    2182.8004    105.409256    104.053009   -999.250000   -999.250000
    2182.7004    107.636017     94.950150   -999.250000   -999.250000
    2182.6004    108.033737     86.490021   -999.250000   -999.250000
    2182.5004    107.199631     81.054214   -999.250000   -999.250000
    2182.4004    105.535110     77.516312   -999.250000   -999.250000
    2182.3004    103.119736     74.672516   -999.250000   -999.250000
    2182.2004    100.310928     72.374695   -999.250000   -999.250000
    2182.1004     97.825745     70.810333   -999.250000   -999.250000
    2182.0004     96.320923     70.015869   -999.250000   -999.250000
    2181.9004     95.832962     69.693634   -999.250000   -999.250000
    2181.8004     96.547836     69.545807   -999.250000   -999.250000
    2181.7004     98.001801     69.455658   -999.250000   -999.250000
    2181.6004     99.482620     69.380630   -999.250000   -999.250000
    2181.5004    100.383118     69.307938   -999.250000   -999.250000
    2181.4004    100.280609     69.230606   -999.250000   -999.250000
    2181.3004     99.316162     69.142792   -999.250000   -999.250000
    2181.2004     97.370544     69.047318   -999.250000   -999.250000
    2181.1004     95.250443     68.934982   -999.250000   -999.250000
    2181.0004     93.877869     68.797928   -999.250000   -999.250000
    2180.9004     93.798782     68.632126   -999.250000   -999.250000
    2180.8004     94.546509     68.405716   -999.250000   -999.250000
    2180.7004     95.042419     67.807312   -999.250000   -999.250000
    2180.6004     95.357056     66.090347   -999.250000   -999.250000
    2180.5004     95.893509     63.649399   -999.250000   -999.250000
    2180.4004     97.031067     61.941895   -999.250000   -999.250000
    2180.3004     98.232590     62.087250   -999.250000   -999.250000
    2180.2004     98.914474     63.924873   -999.250000   -999.250000
    2180.1004     99.265076     65.983398   -999.250000   -999.250000
    2180.0004     99.274445     67.525986   -999.250000   -999.250000
    2179.9004     99.115051     68.545639   -999.250000   -999.250000
    2179.8004     99.005814     69.344742   -999.250000   -999.250000
    2179.7004     99.010178     69.999527   -999.250000   -999.250000
    2179.6004     99.007339     70.481461   -999.250000   -999.250000
    2179.5004     98.708557     70.805420   -999.250000   -999.250000
    2179.4004     97.869400     70.925064   -999.250000   -999.250000
    2179.3004     96.849701     70.793137   -999.250000   -999.250000
    2179.2004     96.867752     70.541367   -999.250000   -999.250000
    2179.1004     98.246872     70.574265   -999.250000   -999.250000
    2179.0004    100.172165     71.608337   -999.250000   -999.250000
    2178.9004    102.579651     73.960434   -999.250000   -999.250000
    2178.8004    105.257660     76.796661   -999.250000   -999.250000
    2178.7004    107.298645     79.032089   -999.250000   -999.250000
    2178.6004    106.705841     80.822083   -999.250000   -999.250000
    2178.5004    101.965958     82.402298   -999.250000   -999.250000
    2178.4004     94.782196     83.710159   -999.250000   -999.250000
    2178.3004     88.052109     84.541885   -999.250000   -999.250000
    2178.2004     84.941422     85.461395   -999.250000   -999.250000
    2178.1004     85.901840     87.201920   -999.250000   -999.250000
    2178.0004     89.421371     89.056274   -999.250000   -999.250000
    2177.9004     93.672989     90.452866   -999.250000   -999.250000
    2177.8004     97.683334     91.094879   -999.250000   -999.250000
    2177.7004    101.473328     90.592056   -999.250000   -999.250000
    2177.6004    104.991730     87.738037   -999.250000   -999.250000
    2177.5004    108.051743     82.521317   -999.250000   -999.250000
    2177.4004    110.382431     78.345779   -999.250000   -999.250000
    2177.3004    111.919098     76.885590   -999.250000   -999.250000
    2177.2004    113.224716     76.349121   -999.250000   -999.250000
    2177.1004    113.846619     76.094910   -999.250000   -999.250000
    2177.0004    113.474091     76.189163   -999.250000   -999.250000
    2176.9004    112.533798     76.497940   -999.250000   -999.250000
    2176.8004    111.473251     76.727844   -999.250000   -999.250000
    2176.7004    110.820587     76.563797   -999.250000   -999.250000
    2176.6004    110.595856     75.925735   -999.250000   -999.250000
    2176.5004    110.958847     74.953888   -999.250000   -999.250000
    2176.4004    111.675674     73.930191   -999.250000   -999.250000
    2176.3004    112.191574     73.150391   -999.250000   -999.250000
    2176.2004    112.003357     72.738663   -999.250000   -999.250000
    2176.1004    111.097519     72.658752   -999.250000   -999.250000
    2176.0004    109.818069     72.758560   -999.250000   -999.250000
    2175.9004    108.479324     72.871582   -999.250000   -999.250000
    2175.8004    107.431030     73.004761   -999.250000   -999.250000
    2175.7004    107.536148     73.312195   -999.250000   -999.250000
    2175.6004    108.342804     73.798340   -999.250000   -999.250000
    2175.5004    108.928375     74.450790   -999.250000   -999.250000
    2175.4004    109.192398     75.315750   -999.250000   -999.250000
    2175.3004    108.962204     76.310989   -999.250000   -999.250000
    2175.2004    108.285736     77.100906   -999.250000   -999.250000
    2175.1004    107.709335     77.295593   -999.250000   -999.250000
    2175.0004    107.411163     76.875076   -999.250000   -999.250000
    2174.9004    107.274658     76.160339   -999.250000   -999.250000
    2174.8004    107.197479     75.421051   -999.250000   -999.250000
    2174.7004    106.864410     75.519669   -999.250000   -999.250000
    2174.6004    106.101913     76.680298   -999.250000   -999.250000
    2174.5004    104.296951     78.376068   -999.250000   -999.250000
    2174.4004    101.965714     80.270645   -999.250000   -999.250000
    2174.3004     99.792679     82.026260   -999.250000   -999.250000
    2174.2004    100.726318     83.136856   -999.250000   -999.250000
    2174.1004    104.581802     83.175980   -999.250000   -999.250000
    2174.0004    110.456528     82.380356   -999.250000   -999.250000
