# LAS format data
~Version Information
VERS.     2.00: CWLS LOG ASCII STANDARD - VERSION 2.0
WRAP.       NO: ONE LINE PER DEPTH STEP
~Well Information
#MNEM   .UNITS    DATA                           DESCRIPTION
#----   ------    ----                           -----------
STRT    .M        2196.9004                     :First Index Value
STOP    .M        40.1002                       :Last Index Value
STEP    .M        -0.1000                       :Frame Spacing
NULL    .         -999.2500                     :Absent Value
WELL    .         EVERDINGEN-01                 :Well Name   
FLD     .         UNKNOWN                       :Field Name  
CNTY    .                                       :County
STAT    .                                       :State
CTRY    .                                       :Country
LOC     .                                       :Location
API     .                                       :API Number
DATE    .                                       :Date
COMP    .         NAM                           :Company Name
SRVC    .                                       :Service Company
~Parameter Information
#MNEM   .UNITS    VALUE                          DESCRIPTION
#----   ------    -----                          -----------
TDD     .M        2197.50000                    :Total Depth (Driller)   
UBID    .         1308                          :Unique Borehole Id  
PDAT    .         Mean Sea Level                :Permanent Datum 
EPD     .M           0.00000                    :Elevation of Permanent Datum (PDAT) above Mean Sea Level
LMF     .                                       :Logging Measured From (Name of Logging Elevation Reference) 
APD     .M           6.32000                    :Elevation of Depth Reference (LMF) Above Permanent Datum
~Curve Information
#MNEM   .UNITS    API CODE                       CURVE DESCRIPTION
#----   ------    --------                       -----------------
DEPT    .M                                      :1     Index curve
GR      .GAPI                                   :2     SNAM  
DT      .US/F                                   :3     SNAM  
RHOB    .G/C3                                   :4     SNAM  
DRHO    .G/C3                                   :5     SNAM  
~Ascii Log Data
# ...
    1771.4003     26.672234     44.548599      2.790026     -0.021318
    1771.3003     27.533066     44.426086      2.788476     -0.015719
    1771.2003     28.134537     44.652969      2.783868     -0.008027
    1771.1003     28.097755     44.988754      2.777953     -0.005996
    1771.0003     27.566727     45.324036      2.771445     -0.014172
    1770.9003     26.870991     45.588516      2.766730     -0.025235
    1770.8003     26.544907     45.681656      2.769727     -0.031671
    1770.7003     26.772652     45.505890      2.781765     -0.035058
    1770.6003     27.414555     45.110603      2.797074     -0.037892
    1770.5003     28.394657     44.605705      2.810791     -0.038130
    1770.4003     29.364876     44.185753      2.817469     -0.035196
    1770.3003     30.033401     43.945175      2.813671     -0.031117
    1770.2003     29.904362     43.849602      2.803131     -0.029078
    1770.1003     29.089470     43.886200      2.792016     -0.029039
    1770.0003     28.106461     44.045532      2.782712     -0.028871
    1769.9003     27.022167     44.282776      2.774217     -0.027405
    1769.8003     25.865883     44.498383      2.766903     -0.024136
    1769.7003     24.594418     44.599464      2.764316     -0.021505
    1769.6003     23.139584     44.455177      2.767410     -0.025308
    1769.5003     21.605755     44.154167      2.771055     -0.032944
    1769.4003     20.203590     44.002480      2.767916     -0.036251
    1769.3003     19.127735     44.169357      2.757781     -0.034110
    1769.2003     18.427601     44.610352      2.747320     -0.031036
    1769.1003     18.114410     45.095459      2.741613     -0.031633
    1769.0003     18.122906     45.512466      2.742486     -0.032231
    1768.9003     18.210804     45.843864      2.749771     -0.032114
    1768.8003     18.385067     46.084145      2.763844     -0.032109
    1768.7003     18.595566     46.156059      2.779895     -0.032226
    1768.6003     18.718109     46.060966      2.788618     -0.032745
    1768.5003     18.620949     45.992943      2.782499     -0.033586
    1768.4003     18.238888     46.090233      2.763897     -0.034037
    1768.3003     17.751087     46.377411      2.743577     -0.034055
    1768.2003     17.291969     46.710747      2.731431     -0.034075
    1768.1003     16.965363     46.918060      2.727880     -0.034334
    1768.0003     16.693810     46.880943      2.726500     -0.035549
    1767.9003     16.445976     46.703964      2.724223     -0.037347
    1767.8003     16.177307     46.471611      2.721643     -0.036416
    1767.7003     15.910881     46.238762      2.720263     -0.031618
    1767.6003     15.754471     46.089348      2.721477     -0.027725
    1767.5003     15.824980     46.131119      2.725506     -0.026763
    1767.4003     16.088093     46.405556      2.731023     -0.025807
    1767.3003     16.560608     46.771980      2.734984     -0.024864
    1767.2003     17.150967     47.105293      2.734256     -0.023995
    1767.1003     17.671005     47.320992      2.727845     -0.023488
    1767.0003     18.072468     47.358528      2.719004     -0.023657
    1766.9003     18.367691     47.233482      2.712359     -0.024276
    1766.8003     18.555473     47.107231      2.709768     -0.024877
    1766.7003     18.586418     47.049171      2.709743     -0.025480
    1766.6003     18.413597     47.084496      2.709239     -0.026117
    1766.5003     17.951080     47.210220      2.707504     -0.026819
    1766.4003     17.116196     47.400520      2.707086     -0.027503
    1766.3003     16.153545     47.610512      2.709621     -0.027818
    1766.2003     15.540640     47.797501      2.711234     -0.027659
    1766.1003     15.375935     47.934013      2.709853     -0.027381
    1766.0003     15.342302     47.999443      2.709268     -0.027148
    1765.9003     15.385473     48.008720      2.715086     -0.027048
    1765.8003     15.453398     47.968445      2.726832     -0.027052
    1765.7003     15.504017     47.903122      2.740343     -0.027053
    1765.6003     15.551613     47.858757      2.754869     -0.027055
    1765.5003     15.580746     47.847954      2.768442     -0.027056
    1765.4003     15.567625     47.866402      2.781278     -0.027055
    1765.3003     15.505659     47.914452      2.798129     -0.027025
    1765.2003     15.361382     47.977417      2.817711     -0.026808
    1765.1003     15.118010     47.965752      2.835797     -0.026306
    1765.0003     14.886587     47.744751      2.854256     -0.025768
    1764.9003     15.388155     47.415337      2.871362     -0.025983
    1764.8003     17.227394     47.139641      2.879240     -0.028020
    1764.7003     21.288403     46.882484      2.875026     -0.031064
    1764.6003     27.836826     46.562866      2.860431     -0.034093
    1764.5003     36.615547     46.166061      2.839467     -0.037157
    1764.4003     47.107941     45.731049      2.819348     -0.040200
    1764.3003     58.152176     45.357567      2.800852     -0.042933
    1764.2003     68.969162     45.139336      2.783151     -0.042949
    1764.1003     77.357910     45.168610      2.773014     -0.040231
    1764.0003     83.502884     45.423500      2.772377     -0.036743
    1763.9003     88.311172     45.824692      2.776450     -0.033245
    1763.8003     91.280762     46.478233      2.782894     -0.028804
    1763.7003     92.674957     47.675529      2.789811     -0.015858
    1763.6003     92.644684     49.454651      2.793341      0.006570
    1763.5003     92.374954     51.701843      2.791126      0.014282
    1763.4003     92.610733     54.214043      2.782879      0.003847
    1763.3003     93.550323     56.779572      2.771339     -0.008980
    1763.2003     95.001114     59.481308      2.759390     -0.010629
    1763.1003     96.679688     61.899422      2.749328     -0.009300
    1763.0003     98.613480     63.692451      2.742115     -0.012188
    1762.9003    100.579330     64.738480      2.737952     -0.017113
    1762.8003    102.334473     64.973633      2.737351     -0.022078
    1762.7003    103.523392     64.416382      2.739541     -0.025254
    1762.6003    103.747070     63.431747      2.741414     -0.019495
    1762.5003    103.120224     62.825684      2.741422     -0.008712
    1762.4003    101.970810     63.176254      2.741358     -0.000434
    1762.3003    100.646957     64.186142      2.742332     -0.001166
    1762.2003     99.343338     65.358368      2.742076     -0.005938
    1762.1003     98.468536     66.549179      2.737135     -0.011079
    1762.0003     97.945663     67.557098      2.729406     -0.016149
    1761.9003     97.595581     68.249405      2.724324     -0.020706
    1761.8003     97.766495     68.524033      2.725370     -0.020999
    1761.7003     98.458679     68.432587      2.727618     -0.017824
    1761.6003     99.582016     68.112946      2.726645     -0.013583
    1761.5003    101.089539     67.613724      2.726799     -0.010028
    1761.4003    102.731216     66.882935      2.731138     -0.013117
    1761.3003    104.393845     65.983917      2.739398     -0.018653
    1761.2003    106.141266     65.125000      2.750372     -0.016697
    1761.1003    107.989548     64.779724      2.757458     -0.010508
    1761.0003    109.915894     65.034576      2.755898     -0.008735
    1760.9003    111.611023     65.429153      2.755094     -0.010191
    1760.8003    112.711517     65.879486      2.757646     -0.012113
    1760.7003    112.704773     66.485535      2.756919     -0.012948
    1760.6003    111.520386     67.108810      2.751963     -0.001313
    1760.5003    109.707779     67.608139      2.744058     -0.001935
    1760.4003    107.715683     67.977188      2.734231     -0.006074
    1760.3003    105.800995     68.352722      2.724927      0.000467
    1760.2003    103.956955     68.829178      2.717468      0.010660
    1760.1003    102.028091     69.356583      2.711604      0.010893
    1760.0003     99.709930     69.707214      2.707274      0.002421
