# LAS format data
~Version Information
VERS.     2.00: CWLS LOG ASCII STANDARD - VERSION 2.0
WRAP.       NO: ONE LINE PER DEPTH STEP
~Well Information
#MNEM   .UNITS    DATA                           DESCRIPTION
#----   ------    ----                           -----------
STRT    .M        2196.9004                     :First Index Value
STOP    .M        40.1002                       :Last Index Value
STEP    .M        -0.1000                       :Frame Spacing
NULL    .         -999.2500                     :Absent Value
WELL    .         EVERDINGEN-01                 :Well Name   
FLD     .         UNKNOWN                       :Field Name  
CNTY    .                                       :County
STAT    .                                       :State
CTRY    .                                       :Country
LOC     .                                       :Location
API     .                                       :API Number
DATE    .                                       :Date
COMP    .         NAM                           :Company Name
SRVC    .                                       :Service Company
~Parameter Information
#MNEM   .UNITS    VALUE                          DESCRIPTION
#----   ------    -----                          -----------
TDD     .M        2197.50000                    :Total Depth (Driller)   
UBID    .         1308                          :Unique Borehole Id  
PDAT    .         Mean Sea Level                :Permanent Datum 
EPD     .M           0.00000                    :Elevation of Permanent Datum (PDAT) above Mean Sea Level
LMF     .                                       :Logging Measured From (Name of Logging Elevation Reference) 
APD     .M           6.32000                    :Elevation of Depth Reference (LMF) Above Permanent Datum
~Curve Information
#MNEM   .UNITS    API CODE                       CURVE DESCRIPTION
#----   ------    --------                       -----------------
DEPT    .M                                      :1     Index curve
GR      .GAPI                                   :2     SNAM  
DT      .US/F                                   :3     SNAM  
RHOB    .G/C3                                   :4     SNAM  
DRHO    .G/C3                                   :5     SNAM  
~Ascii Log Data
# ...
     195.9002     21.816303    166.525085   -999.250000   -999.250000
     195.8002     21.827953    167.479492   -999.250000   -999.250000
     195.7002     21.883308    168.278198   -999.250000   -999.250000
     195.6002     21.994488    168.888885   -999.250000   -999.250000
     195.5002     22.155354    169.197968   -999.250000   -999.250000
     195.4002     22.344162    169.148438   -999.250000   -999.250000
     195.3002     22.529198    168.854095   -999.250000   -999.250000
     195.2002     22.641365    168.540344   -999.250000   -999.250000
     195.1002     22.595863    168.305420   -999.250000   -999.250000
     195.0002     22.395233    167.987640   -999.250000   -999.250000
     194.9002     22.172031    167.379883   -999.250000   -999.250000
     194.8002     22.083118    166.591156   -999.250000   -999.250000
     194.7002     22.127766    165.972717   -999.250000   -999.250000
     194.6002     22.210556    165.638428   -999.250000   -999.250000
     194.5002     22.291008    165.358887   -999.250000   -999.250000
     194.4002     22.375183    164.919617   -999.250000   -999.250000
     194.3002     22.481579    164.273315   -999.250000   -999.250000
     194.2002     22.625912    163.466644   -999.250000   -999.250000
     194.1002     22.806782    162.569061   -999.250000   -999.250000
     194.0002     23.012337    161.690338   -999.250000   -999.250000
     193.9002     23.267120    160.929657   -999.250000   -999.250000
     193.8002     23.569206    160.362701   -999.250000   -999.250000
     193.7002     23.890476    160.451904   -999.250000   -999.250000
     193.6002     24.219200    162.322144   -999.250000   -999.250000
     193.5002     24.587990    167.180939   -999.250000   -999.250000
     193.4002     25.005207    173.684326   -999.250000   -999.250000
     193.3002     25.446857    178.257294   -999.250000   -999.250000
     193.2002     25.854065    178.181793   -999.250000   -999.250000
     193.1002     26.192596    174.388184   -999.250000   -999.250000
     193.0002     26.511024    169.880859   -999.250000   -999.250000
     192.9002     26.824059    166.781799   -999.250000   -999.250000
     192.8002     27.131615    165.444824   -999.250000   -999.250000
     192.7002     27.430603    165.710785   -999.250000   -999.250000
     192.6002     27.707935    167.229645   -999.250000   -999.250000
     192.5002     27.961826    169.393433   -999.250000   -999.250000
     192.4002     28.180237    171.256622   -999.250000   -999.250000
     192.3002     28.350922    171.833771   -999.250000   -999.250000
     192.2002     28.462822    170.923676   -999.250000   -999.250000
     192.1002     28.514946    169.020905   -999.250000   -999.250000
     192.0002     28.611439    166.616272   -999.250000   -999.250000
     191.9002     28.898190    163.935120   -999.250000   -999.250000
     191.8002     29.515690    161.671295   -999.250000   -999.250000
     191.7002     30.373856    160.920410   -999.250000   -999.250000
     191.6002     31.354214    162.651947   -999.250000   -999.250000
     191.5002     33.028625    167.092468   -999.250000   -999.250000
     191.4002     35.358704    172.846191   -999.250000   -999.250000
     191.3002     37.910919    177.956055   -999.250000   -999.250000
     191.2002     40.740440    181.333649   -999.250000   -999.250000
     191.1002     43.730736    182.834442   -999.250000   -999.250000
     191.0002     46.022514    182.442444   -999.250000   -999.250000
     190.9002     47.894585    180.548767   -999.250000   -999.250000
     190.8002     49.718491    178.070801   -999.250000   -999.250000
     190.7002     51.207901    176.010040   -999.250000   -999.250000
     190.6002     52.373253    174.872742   -999.250000   -999.250000
     190.5002     53.324501    175.013824   -999.250000   -999.250000
     190.4002     53.802780    176.652008   -999.250000   -999.250000
     190.3002     53.638527    179.427673   -999.250000   -999.250000
     190.2002     52.877968    182.483826   -999.250000   -999.250000
     190.1002     51.221474    185.306122   -999.250000   -999.250000
     190.0002     48.838364    188.293976   -999.250000   -999.250000
     189.9002     46.162079    191.985718   -999.250000   -999.250000
     189.8002     41.210464    196.034180   -999.250000   -999.250000
     189.7002     35.311546    198.255157   -999.250000   -999.250000
     189.6002     31.453327    197.086945   -999.250000   -999.250000
     189.5002     28.980598    193.902557   -999.250000   -999.250000
     189.4002     27.268902    191.433044   -999.250000   -999.250000
     189.3002     26.270252    191.171387   -999.250000   -999.250000
     189.2002     25.718636    192.325104   -999.250000   -999.250000
     189.1002     25.281300    192.950897   -999.250000   -999.250000
     189.0002     24.930187    191.709290   -999.250000   -999.250000
     188.9002     24.676865    188.740448   -999.250000   -999.250000
     188.8002     24.487915    184.928131   -999.250000   -999.250000
     188.7002     24.298985    180.962006   -999.250000   -999.250000
     188.6002     24.089989    177.528290   -999.250000   -999.250000
     188.5002     23.846756    175.156067   -999.250000   -999.250000
     188.4002     23.528397    173.450378   -999.250000   -999.250000
     188.3002     23.114956    171.581512   -999.250000   -999.250000
     188.2002     22.647488    169.154907   -999.250000   -999.250000
     188.1002     22.175133    166.577057   -999.250000   -999.250000
     188.0002     21.800617    164.614471   -999.250000   -999.250000
     187.9002     21.582256    163.493530   -999.250000   -999.250000
     187.8002     21.477894    162.870392   -999.250000   -999.250000
     187.7002     21.521862    162.430725   -999.250000   -999.250000
     187.6002     21.741924    162.178741   -999.250000   -999.250000
     187.5002     22.161636    162.349823   -999.250000   -999.250000
     187.4002     22.779793    163.332672   -999.250000   -999.250000
     187.3002     23.512959    165.337830   -999.250000   -999.250000
     187.2002     24.400570    167.935791   -999.250000   -999.250000
     187.1002     25.444004    170.402313   -999.250000   -999.250000
     187.0002     26.434628    172.319122   -999.250000   -999.250000
     186.9002     26.981663    173.670013   -999.250000   -999.250000
     186.8002     26.876591    174.463196   -999.250000   -999.250000
     186.7002     26.584835    174.478729   -999.250000   -999.250000
     186.6002     26.234303    173.760345   -999.250000   -999.250000
     186.5002     25.960579    172.600616   -999.250000   -999.250000
     186.4002     25.728458    171.142578   -999.250000   -999.250000
     186.3002     25.573452    169.495758   -999.250000   -999.250000
     186.2002     25.511322    167.957397   -999.250000   -999.250000
     186.1002     25.521511    166.998596   -999.250000   -999.250000
     186.0002     25.664036    166.652008   -999.250000   -999.250000
     185.9002     25.914959    166.605438   -999.250000   -999.250000
     185.8002     26.080269    166.819733   -999.250000   -999.250000
     185.7002     26.066265    167.605530   -999.250000   -999.250000
     185.6002     25.880672    168.838928   -999.250000   -999.250000
     185.5002     25.653908    169.612823   -999.250000   -999.250000
     185.4002     25.428749    169.331268   -999.250000   -999.250000
     185.3002     25.253719    168.192749   -999.250000   -999.250000
     185.2002     25.165359    166.534485   -999.250000   -999.250000
     185.1002     25.159451    164.547424   -999.250000   -999.250000
     185.0002     25.160370    162.625458   -999.250000   -999.250000
     184.9002     25.083496    161.416168   -999.250000   -999.250000
     184.8002     24.916294    161.446320   -999.250000   -999.250000
     184.7002     24.742683    162.691620   -999.250000   -999.250000
     184.6002     24.672600    164.610504   -999.250000   -999.250000
     184.5002     24.795753    166.500519   -999.250000   -999.250000
