# LAS format data
~Version Information
VERS.     2.00: CWLS LOG ASCII STANDARD - VERSION 2.0
WRAP.       NO: ONE LINE PER DEPTH STEP
~Well Information
#MNEM   .UNITS    DATA                           DESCRIPTION
#----   ------    ----                           -----------
STRT    .M        2196.9004                     :First Index Value
STOP    .M        40.1002                       :Last Index Value
STEP    .M        -0.1000                       :Frame Spacing
NULL    .         -999.2500                     :Absent Value
WELL    .         EVERDINGEN-01                 :Well Name   
FLD     .         UNKNOWN                       :Field Name  
CNTY    .                                       :County
STAT    .                                       :State
CTRY    .                                       :Country
LOC     .                                       :Location
API     .                                       :API Number
DATE    .                                       :Date
COMP    .         NAM                           :Company Name
SRVC    .                                       :Service Company
~Parameter Information
#MNEM   .UNITS    VALUE                          DESCRIPTION
#----   ------    -----                          -----------
TDD     .M        2197.50000                    :Total Depth (Driller)   
UBID    .         1308                          :Unique Borehole Id  
PDAT    .         Mean Sea Level                :Permanent Datum 
EPD     .M           0.00000                    :Elevation of Permanent Datum (PDAT) above Mean Sea Level
LMF     .                                       :Logging Measured From (Name of Logging Elevation Reference) 
APD     .M           6.32000                    :Elevation of Depth Reference (LMF) Above Permanent Datum
~Curve Information
#MNEM   .UNITS    API CODE                       CURVE DESCRIPTION
#----   ------    --------                       -----------------
DEPT    .M                                      :1     Index curve
GR      .GAPI                                   :2     SNAM  
DT      .US/F                                   :3     SNAM  
RHOB    .G/C3                                   :4     SNAM  
DRHO    .G/C3                                   :5     SNAM  
~Ascii Log Data
# ...
     644.4003     55.462425    162.421478   -999.250000   -999.250000
     644.3003     57.469116    160.201782   -999.250000   -999.250000
     644.2003     59.612968    158.077087   -999.250000   -999.250000
     644.1003     61.118523    156.394470   -999.250000   -999.250000
     644.0003     62.012856    155.487701   -999.250000   -999.250000
     643.9003     62.582848    155.390167   -999.250000   -999.250000
     643.8003     62.993301    155.986115   -999.250000   -999.250000
     643.7003     63.429329    156.993286   -999.250000   -999.250000
     643.6003     63.952118    158.201630   -999.250000   -999.250000
     643.5003     64.351685    159.758575   -999.250000   -999.250000
     643.4003     64.563538    161.212006   -999.250000   -999.250000
     643.3003     64.644302    161.994446   -999.250000   -999.250000
     643.2003     64.361053    161.921844   -999.250000   -999.250000
     643.1003     63.569908    161.058563   -999.250000   -999.250000
     643.0003     62.275307    159.707825   -999.250000   -999.250000
     642.9003     60.837563    157.883972   -999.250000   -999.250000
     642.8003     59.699501    156.056793   -999.250000   -999.250000
     642.7003     58.952690    154.751007   -999.250000   -999.250000
     642.6003     58.612549    154.372498   -999.250000   -999.250000
     642.5003     58.494202    154.955872   -999.250000   -999.250000
     642.4003     58.463799    156.131683   -999.250000   -999.250000
     642.3003     58.446884    157.739532   -999.250000   -999.250000
     642.2003     58.281189    159.443481   -999.250000   -999.250000
     642.1003     57.741425    160.858917   -999.250000   -999.250000
     642.0003     56.821846    161.604279   -999.250000   -999.250000
     641.9003     55.844208    161.482147   -999.250000   -999.250000
     641.8003     55.102020    160.737579   -999.250000   -999.250000
     641.7003     54.698570    159.448547   -999.250000   -999.250000
     641.6003     54.633965    157.791718   -999.250000   -999.250000
     641.5003     55.232529    156.132385   -999.250000   -999.250000
     641.4003     56.506775    154.839813   -999.250000   -999.250000
     641.3003     57.989182    154.170319   -999.250000   -999.250000
     641.2003     59.511169    154.134918   -999.250000   -999.250000
     641.1003     60.814011    154.623047   -999.250000   -999.250000
     641.0003     61.807030    155.407837   -999.250000   -999.250000
     640.9003     62.613464    156.400543   -999.250000   -999.250000
     640.8003     63.242172    157.448486   -999.250000   -999.250000
     640.7003     63.591087    158.260895   -999.250000   -999.250000
     640.6003     63.398308    158.613251   -999.250000   -999.250000
     640.5003     62.621117    158.417969   -999.250000   -999.250000
     640.4003     61.802101    157.749481   -999.250000   -999.250000
     640.3003     61.275314    156.736450   -999.250000   -999.250000
     640.2003     61.216751    155.721497   -999.250000   -999.250000
     640.1003     61.192329    155.252014   -999.250000   -999.250000
     640.0003     61.053085    155.355408   -999.250000   -999.250000
     639.9003     60.723862    155.656647   -999.250000   -999.250000
     639.8003     60.485489    155.679993   -999.250000   -999.250000
     639.7003     60.460693    155.854767   -999.250000   -999.250000
     639.6003     60.703491    156.429565   -999.250000   -999.250000
     639.5003     61.058846    156.817230   -999.250000   -999.250000
     639.4003     61.535576    156.715271   -999.250000   -999.250000
     639.3003     62.134216    156.308044   -999.250000   -999.250000
     639.2003     62.811020    156.155304   -999.250000   -999.250000
     639.1003     63.499725    156.017609   -999.250000   -999.250000
     639.0003     64.148834    155.470551   -999.250000   -999.250000
     638.9003     64.867630    154.613647   -999.250000   -999.250000
     638.8003     65.612732    153.658478   -999.250000   -999.250000
     638.7003     66.182922    152.747925   -999.250000   -999.250000
     638.6003     66.430679    151.785370   -999.250000   -999.250000
     638.5003     66.312195    150.798950   -999.250000   -999.250000
     638.4003     65.983597    150.003052   -999.250000   -999.250000
     638.3003     65.470169    149.562286   -999.250000   -999.250000
     638.2003     65.145981    149.522766   -999.250000   -999.250000
     638.1003     65.444962    149.764130   -999.250000   -999.250000
     638.0003     66.358688    150.054596   -999.250000   -999.250000
     637.9003     67.739090    150.178162   -999.250000   -999.250000
     637.8003     69.222458    150.126984   -999.250000   -999.250000
     637.7003     70.383484    150.189880   -999.250000   -999.250000
     637.6003     70.945496    150.465759   -999.250000   -999.250000
     637.5003     71.050049    150.842468   -999.250000   -999.250000
     637.4003     70.335342    151.198730   -999.250000   -999.250000
     637.3003     68.894226    151.475220   -999.250000   -999.250000
     637.2003     67.199646    151.659332   -999.250000   -999.250000
     637.1003     65.689316    151.714966   -999.250000   -999.250000
     637.0003     64.672241    151.669952   -999.250000   -999.250000
     636.9003     64.152130    151.632294   -999.250000   -999.250000
     636.8003     63.895126    151.743805   -999.250000   -999.250000
     636.7003     63.534218    151.846802   -999.250000   -999.250000
     636.6003     62.906311    151.783661   -999.250000   -999.250000
     636.5003     62.723000    151.805267   -999.250000   -999.250000
     636.4003     62.858177    151.913208   -999.250000   -999.250000
     636.3003     62.682785    151.906433   -999.250000   -999.250000
     636.2003     62.246483    151.637054   -999.250000   -999.250000
     636.1003     61.856003    151.194641   -999.250000   -999.250000
     636.0003     61.782066    150.749939   -999.250000   -999.250000
     635.9003     62.033493    150.288239   -999.250000   -999.250000
     635.8003     62.473251    149.778076   -999.250000   -999.250000
     635.7003     63.039780    149.255402   -999.250000   -999.250000
     635.6003     63.774979    148.981781   -999.250000   -999.250000
     635.5003     64.625031    149.057617   -999.250000   -999.250000
     635.4003     65.555786    149.396454   -999.250000   -999.250000
     635.3003     66.629776    149.688110   -999.250000   -999.250000
     635.2003     67.670761    149.779755   -999.250000   -999.250000
     635.1003     68.110504    149.706818   -999.250000   -999.250000
     635.0003     68.021667    149.719269   -999.250000   -999.250000
     634.9003     67.697250    149.989288   -999.250000   -999.250000
     634.8003     67.323654    150.571503   -999.250000   -999.250000
     634.7003     66.900894    151.457062   -999.250000   -999.250000
     634.6003     66.378845    152.561279   -999.250000   -999.250000
     634.5003     65.542023    153.790497   -999.250000   -999.250000
     634.4003     64.227966    154.856079   -999.250000   -999.250000
     634.3003     62.462189    155.642273   -999.250000   -999.250000
     634.2003     60.993362    156.135406   -999.250000   -999.250000
     634.1003     60.066246    156.553192   -999.250000   -999.250000
     634.0003     59.559212    157.111450   -999.250000   -999.250000
     633.9003     59.526031    157.933716   -999.250000   -999.250000
     633.8003     59.691162    158.912933   -999.250000   -999.250000
     633.7003     59.852760    159.899902   -999.250000   -999.250000
     633.6003     59.515312    160.731842   -999.250000   -999.250000
     633.5003     58.793877    161.168427   -999.250000   -999.250000
     633.4003     57.955994    161.158997   -999.250000   -999.250000
     633.3003     57.206062    160.890778   -999.250000   -999.250000
     633.2003     56.582344    160.410187   -999.250000   -999.250000
     633.1003     56.074989    159.724487   -999.250000   -999.250000
     633.0003     55.673752    159.057739   -999.250000   -999.250000
