# LAS format data
~Version Information
VERS.     2.00: CWLS LOG ASCII STANDARD - VERSION 2.0
WRAP.       NO: ONE LINE PER DEPTH STEP
~Well Information
#MNEM   .UNITS    DATA                           DESCRIPTION
#----   ------    ----                           -----------
STRT    .M        2196.9004                     :First Index Value
STOP    .M        40.1002                       :Last Index Value
STEP    .M        -0.1000                       :Frame Spacing
NULL    .         -999.2500                     :Absent Value
WELL    .         EVERDINGEN-01                 :Well Name   
FLD     .         UNKNOWN                       :Field Name  
CNTY    .                                       :County
STAT    .                                       :State
CTRY    .                                       :Country
LOC     .                                       :Location
API     .                                       :API Number
DATE    .                                       :Date
COMP    .         NAM                           :Company Name
SRVC    .                                       :Service Company
~Parameter Information
#MNEM   .UNITS    VALUE                          DESCRIPTION
#----   ------    -----                          -----------
TDD     .M        2197.50000                    :Total Depth (Driller)   
UBID    .         1308                          :Unique Borehole Id  
PDAT    .         Mean Sea Level                :Permanent Datum 
EPD     .M           0.00000                    :Elevation of Permanent Datum (PDAT) above Mean Sea Level
LMF     .                                       :Logging Measured From (Name of Logging Elevation Reference) 
APD     .M           6.32000                    :Elevation of Depth Reference (LMF) Above Permanent Datum
~Curve Information
#MNEM   .UNITS    API CODE                       CURVE DESCRIPTION
#----   ------    --------                       -----------------
DEPT    .M                                      :1     Index curve
GR      .GAPI                                   :2     SNAM  
DT      .US/F                                   :3     SNAM  
RHOB    .G/C3                                   :4     SNAM  
DRHO    .G/C3                                   :5     SNAM  
~Ascii Log Data
# ...
     920.4002     72.976257    112.200058   -999.250000   -999.250000
     920.3002     75.672592    114.193130   -999.250000   -999.250000
     920.2002     79.481323    117.351685   -999.250000   -999.250000
     920.1002     82.250916    122.270462   -999.250000   -999.250000
     920.0002     83.433548    128.034790   -999.250000   -999.250000
     919.9002     83.459198    133.346375   -999.250000   -999.250000
     919.8002     82.444687    137.067078   -999.250000   -999.250000
     919.7002     81.182907    138.768524   -999.250000   -999.250000
     919.6002     80.136200    139.096252   -999.250000   -999.250000
     919.5002     79.896454    138.760010   -999.250000   -999.250000
     919.4003     80.294373    138.721558   -999.250000   -999.250000
     919.3003     81.096268    139.522797   -999.250000   -999.250000
     919.2003     82.426605    141.341675   -999.250000   -999.250000
     919.1003     83.993240    143.518158   -999.250000   -999.250000
     919.0003     85.464355    145.353363   -999.250000   -999.250000
     918.9003     86.497543    146.395905   -999.250000   -999.250000
     918.8003     87.158081    146.786743   -999.250000   -999.250000
     918.7003     87.494705    146.835144   -999.250000   -999.250000
     918.6003     87.889984    146.712921   -999.250000   -999.250000
     918.5003     88.380814    146.441772   -999.250000   -999.250000
     918.4003     88.719849    146.031097   -999.250000   -999.250000
     918.3003     88.746719    145.614441   -999.250000   -999.250000
     918.2003     88.626251    145.405212   -999.250000   -999.250000
     918.1003     88.729080    145.509613   -999.250000   -999.250000
     918.0003     89.062515    145.869232   -999.250000   -999.250000
     917.9003     89.389938    146.402893   -999.250000   -999.250000
     917.8003     89.225830    147.070068   -999.250000   -999.250000
     917.7003     88.415787    147.661560   -999.250000   -999.250000
     917.6003     87.317551    148.008026   -999.250000   -999.250000
     917.5003     86.981400    148.100037   -999.250000   -999.250000
     917.4003     87.707947    148.025513   -999.250000   -999.250000
     917.3003     88.984985    147.891418   -999.250000   -999.250000
     917.2003     89.605957    147.727448   -999.250000   -999.250000
     917.1003     89.418884    147.527069   -999.250000   -999.250000
     917.0003     88.974884    147.288452   -999.250000   -999.250000
     916.9003     88.366928    146.991699   -999.250000   -999.250000
     916.8003     87.987762    146.710785   -999.250000   -999.250000
     916.7003     88.104691    146.588226   -999.250000   -999.250000
     916.6003     89.128265    146.837524   -999.250000   -999.250000
     916.5003     90.586731    147.576416   -999.250000   -999.250000
     916.4003     91.689209    148.617218   -999.250000   -999.250000
     916.3003     92.236603    149.572235   -999.250000   -999.250000
     916.2003     92.230377    150.143036   -999.250000   -999.250000
     916.1003     91.879242    150.335846   -999.250000   -999.250000
     916.0003     91.491623    150.174316   -999.250000   -999.250000
     915.9003     91.254990    149.733551   -999.250000   -999.250000
     915.8003     90.967102    149.194885   -999.250000   -999.250000
     915.7003     91.086334    148.680267   -999.250000   -999.250000
     915.6003     91.697556    148.244476   -999.250000   -999.250000
     915.5003     92.010818    147.868896   -999.250000   -999.250000
     915.4003     91.846436    147.570587   -999.250000   -999.250000
     915.3003     91.412033    147.337524   -999.250000   -999.250000
     915.2003     90.901566    147.111938   -999.250000   -999.250000
     915.1003     90.388046    146.904053   -999.250000   -999.250000
     915.0003     89.923050    146.747223   -999.250000   -999.250000
     914.9003     89.632217    146.645386   -999.250000   -999.250000
     914.8003     89.772629    146.588043   -999.250000   -999.250000
     914.7003     90.414734    146.583923   -999.250000   -999.250000
     914.6003     91.184143    146.670349   -999.250000   -999.250000
     914.5003     91.844391    146.818909   -999.250000   -999.250000
     914.4003     92.277710    146.978516   -999.250000   -999.250000
     914.3003     92.351349    147.164734   -999.250000   -999.250000
     914.2003     92.045441    147.363220   -999.250000   -999.250000
     914.1003     91.659988    147.498962   -999.250000   -999.250000
     914.0003     91.398010    147.481781   -999.250000   -999.250000
     913.9003     91.409622    147.241211   -999.250000   -999.250000
     913.8003     91.507065    146.802734   -999.250000   -999.250000
     913.7003     91.299377    146.301270   -999.250000   -999.250000
     913.6003     90.555786    145.779053   -999.250000   -999.250000
     913.5003     89.765289    145.232056   -999.250000   -999.250000
     913.4003     89.246613    144.678070   -999.250000   -999.250000
     913.3003     89.495621    144.163757   -999.250000   -999.250000
     913.2003     90.620972    143.763885   -999.250000   -999.250000
     913.1003     92.320114    143.485596   -999.250000   -999.250000
     913.0003     93.963470    143.309052   -999.250000   -999.250000
     912.9003     95.204163    143.179565   -999.250000   -999.250000
     912.8003     96.070175    143.070984   -999.250000   -999.250000
     912.7003     96.755249    142.994415   -999.250000   -999.250000
     912.6003     97.459549    142.956818   -999.250000   -999.250000
     912.5003     98.268539    142.937195   -999.250000   -999.250000
     912.4003     98.851532    142.915680   -999.250000   -999.250000
     912.3003     98.417908    142.882568   -999.250000   -999.250000
     912.2003     96.983994    142.799530   -999.250000   -999.250000
     912.1003     95.315063    142.582245   -999.250000   -999.250000
     912.0003     93.995941    142.175781   -999.250000   -999.250000
     911.9003     93.594238    141.584137   -999.250000   -999.250000
     911.8003     94.008072    140.882080   -999.250000   -999.250000
     911.7003     94.530670    140.212555   -999.250000   -999.250000
     911.6003     94.287338    139.904510   -999.250000   -999.250000
     911.5003     92.953522    140.066528   -999.250000   -999.250000
     911.4003     90.908707    140.410522   -999.250000   -999.250000
     911.3003     88.592697    140.790436   -999.250000   -999.250000
     911.2003     86.513733    141.117188   -999.250000   -999.250000
     911.1003     85.687851    141.309418   -999.250000   -999.250000
     911.0003     85.641968    141.307678   -999.250000   -999.250000
     910.9003     85.393326    141.135864   -999.250000   -999.250000
     910.8003     85.160934    140.865936   -999.250000   -999.250000
     910.7003     85.251221    140.714142   -999.250000   -999.250000
     910.6003     85.750275    140.815552   -999.250000   -999.250000
     910.5003     86.471863    141.131775   -999.250000   -999.250000
     910.4003     87.112473    141.558777   -999.250000   -999.250000
     910.3003     87.520966    141.973053   -999.250000   -999.250000
     910.2003     87.510956    142.291626   -999.250000   -999.250000
     910.1003     87.076340    142.467133   -999.250000   -999.250000
     910.0003     86.279678    142.496429   -999.250000   -999.250000
     909.9003     84.804337    142.342285   -999.250000   -999.250000
     909.8003     83.332718    142.042999   -999.250000   -999.250000
     909.7003     82.653244    141.694214   -999.250000   -999.250000
     909.6003     82.938934    141.342133   -999.250000   -999.250000
     909.5003     83.661026    141.016449   -999.250000   -999.250000
     909.4003     84.403961    140.724396   -999.250000   -999.250000
     909.3003     85.317810    140.500671   -999.250000   -999.250000
     909.2003     86.412811    140.356659   -999.250000   -999.250000
     909.1003     87.667191    140.263885   -999.250000   -999.250000
     909.0003     88.912384    140.186218   -999.250000   -999.250000
