# LAS format data
~Version Information
VERS.     2.00: CWLS LOG ASCII STANDARD - VERSION 2.0
WRAP.       NO: ONE LINE PER DEPTH STEP
~Well Information
#MNEM   .UNITS    DATA                           DESCRIPTION
#----   ------    ----                           -----------
STRT    .M        2196.9004                     :First Index Value
STOP    .M        40.1002                       :Last Index Value
STEP    .M        -0.1000                       :Frame Spacing
NULL    .         -999.2500                     :Absent Value
WELL    .         EVERDINGEN-01                 :Well Name   
FLD     .         UNKNOWN                       :Field Name  
CNTY    .                                       :County
STAT    .                                       :State
CTRY    .                                       :Country
LOC     .                                       :Location
API     .                                       :API Number
DATE    .                                       :Date
COMP    .         NAM                           :Company Name
SRVC    .                                       :Service Company
~Parameter Information
#MNEM   .UNITS    VALUE                          DESCRIPTION
#----   ------    -----                          -----------
TDD     .M        2197.50000                    :Total Depth (Driller)   
UBID    .         1308                          :Unique Borehole Id  
PDAT    .         Mean Sea Level                :Permanent Datum 
EPD     .M           0.00000                    :Elevation of Permanent Datum (PDAT) above Mean Sea Level
LMF     .                                       :Logging Measured From (Name of Logging Elevation Reference) 
APD     .M           6.32000                    :Elevation of Depth Reference (LMF) Above Permanent Datum
~Curve Information
#MNEM   .UNITS    API CODE                       CURVE DESCRIPTION
#----   ------    --------                       -----------------
DEPT    .M                                      :1     Index curve
GR      .GAPI                                   :2     SNAM  
DT      .US/F                                   :3     SNAM  
RHOB    .G/C3                                   :4     SNAM  
DRHO    .G/C3                                   :5     SNAM  
~Ascii Log Data
# ...
    1633.4003     97.983627     63.643135   -999.250000   -999.250000
    1633.3003     97.335648     63.264610   -999.250000   -999.250000
    1633.2003     97.289871     62.817863   -999.250000   -999.250000
    1633.1003     97.898376     62.424751   -999.250000   -999.250000
    1633.0003     99.195557     62.139404   -999.250000   -999.250000
    1632.9003    100.898849     62.014565   -999.250000   -999.250000
    1632.8003    102.509720     62.066566   -999.250000   -999.250000
    1632.7003    104.079681     62.232697   -999.250000   -999.250000
    1632.6003    105.560394     62.484077   -999.250000   -999.250000
    1632.5003    106.867935     62.810890   -999.250000   -999.250000
    1632.4003    107.996063     63.215775   -999.250000   -999.250000
    1632.3003    108.900940     63.708443   -999.250000   -999.250000
    1632.2003    109.576126     64.258865   -999.250000   -999.250000
    1632.1003    109.917038     64.805008   -999.250000   -999.250000
    1632.0003    109.895370     65.250381   -999.250000   -999.250000
    1631.9003    109.503311     65.521225   -999.250000   -999.250000
    1631.8003    107.649658     65.603836   -999.250000   -999.250000
    1631.7003    103.823959     65.502625   -999.250000   -999.250000
    1631.6003     99.088989     65.309357   -999.250000   -999.250000
    1631.5003     93.297958     65.155823   -999.250000   -999.250000
    1631.4003     87.150894     65.048676   -999.250000   -999.250000
    1631.3003     81.982651     64.798157   -999.250000   -999.250000
    1631.2003     77.912460     64.119720   -999.250000   -999.250000
    1631.1003     75.127823     62.880302   -999.250000   -999.250000
    1631.0003     74.155548     61.266769   -999.250000   -999.250000
    1630.9003     75.133743     59.595787   -999.250000   -999.250000
    1630.8003     77.470718     58.092438   -999.250000   -999.250000
    1630.7003     80.460297     57.000137   -999.250000   -999.250000
    1630.6003     83.528870     56.756218   -999.250000   -999.250000
    1630.5003     85.968826     57.590530   -999.250000   -999.250000
    1630.4003     87.867569     58.978279   -999.250000   -999.250000
    1630.3003     89.508667     60.342300   -999.250000   -999.250000
    1630.2003     91.526047     61.334312   -999.250000   -999.250000
    1630.1003     94.123123     61.888405   -999.250000   -999.250000
    1630.0003     97.398514     61.958199   -999.250000   -999.250000
    1629.9003    101.004883     61.577942   -999.250000   -999.250000
    1629.8003    104.370071     61.156822   -999.250000   -999.250000
    1629.7003    107.338699     61.082993   -999.250000   -999.250000
    1629.6003    109.794937     61.488327   -999.250000   -999.250000
    1629.5003    110.779510     62.013138   -999.250000   -999.250000
    1629.4003    110.257782     62.554527   -999.250000   -999.250000
    1629.3003    109.542938     63.149170   -999.250000   -999.250000
    1629.2003    108.868347     63.785835   -999.250000   -999.250000
    1629.1003    108.358459     64.247742   -999.250000   -999.250000
    1629.0003    107.984161     64.327744   -999.250000   -999.250000
    1628.9003    107.836212     64.184357   -999.250000   -999.250000
    1628.8003    107.935120     63.952538   -999.250000   -999.250000
    1628.7003    108.091293     63.726006   -999.250000   -999.250000
    1628.6003    107.719772     63.533676   -999.250000   -999.250000
    1628.5003    106.118607     63.457748   -999.250000   -999.250000
    1628.4003    103.158386     63.597488   -999.250000   -999.250000
    1628.3003     98.952866     63.983635   -999.250000   -999.250000
    1628.2003     93.797714     64.332443   -999.250000   -999.250000
    1628.1003     87.743866     64.312698   -999.250000   -999.250000
    1628.0003     82.781418     63.918037   -999.250000   -999.250000
    1627.9003     79.380325     63.111618   -999.250000   -999.250000
    1627.8003     76.009918     61.921303   -999.250000   -999.250000
    1627.7003     73.784515     60.403694   -999.250000   -999.250000
    1627.6003     72.891434     58.789032   -999.250000   -999.250000
    1627.5003     72.707993     57.416962   -999.250000   -999.250000
    1627.4003     72.941452     56.599747   -999.250000   -999.250000
    1627.3003     73.288315     56.372276   -999.250000   -999.250000
    1627.2003     73.738434     56.529991   -999.250000   -999.250000
    1627.1003     74.300613     57.019653   -999.250000   -999.250000
    1627.0003     74.978683     57.695175   -999.250000   -999.250000
    1626.9003     75.806274     58.324783   -999.250000   -999.250000
    1626.8003     76.863159     58.633392   -999.250000   -999.250000
    1626.7003     78.109879     58.732475   -999.250000   -999.250000
    1626.6003     79.476196     58.898048   -999.250000   -999.250000
    1626.5003     80.815460     59.257713   -999.250000   -999.250000
    1626.4003     81.967560     59.827423   -999.250000   -999.250000
    1626.3003     82.540863     60.559357   -999.250000   -999.250000
    1626.2003     82.346008     61.403946   -999.250000   -999.250000
    1626.1003     81.549286     62.105995   -999.250000   -999.250000
    1626.0003     80.206955     62.457909   -999.250000   -999.250000
    1625.9003     78.586761     62.416740   -999.250000   -999.250000
    1625.8003     76.917114     62.027336   -999.250000   -999.250000
    1625.7003     75.229248     61.291420   -999.250000   -999.250000
    1625.6003     74.137878     60.078880   -999.250000   -999.250000
    1625.5003     73.925858     58.663307   -999.250000   -999.250000
    1625.4003     74.901428     57.412201   -999.250000   -999.250000
    1625.3003     76.572525     56.684349   -999.250000   -999.250000
    1625.2003     78.583420     56.442642   -999.250000   -999.250000
    1625.1003     80.862839     56.535042   -999.250000   -999.250000
    1625.0003     83.470444     56.825203   -999.250000   -999.250000
    1624.9003     86.548889     57.267746   -999.250000   -999.250000
    1624.8003     90.425049     57.941368   -999.250000   -999.250000
    1624.7003     94.579514     58.784760   -999.250000   -999.250000
    1624.6003     98.671402     59.670227   -999.250000   -999.250000
    1624.5003    102.541473     60.449135   -999.250000   -999.250000
    1624.4003    106.021133     61.105209   -999.250000   -999.250000
    1624.3003    109.009369     61.706657   -999.250000   -999.250000
    1624.2003    111.361664     62.244583   -999.250000   -999.250000
    1624.1003    113.038742     62.688217   -999.250000   -999.250000
    1624.0003    113.730927     63.024132   -999.250000   -999.250000
    1623.9003    113.073624     63.186340   -999.250000   -999.250000
    1623.8003    111.539886     63.163162   -999.250000   -999.250000
    1623.7003    109.679382     63.020477   -999.250000   -999.250000
    1623.6003    107.652008     62.929199   -999.250000   -999.250000
    1623.5003    105.511993     62.838074   -999.250000   -999.250000
    1623.4003    103.409012     62.617165   -999.250000   -999.250000
    1623.3003    101.596664     62.453201   -999.250000   -999.250000
    1623.2003    100.106918     62.524178   -999.250000   -999.250000
    1623.1003     98.898132     62.798409   -999.250000   -999.250000
    1623.0003     97.829865     63.172058   -999.250000   -999.250000
    1622.9003     96.814957     63.575676   -999.250000   -999.250000
    1622.8003     95.799728     64.018677   -999.250000   -999.250000
    1622.7003     94.732895     64.134781   -999.250000   -999.250000
    1622.6003     93.655991     63.713211   -999.250000   -999.250000
    1622.5003     92.633316     63.005165   -999.250000   -999.250000
    1622.4003     91.620590     62.426346   -999.250000   -999.250000
    1622.3003     90.580307     62.209152   -999.250000   -999.250000
    1622.2003     89.669693     62.200600   -999.250000   -999.250000
    1622.1003     88.947693     62.392113   -999.250000   -999.250000
    1622.0003     88.320999     62.702583   -999.250000   -999.250000
