# LAS format data
~Version Information
VERS.     2.00: CWLS LOG ASCII STANDARD - VERSION 2.0
WRAP.       NO: ONE LINE PER DEPTH STEP
~Well Information
#MNEM   .UNITS    DATA                           DESCRIPTION
#----   ------    ----                           -----------
STRT    .M        2196.9004                     :First Index Value
STOP    .M        40.1002                       :Last Index Value
STEP    .M        -0.1000                       :Frame Spacing
NULL    .         -999.2500                     :Absent Value
WELL    .         EVERDINGEN-01                 :Well Name   
FLD     .         UNKNOWN                       :Field Name  
CNTY    .                                       :County
STAT    .                                       :State
CTRY    .                                       :Country
LOC     .                                       :Location
API     .                                       :API Number
DATE    .                                       :Date
COMP    .         NAM                           :Company Name
SRVC    .                                       :Service Company
~Parameter Information
#MNEM   .UNITS    VALUE                          DESCRIPTION
#----   ------    -----                          -----------
TDD     .M        2197.50000                    :Total Depth (Driller)   
UBID    .         1308                          :Unique Borehole Id  
PDAT    .         Mean Sea Level                :Permanent Datum 
EPD     .M           0.00000                    :Elevation of Permanent Datum (PDAT) above Mean Sea Level
LMF     .                                       :Logging Measured From (Name of Logging Elevation Reference) 
APD     .M           6.32000                    :Elevation of Depth Reference (LMF) Above Permanent Datum
~Curve Information
#MNEM   .UNITS    API CODE                       CURVE DESCRIPTION
#----   ------    --------                       -----------------
DEPT    .M                                      :1     Index curve
GR      .GAPI                                   :2     SNAM  
DT      .US/F                                   :3     SNAM  
RHOB    .G/C3                                   :4     SNAM  
DRHO    .G/C3                                   :5     SNAM  
~Ascii Log Data
# ...
    1909.4004    123.355896     69.752823   -999.250000   -999.250000
    1909.3004    124.427322     69.312500   -999.250000   -999.250000
    1909.2004    125.575912     68.794998   -999.250000   -999.250000
    1909.1004    126.562744     68.475845   -999.250000   -999.250000
    1909.0004    126.457138     68.469513   -999.250000   -999.250000
    1908.9004    125.215820     68.450043   -999.250000   -999.250000
    1908.8004    123.316162     68.313324   -999.250000   -999.250000
    1908.7004    121.302475     68.211685   -999.250000   -999.250000
    1908.6004    119.996063     68.070145   -999.250000   -999.250000
    1908.5004    119.652069     67.815521   -999.250000   -999.250000
    1908.4004    120.108505     67.484497   -999.250000   -999.250000
    1908.3004    120.822525     67.370972   -999.250000   -999.250000
    1908.2004    121.450089     67.476730   -999.250000   -999.250000
    1908.1004    121.827789     67.506622   -999.250000   -999.250000
    1908.0004    121.870209     67.607315   -999.250000   -999.250000
    1907.9004    121.600739     67.866226   -999.250000   -999.250000
    1907.8004    122.160583     68.030426   -999.250000   -999.250000
    1907.7004    123.853271     67.590317   -999.250000   -999.250000
    1907.6004    126.204742     66.704514   -999.250000   -999.250000
    1907.5004    129.329071     66.311798   -999.250000   -999.250000
    1907.4004    132.296753     66.409134   -999.250000   -999.250000
    1907.3004    134.178131     66.427017   -999.250000   -999.250000
    1907.2004    133.729156     66.400681   -999.250000   -999.250000
    1907.1004    131.148895     66.514160   -999.250000   -999.250000
    1907.0004    127.404129     66.739944   -999.250000   -999.250000
    1906.9004    122.530151     66.840668   -999.250000   -999.250000
    1906.8004    117.428696     66.756409   -999.250000   -999.250000
    1906.7004    113.113449     66.712509   -999.250000   -999.250000
    1906.6004    110.978699     67.045334   -999.250000   -999.250000
    1906.5004    111.223175     67.743393   -999.250000   -999.250000
    1906.4004    112.565079     68.395477   -999.250000   -999.250000
    1906.3004    114.568924     68.680374   -999.250000   -999.250000
    1906.2004    116.946121     68.571594   -999.250000   -999.250000
    1906.1004    120.010101     68.330536   -999.250000   -999.250000
    1906.0004    123.756622     67.847168   -999.250000   -999.250000
    1905.9004    127.751709     67.014236   -999.250000   -999.250000
    1905.8004    131.683777     66.109711   -999.250000   -999.250000
    1905.7004    135.296021     65.449646   -999.250000   -999.250000
    1905.6004    138.483551     65.195084   -999.250000   -999.250000
    1905.5004    140.420441     65.211578   -999.250000   -999.250000
    1905.4004    140.774292     65.442993   -999.250000   -999.250000
    1905.3004    140.504852     65.913956   -999.250000   -999.250000
    1905.2004    139.561462     66.625320   -999.250000   -999.250000
    1905.1004    137.857849     67.428070   -999.250000   -999.250000
    1905.0004    135.460480     68.124420   -999.250000   -999.250000
    1904.9004    132.149902     68.769226   -999.250000   -999.250000
    1904.8004    128.037720     69.380753   -999.250000   -999.250000
    1904.7004    124.002808     69.825195   -999.250000   -999.250000
    1904.6004    120.243454     69.905533   -999.250000   -999.250000
    1904.5004    116.602859     69.611053   -999.250000   -999.250000
    1904.4004    112.643311     69.180618   -999.250000   -999.250000
    1904.3004    109.289352     68.741470   -999.250000   -999.250000
    1904.2004    107.527054     68.391312   -999.250000   -999.250000
    1904.1004    107.045898     68.302795   -999.250000   -999.250000
    1904.0004    107.836426     68.612854   -999.250000   -999.250000
    1903.9004    109.363571     69.389587   -999.250000   -999.250000
    1903.8004    111.034027     70.439255   -999.250000   -999.250000
    1903.7004    113.212646     71.591599   -999.250000   -999.250000
    1903.6004    116.081299     72.824921   -999.250000   -999.250000
    1903.5004    118.854568     74.169907   -999.250000   -999.250000
    1903.4004    121.331711     75.609314   -999.250000   -999.250000
    1903.3004    123.442795     77.202362   -999.250000   -999.250000
    1903.2004    125.211899     79.265732   -999.250000   -999.250000
    1903.1004    126.276398     82.216446   -999.250000   -999.250000
    1903.0004    126.517166     85.525436   -999.250000   -999.250000
    1902.9004    126.496658     87.750015   -999.250000   -999.250000
    1902.8004    126.678558     88.439072   -999.250000   -999.250000
    1902.7004    127.295135     87.915527   -999.250000   -999.250000
    1902.6004    128.107574     86.861221   -999.250000   -999.250000
    1902.5004    128.946747     83.860855   -999.250000   -999.250000
    1902.4004    129.769714     78.884979   -999.250000   -999.250000
    1902.3004    130.634064     75.005966   -999.250000   -999.250000
    1902.2004    131.352142     72.703430   -999.250000   -999.250000
    1902.1004    131.740570     71.071945   -999.250000   -999.250000
    1902.0004    131.693512     69.995697   -999.250000   -999.250000
    1901.9004    131.440033     69.562469   -999.250000   -999.250000
    1901.8004    131.328033     69.638458   -999.250000   -999.250000
    1901.7004    131.671448     70.098038   -999.250000   -999.250000
    1901.6004    132.363708     70.972794   -999.250000   -999.250000
    1901.5004    133.072266     71.932007   -999.250000   -999.250000
    1901.4004    132.940430     72.285309   -999.250000   -999.250000
    1901.3004    131.677429     72.181107   -999.250000   -999.250000
    1901.2004    129.510315     72.067764   -999.250000   -999.250000
    1901.1004    125.641022     71.921173   -999.250000   -999.250000
    1901.0004    120.578964     71.730057   -999.250000   -999.250000
    1900.9004    115.268280     71.521408   -999.250000   -999.250000
    1900.8004    111.410217     71.174286   -999.250000   -999.250000
    1900.7004    109.242233     70.779083   -999.250000   -999.250000
    1900.6004    108.388016     70.383011   -999.250000   -999.250000
    1900.5004    109.741516     69.552719   -999.250000   -999.250000
    1900.4004    112.831924     68.476227   -999.250000   -999.250000
    1900.3004    116.883957     67.586472   -999.250000   -999.250000
    1900.2004    121.264053     66.877518   -999.250000   -999.250000
    1900.1004    125.310104     66.243103   -999.250000   -999.250000
    1900.0004    128.430542     65.601562   -999.250000   -999.250000
    1899.9004    130.295166     64.729187   -999.250000   -999.250000
    1899.8004    130.835449     63.966133   -999.250000   -999.250000
    1899.7004    129.129120     63.677567   -999.250000   -999.250000
    1899.6004    126.749588     63.834251   -999.250000   -999.250000
    1899.5004    125.028076     64.339188   -999.250000   -999.250000
    1899.4004    125.022995     65.173065   -999.250000   -999.250000
    1899.3004    126.111572     66.222778   -999.250000   -999.250000
    1899.2004    127.544357     67.222351   -999.250000   -999.250000
    1899.1004    129.173035     68.020660   -999.250000   -999.250000
    1899.0004    130.587372     69.184052   -999.250000   -999.250000
    1898.9004    131.578400     71.871048   -999.250000   -999.250000
    1898.8004    131.240845     77.122864   -999.250000   -999.250000
    1898.7004    129.853363     83.168747   -999.250000   -999.250000
    1898.6004    127.870941     88.043228   -999.250000   -999.250000
    1898.5004    125.050827     90.642746   -999.250000   -999.250000
    1898.4004    120.970352     90.248901   -999.250000   -999.250000
    1898.3004    115.380096     87.004654   -999.250000   -999.250000
    1898.2004    108.738724     80.897888   -999.250000   -999.250000
    1898.1004    102.435944     75.222260   -999.250000   -999.250000
    1898.0004     97.490219     72.208862   -999.250000   -999.250000
