~VERSION INFORMATION
VERS.           2.0   :CWLS Log ASCII Standard - VERSION 2.0
WRAP.           NO    :One Line per depth step
PROD.  Schlumberger   :LAS Producer
PROG.  DLIS to ASCII 2.3                               :LAS Program name and version
CREA.        2024/09/17 09:54                          :LAS Creation date {YYYY/MM/DD hh:mm}
DLIS_CREA.  2024-Sep-16 13:59                          :DLIS Creation date and time {YYYY-MMM-DD hh:mm}
SOURCE.     JUT1_Composite-TOTAL.dlis                  :DLIS File Name
FILE-ID.     CSNOUT.001                                :File Identification Number
#--------------------------------------------------
~WELL INFORMATION
#MNEM.UNIT      DATA             DESCRIPTION
#---- ------ --------------   -----------------------------
STRT .F            7.0       :START DEPTH     
STOP .F        11220.0       :STOP DEPTH     
STEP .F            0.5       :STEP     
NULL .          -999.25      :NULL VALUE
COMP .                                                 :COMPANY
WELL .                                                 :WELL
FLD  .                                                 :FIELD
LOC  .                                                 :LOCATION
CNTY .                                                 :COUNTY
STAT .                                                 :STATE
CTRY .                                                 :COUNTRY
API  .                                                 :API NUMBER
UWI  .                                                 :UNIQUE WELL ID
DATE .                                                 :LOG DATE
SRVC .        Schlumberger                             :SERVICE COMPANY
LATI .DEG                                              :LATITUDE
LONG .DEG                                              :LONGITUDE
GDAT .                                                 :GeoDetic Datum
#-----------------------------------------------------------------------------
~PARAMETER INFORMATION
#MNEM.UNIT    VALUE                      DESCRIPTION
#---- -----   --------------------       ------------------------
RUN  .                                   :RUN NUMBER
PDAT .                                   :Permanent Datum
EPD  .                                   :Elevation of Permanent Datum above Mean Sea Level
LMF  .                                   :Logging Measured From (Name of Logging Elevation Reference)
APD  .                                   :Elevation of Depth Reference (LMF) above Permanent Datum
#-----------------------------------------------------------------------------
~CURVE INFORMATION
#MNEM.UNIT   API CODE                                  DESCRIPTION
#---- -----  --------                                  -----------------------
DEPT .F                                                :DEPTH (BOREHOLE) {F10.1}
DEPT .M                                                : {F13.4}
GR   .GAPI                                             : {F13.4}
DT   .US/F                                             : {F13.4}
RHOB .G/C3                                             : {F13.4}
#-----------------------------------------------------------------------------
# 
#     DEPT        DEPT         GR           DT           RHOB
#
~A  
# ...
    2229.5     679.5516      39.8307     151.3709    -999.2500
    2230.0     679.7040      43.1768     151.1090    -999.2500
    2230.5     679.8564      46.9961     150.8486    -999.2500
    2231.0     680.0088      49.0526     151.6233    -999.2500
    2231.5     680.1612      47.6438     152.4851    -999.2500
    2232.0     680.3136      45.9136     152.9529    -999.2500
    2232.5     680.4660      44.1848     152.5008    -999.2500
    2233.0     680.6184      42.4564     152.0485    -999.2500
    2233.5     680.7708      41.9421     151.6252    -999.2500
    2234.0     680.9232      41.6333     152.4185    -999.2500
    2234.5     681.0756      40.3027     153.1329    -999.2500
    2235.0     681.2280      38.7646     152.5382    -999.2500
    2235.5     681.3804      41.0479     151.9429    -999.2500
    2236.0     681.5328      43.7525     151.3482    -999.2500
    2236.5     681.6852      47.9948     150.7530    -999.2500
    2237.0     681.8376      49.7178     150.1591    -999.2500
    2237.5     681.9900      48.4868     150.2593    -999.2500
    2238.0     682.1424      46.3376     150.5210    -999.2500
    2238.5     682.2948      42.1806     150.7830    -999.2500
    2239.0     682.4472      41.9380     151.1378    -999.2500
    2239.5     682.5996      45.5150     151.5743    -999.2500
    2240.0     682.7520      48.0772     152.0104    -999.2500
    2240.5     682.9044      48.7678     152.4454    -999.2500
    2241.0     683.0568      47.5971     151.9215    -999.2500
    2241.5     683.2092      44.5960     150.7618    -999.2500
    2242.0     683.3616      42.6826     149.6011    -999.2500
    2242.5     683.5140      42.6925     148.4414    -999.2500
    2243.0     683.6664      43.0217     147.2817    -999.2500
    2243.5     683.8188      43.7779     146.6779    -999.2500
    2244.0     683.9712      44.8089     147.0747    -999.2500
    2244.5     684.1236      46.0916     147.4711    -999.2500
    2245.0     684.2760      49.4440     147.8666    -999.2500
    2245.5     684.4284      52.5311     147.4267    -999.2500
    2246.0     684.5808      52.4223     145.8494    -999.2500
    2246.5     684.7332      52.8553     144.2738    -999.2500
    2247.0     684.8856      53.6764     143.0829    -999.2500
    2247.5     685.0380      49.6272     141.9876    -999.2500
    2248.0     685.1904      45.5839     140.8950    -999.2500
    2248.5     685.3428      43.4655     141.0772    -999.2500
    2249.0     685.4952      43.9628     142.4153    -999.2500
    2249.5     685.6476      44.8073     143.7515    -999.2500
    2250.0     685.8000      45.0803     143.3462    -999.2500
    2250.5     685.9524      45.3564     142.7510    -999.2500
    2251.0     686.1048      47.3946     142.1562    -999.2500
    2251.5     686.2572      49.4400     141.5660    -999.2500
    2252.0     686.4096      49.5703     144.1257    -999.2500
    2252.5     686.5620      48.6319     146.7892    -999.2500
    2253.0     686.7144      47.1435     149.4505    -999.2500
    2253.5     686.8668      45.7435     152.1140    -999.2500
    2254.0     687.0192      46.0670     154.7774    -999.2500
    2254.5     687.1716      46.3902     157.4064    -999.2500
    2255.0     687.3240      46.7137     160.0254    -999.2500
    2255.5     687.4764      47.0357     162.6423    -999.2500
    2256.0     687.6288      46.4487     165.2608    -999.2500
    2256.5     687.7812      44.2378     167.6023    -999.2500
    2257.0     687.9336      42.0251     168.2144    -999.2500
    2257.5     688.0860      39.8152     168.8260    -999.2500
    2258.0     688.2384      38.3817     169.4382    -999.2500
    2258.5     688.3908      39.6300     170.0497    -999.2500
    2259.0     688.5432      44.8166     170.5764    -999.2500
    2259.5     688.6956      48.1810     171.0324    -999.2500
    2260.0     688.8480      45.1076     171.4886    -999.2500
    2260.5     689.0004      42.0413     171.9446    -999.2500
    2261.0     689.1528      42.8354     172.2421    -999.2500
    2261.5     689.3052      45.5006     172.4405    -999.2500
    2262.0     689.4576      47.5771     172.6387    -999.2500
    2262.5     689.6100      49.4107     172.8369    -999.2500
    2263.0     689.7624      48.1823     172.9721    -999.2500
    2263.5     689.9148      46.9601     173.0779    -999.2500
    2264.0     690.0672      50.1366     173.1836    -999.2500
    2264.5     690.2196      49.4888     173.2894    -999.2500
    2265.0     690.3720      48.0183     173.3951    -999.2500
    2265.5     690.5244      49.5047     173.4991    -999.2500
    2266.0     690.6768      52.2317     172.4603    -999.2500
    2266.5     690.8292      52.4554     171.1012    -999.2500
    2267.0     690.9816      51.7884     169.7422    -999.2500
    2267.5     691.1340      53.0619     168.3842    -999.2500
    2268.0     691.2864      52.0384     167.0252    -999.2500
    2268.5     691.4388      51.6535     165.6672    -999.2500
    2269.0     691.5912      51.6537     164.3082    -999.2500
    2269.5     691.7436      51.7163     162.9494    -999.2500
    2270.0     691.8960      52.7418     160.9506    -999.2500
    2270.5     692.0484      54.3007     158.8945    -999.2500
    2271.0     692.2008      56.3457     156.8369    -999.2500
    2271.5     692.3532      56.1833     154.7808    -999.2500
    2272.0     692.5056      53.9836     152.7231    -999.2500
    2272.5     692.6580      51.7865     150.6670    -999.2500
    2273.0     692.8104      50.3351     148.6094    -999.2500
    2273.5     692.9628      49.2870     146.5517    -999.2500
    2274.0     693.1152      51.2448     144.4969    -999.2500
    2274.5     693.2676      53.0781     143.3729    -999.2500
    2275.0     693.4200      52.3023     142.5811    -999.2500
    2275.5     693.5724      51.5265     142.7419    -999.2500
    2276.0     693.7248      51.0522     143.1836    -999.2500
    2276.5     693.8772      50.9184     143.6257    -999.2500
    2277.0     694.0296      53.1827     144.0673    -999.2500
    2277.5     694.1820      52.6553     144.3913    -999.2500
    2278.0     694.3344      49.3130     144.1930    -999.2500
    2278.5     694.4868      47.8764     143.9946    -999.2500
    2279.0     694.6392      49.4388     143.7963    -999.2500
    2279.5     694.7916      53.9091     143.5979    -999.2500
    2280.0     694.9440      58.3723     143.3999    -999.2500
    2280.5     695.0964      58.9516     143.4545    -999.2500
    2281.0     695.2488      57.4627     144.1449    -999.2500
    2281.5     695.4012      55.3649     144.8348    -999.2500
    2282.0     695.5536      51.6377     145.5153    -999.2500
    2282.5     695.7060      51.4138     144.9682    -999.2500
    2283.0     695.8584      50.7304     144.4206    -999.2500
    2283.5     696.0108      50.5499     143.8737    -999.2500
    2284.0     696.1632      50.7957     143.4758    -999.2500
    2284.5     696.3156      51.0236     143.1337    -999.2500
    2285.0     696.4680      51.0239     142.7915    -999.2500
    2285.5     696.6204      51.2295     142.4492    -999.2500
    2286.0     696.7728      52.5972     142.1080    -999.2500
    2286.5     696.9252      55.9605     142.3115    -999.2500
    2287.0     697.0776      54.9543     143.0931    -999.2500
    2287.5     697.2300      53.6023     143.8754    -999.2500
    2288.0     697.3824      52.2709     144.6570    -999.2500
    2288.5     697.5348      51.7442     145.4393    -999.2500
    2289.0     697.6872      51.3386     146.2209    -999.2500
    2289.5     697.8396      51.3401     147.0032    -999.2500
    2290.0     697.9920      52.2844     147.7848    -999.2500
    2290.5     698.1444      54.9432     148.5660    -999.2500
    2291.0     698.2968      58.7072     148.6205    -999.2500
    2291.5     698.4492      60.0300     147.0432    -999.2500
    2292.0     698.6016      58.6189     145.4660    -999.2500
    2292.5     698.7540      55.0674     143.8899    -999.2500
