~VERSION INFORMATION
VERS.           2.0   :CWLS Log ASCII Standard - VERSION 2.0
WRAP.           NO    :One Line per depth step
PROD.  Schlumberger   :LAS Producer
PROG.  DLIS to ASCII 2.3                               :LAS Program name and version
CREA.        2024/09/17 09:54                          :LAS Creation date {YYYY/MM/DD hh:mm}
DLIS_CREA.  2024-Sep-16 13:59                          :DLIS Creation date and time {YYYY-MMM-DD hh:mm}
SOURCE.     JUT1_Composite-TOTAL.dlis                  :DLIS File Name
FILE-ID.     CSNOUT.001                                :File Identification Number
#--------------------------------------------------
~WELL INFORMATION
#MNEM.UNIT      DATA             DESCRIPTION
#---- ------ --------------   -----------------------------
STRT .F            7.0       :START DEPTH     
STOP .F        11220.0       :STOP DEPTH     
STEP .F            0.5       :STEP     
NULL .          -999.25      :NULL VALUE
COMP .                                                 :COMPANY
WELL .                                                 :WELL
FLD  .                                                 :FIELD
LOC  .                                                 :LOCATION
CNTY .                                                 :COUNTY
STAT .                                                 :STATE
CTRY .                                                 :COUNTRY
API  .                                                 :API NUMBER
UWI  .                                                 :UNIQUE WELL ID
DATE .                                                 :LOG DATE
SRVC .        Schlumberger                             :SERVICE COMPANY
LATI .DEG                                              :LATITUDE
LONG .DEG                                              :LONGITUDE
GDAT .                                                 :GeoDetic Datum
#-----------------------------------------------------------------------------
~PARAMETER INFORMATION
#MNEM.UNIT    VALUE                      DESCRIPTION
#---- -----   --------------------       ------------------------
RUN  .                                   :RUN NUMBER
PDAT .                                   :Permanent Datum
EPD  .                                   :Elevation of Permanent Datum above Mean Sea Level
LMF  .                                   :Logging Measured From (Name of Logging Elevation Reference)
APD  .                                   :Elevation of Depth Reference (LMF) above Permanent Datum
#-----------------------------------------------------------------------------
~CURVE INFORMATION
#MNEM.UNIT   API CODE                                  DESCRIPTION
#---- -----  --------                                  -----------------------
DEPT .F                                                :DEPTH (BOREHOLE) {F10.1}
DEPT .M                                                : {F13.4}
GR   .GAPI                                             : {F13.4}
DT   .US/F                                             : {F13.4}
RHOB .G/C3                                             : {F13.4}
#-----------------------------------------------------------------------------
# 
#     DEPT        DEPT         GR           DT           RHOB
#
~A  
# ...
    7436.5    2266.6452      76.2422      78.2590       2.5258
    7437.0    2266.7976      79.6272      79.7833       2.4887
    7437.5    2266.9500      82.1370      80.6844       2.4423
    7438.0    2267.1024      82.8633      81.1351       2.3936
    7438.5    2267.2548      83.0567      81.5858       2.3452
    7439.0    2267.4072      83.2500      82.0365       2.3623
    7439.5    2267.5596      83.4434      82.4872       2.4719
    7440.0    2267.7120      83.6359      82.9353       2.6005
    7440.5    2267.8644      83.5091      81.2251       2.6878
    7441.0    2268.0168      82.5284      78.4980       2.7268
    7441.5    2268.1692      81.8004      75.7708       2.7324
    7442.0    2268.3216      82.1627      73.0442       2.7077
    7442.5    2268.4740      83.5248      70.5485       2.7016
    7443.0    2268.6264      84.4224      70.3100       2.6970
    7443.5    2268.7788      86.4520      70.0714       2.6929
    7444.0    2268.9312      88.8506      69.8328       2.6455
    7444.5    2269.0836      90.5849      69.5968       2.6520
    7445.0    2269.2360      92.2096      71.9309       2.6428
    7445.5    2269.3884      94.5723      76.8180       2.6232
    7446.0    2269.5408      97.7279      78.6615       2.6410
    7446.5    2269.6932      97.3552      77.8561       2.6790
    7447.0    2269.8456      96.9825      77.0391       2.7070
    7447.5    2269.9980      96.6117      71.6350       2.7132
    7448.0    2270.1504      96.8968      65.8076       2.7060
    7448.5    2270.3028      97.2280      65.6014       2.6989
    7449.0    2270.4552      96.1391      65.7207       2.6917
    7449.5    2270.6076      95.0503      65.8396       2.6987
    7450.0    2270.7600      93.9425      65.6005       2.6940
    7450.5    2270.9124      91.9559      65.1829       2.6860
    7451.0    2271.0648      89.9673      64.7777       2.6784
    7451.5    2271.2172      87.1186      64.6244       2.6726
    7452.0    2271.3696      80.9146      64.4709       2.6795
    7452.5    2271.5220      78.0581      64.3176       2.6927
    7453.0    2271.6744      76.3532      64.1648       2.6895
    7453.5    2271.8268      75.0936      64.3142       2.6989
    7454.0    2271.9792      74.0716      64.8239       2.6939
    7454.5    2272.1316      73.0513      65.3336       2.7036
    7455.0    2272.2840      73.1078      65.8433       2.7104
    7455.5    2272.4364      74.0787      66.3531       2.7066
    7456.0    2272.5888      75.2057      66.8628       2.7130
    7456.5    2272.7412      75.4480      67.3718       2.7093
    7457.0    2272.8936      75.2387      67.6422       2.7047
    7457.5    2273.0460      75.9008      67.1835       2.7033
    7458.0    2273.1984      77.8871      66.7234       2.7077
    7458.5    2273.3508      82.5073      66.2633       2.7102
    7459.0    2273.5032      84.7074      65.8045       2.6917
    7459.5    2273.6556      86.2222      66.0713       2.6755
    7460.0    2273.8080      86.2612      66.7208       2.6721
    7460.5    2273.9604      83.9490      67.3703       2.6800
    7461.0    2274.1128      82.8760      68.0199       2.6811
    7461.5    2274.2652      81.8069      68.6673       2.6937
    7462.0    2274.4176      82.0925      69.3170       2.7048
    7462.5    2274.5700      83.9060      70.1516       2.7094
    7463.0    2274.7224      83.7062      71.0465       2.6934
    7463.5    2274.8748      82.6857      71.9414       2.7087
    7464.0    2275.0272      82.2492      72.8363       2.6977
    7464.5    2275.1796      84.1152      73.7289       2.6867
    7465.0    2275.3320      86.9257      73.7655       2.6796
    7465.5    2275.4844      89.7327      72.9817       2.6844
    7466.0    2275.6368      91.4897      72.2003       2.7003
    7466.5    2275.7892      91.7645      71.4164       2.7041
    7467.0    2275.9416      91.6975      70.6352       2.6935
    7467.5    2276.0940      90.8039      71.9995       2.6807
    7468.0    2276.2464      90.2210      73.5471       2.6735
    7468.5    2276.3988      90.3042      73.4377       2.6753
    7469.0    2276.5512      90.9856      73.2468       2.6711
    7469.5    2276.7036      91.6629      73.0559       2.6661
    7470.0    2276.8560      91.0468      72.8327       2.6652
    7470.5    2277.0084      89.8582      72.5948       2.6733
    7471.0    2277.1608      88.6680      72.3562       2.6674
    7471.5    2277.3132      89.5746      72.1176       2.6689
    7472.0    2277.4656      91.1360      71.8790       2.6717
    7472.5    2277.6180      93.3102      71.6403       2.6770
    7473.0    2277.7704      94.6138      71.4027       2.6845
    7473.5    2277.9228      95.0894      71.5713       2.6827
    7474.0    2278.0752      94.3530      72.2076       2.6823
    7474.5    2278.2276      93.6182      72.8418       2.6845
    7475.0    2278.3800      91.1401      73.4772       2.6847
    7475.5    2278.5324      88.9980      72.9848       2.6754
    7476.0    2278.6848      88.2117      71.8721       2.6597
    7476.5    2278.8372      88.9759      72.1007       2.6545
    7477.0    2278.9896      89.3632      72.3294       2.6539
    7477.5    2279.1420      89.1685      72.5581       2.6673
    7478.0    2279.2944      88.4271      72.7867       2.6766
    7478.5    2279.4468      88.9262      73.0154       2.6667
    7479.0    2279.5992      87.5005      73.2433       2.5804
    7479.5    2279.7516      86.5881      73.4717       2.4496
    7480.0    2279.9040      86.9444      73.3555       2.3187
    7480.5    2280.0564      86.1449      72.6056       2.1878
    7481.0    2280.2088      85.6951      71.8556       2.0431
    7481.5    2280.3612      86.2316      71.1056       1.7950
    7482.0    2280.5136      86.7665      70.3853       1.6136
    7482.5    2280.6660      86.7199      80.4989       1.8055
    7483.0    2280.8184      86.7477      93.9787       1.9973
    7483.5    2280.9708      87.1874     107.4104       2.2063
    7484.0    2281.1232      87.0715     112.8306       2.2971
    7484.5    2281.2756      85.8634     109.6890       2.3378
    7485.0    2281.4280      83.8977     106.5473       2.4120
    7485.5    2281.5804      82.4044     103.4057       2.4597
    7486.0    2281.7328      80.9686     100.2640       2.3852
    7486.5    2281.8852      77.6985      97.1224       2.3156
    7487.0    2282.0376      74.2646      93.9808       2.2548
    7487.5    2282.1899      70.8430      90.8504       2.2074
    7488.0    2282.3424      68.6306      93.0189       2.2420
    7488.5    2282.4948      72.0886      98.4756       2.4055
    7489.0    2282.6472      80.0468     103.9164       2.5055
    7489.5    2282.7996      90.1835      98.6213       2.6044
    7490.0    2282.9520     101.6760      93.2631       2.6806
    7490.5    2283.1044     104.5806      87.9048       2.6916
    7491.0    2283.2568     104.0827      82.5465       2.6801
    7491.5    2283.4092     101.1831      77.1883       2.6725
    7492.0    2283.5616      97.9920      71.8471       2.6770
    7492.5    2283.7140      94.5736      66.4932       2.6890
    7493.0    2283.8664      90.7237      66.0806       2.6956
    7493.5    2284.0188      88.8747      67.0350       2.6946
    7494.0    2284.1712      88.5266      67.9882       2.6975
    7494.5    2284.3236      88.4112      68.3892       2.6963
    7495.0    2284.4760      88.2959      68.2500       2.6999
    7495.5    2284.6284      88.1795      68.1108       2.7033
    7496.0    2284.7808      87.7251      67.9755       2.6821
    7496.5    2284.9332      86.4274      68.9627       2.6333
    7497.0    2285.0856      84.7689      70.7998       2.5788
    7497.5    2285.2380      84.8496      72.6369       2.5045
    7498.0    2285.3904      87.0590      74.5021       2.4301
    7498.5    2285.5428      89.2639      76.4349       2.3559
    7499.0    2285.6952      89.3041      78.3678       2.3414
    7499.5    2285.8476      88.1895      80.3006       2.3704
