~VERSION INFORMATION
VERS.           2.0   :CWLS Log ASCII Standard - VERSION 2.0
WRAP.           NO    :One Line per depth step
PROD.  Schlumberger   :LAS Producer
PROG.  DLIS to ASCII 2.3                               :LAS Program name and version
CREA.        2024/09/17 09:54                          :LAS Creation date {YYYY/MM/DD hh:mm}
DLIS_CREA.  2024-Sep-16 13:59                          :DLIS Creation date and time {YYYY-MMM-DD hh:mm}
SOURCE.     JUT1_Composite-TOTAL.dlis                  :DLIS File Name
FILE-ID.     CSNOUT.001                                :File Identification Number
#--------------------------------------------------
~WELL INFORMATION
#MNEM.UNIT      DATA             DESCRIPTION
#---- ------ --------------   -----------------------------
STRT .F            7.0       :START DEPTH     
STOP .F        11220.0       :STOP DEPTH     
STEP .F            0.5       :STEP     
NULL .          -999.25      :NULL VALUE
COMP .                                                 :COMPANY
WELL .                                                 :WELL
FLD  .                                                 :FIELD
LOC  .                                                 :LOCATION
CNTY .                                                 :COUNTY
STAT .                                                 :STATE
CTRY .                                                 :COUNTRY
API  .                                                 :API NUMBER
UWI  .                                                 :UNIQUE WELL ID
DATE .                                                 :LOG DATE
SRVC .        Schlumberger                             :SERVICE COMPANY
LATI .DEG                                              :LATITUDE
LONG .DEG                                              :LONGITUDE
GDAT .                                                 :GeoDetic Datum
#-----------------------------------------------------------------------------
~PARAMETER INFORMATION
#MNEM.UNIT    VALUE                      DESCRIPTION
#---- -----   --------------------       ------------------------
RUN  .                                   :RUN NUMBER
PDAT .                                   :Permanent Datum
EPD  .                                   :Elevation of Permanent Datum above Mean Sea Level
LMF  .                                   :Logging Measured From (Name of Logging Elevation Reference)
APD  .                                   :Elevation of Depth Reference (LMF) above Permanent Datum
#-----------------------------------------------------------------------------
~CURVE INFORMATION
#MNEM.UNIT   API CODE                                  DESCRIPTION
#---- -----  --------                                  -----------------------
DEPT .F                                                :DEPTH (BOREHOLE) {F10.1}
DEPT .M                                                : {F13.4}
GR   .GAPI                                             : {F13.4}
DT   .US/F                                             : {F13.4}
RHOB .G/C3                                             : {F13.4}
#-----------------------------------------------------------------------------
# 
#     DEPT        DEPT         GR           DT           RHOB
#
~A  
# ...
   11183.0    3408.5784      19.8402    -999.2500    -999.2500
   11183.5    3408.7308      18.0632    -999.2500    -999.2500
   11184.0    3408.8832      19.3137    -999.2500    -999.2500
   11184.5    3409.0356      17.5399    -999.2500    -999.2500
   11185.0    3409.1880      19.2666    -999.2500    -999.2500
   11185.5    3409.3404      20.7058    -999.2500    -999.2500
   11186.0    3409.4928      24.3196    -999.2500    -999.2500
   11186.5    3409.6452      25.2738    -999.2500    -999.2500
   11187.0    3409.7976      25.9705    -999.2500    -999.2500
   11187.5    3409.9500      26.2797    -999.2500    -999.2500
   11188.0    3410.1024      24.6987    -999.2500    -999.2500
   11188.5    3410.2548      22.5825    -999.2500    -999.2500
   11189.0    3410.4072      21.3064    -999.2500    -999.2500
   11189.5    3410.5596      20.6048    -999.2500    -999.2500
   11190.0    3410.7120      20.9007    -999.2500    -999.2500
   11190.5    3410.8644      20.8006    -999.2500    -999.2500
   11191.0    3411.0168      20.2370    -999.2500    -999.2500
   11191.5    3411.1692      19.6819    -999.2500    -999.2500
   11192.0    3411.3216      24.2007    -999.2500    -999.2500
   11192.5    3411.4740      26.6160    -999.2500    -999.2500
   11193.0    3411.6264      25.1018    -999.2500    -999.2500
   11193.5    3411.7788      22.8446    -999.2500    -999.2500
   11194.0    3411.9312      21.5517    -999.2500    -999.2500
   11194.5    3412.0836      22.1146    -999.2500    -999.2500
   11195.0    3412.2360      23.6607    -999.2500    -999.2500
   11195.5    3412.3884      23.2980    -999.2500    -999.2500
   11196.0    3412.5408      22.8735    -999.2500    -999.2500
   11196.5    3412.6932      23.0114    -999.2500    -999.2500
   11197.0    3412.8456      22.4125    -999.2500    -999.2500
   11197.5    3412.9980      19.9379    -999.2500    -999.2500
   11198.0    3413.1504      18.1662    -999.2500    -999.2500
   11198.5    3413.3028      21.7194    -999.2500    -999.2500
   11199.0    3413.4552      24.7919    -999.2500    -999.2500
   11199.5    3413.6076      29.5901    -999.2500    -999.2500
   11200.0    3413.7600      34.5962    -999.2500    -999.2500
   11200.5    3413.9124      32.3199    -999.2500    -999.2500
   11201.0    3414.0648      18.5669    -999.2500    -999.2500
   11201.5    3414.2172      19.2808    -999.2500    -999.2500
   11202.0    3414.3696      19.8601    -999.2500    -999.2500
   11202.5    3414.5220      22.8620    -999.2500    -999.2500
   11203.0    3414.6744      21.6562    -999.2500    -999.2500
   11203.5    3414.8268      20.2716    -999.2500    -999.2500
   11204.0    3414.9792      20.6963    -999.2500    -999.2500
   11204.5    3415.1316      20.2753    -999.2500    -999.2500
   11205.0    3415.2840      20.6856    -999.2500    -999.2500
   11205.5    3415.4364      21.0525    -999.2500    -999.2500
   11206.0    3415.5888      21.5768    -999.2500    -999.2500
   11206.5    3415.7412      19.7987    -999.2500    -999.2500
   11207.0    3415.8936      20.0522    -999.2500    -999.2500
   11207.5    3416.0460      20.1529    -999.2500    -999.2500
   11208.0    3416.1984      20.4641    -999.2500    -999.2500
   11208.5    3416.3508      19.8754    -999.2500    -999.2500
   11209.0    3416.5032      17.9483    -999.2500    -999.2500
   11209.5    3416.6556      19.4569    -999.2500    -999.2500
   11210.0    3416.8080      21.9674    -999.2500    -999.2500
   11210.5    3416.9604      21.8397    -999.2500    -999.2500
   11211.0    3417.1128      21.6216    -999.2500    -999.2500
   11211.5    3417.2652      21.2175    -999.2500    -999.2500
   11212.0    3417.4176      20.2574    -999.2500    -999.2500
   11212.5    3417.5700      20.4226    -999.2500    -999.2500
   11213.0    3417.7224      21.3731    -999.2500    -999.2500
   11213.5    3417.8748      21.0333    -999.2500    -999.2500
   11214.0    3418.0272      20.6960    -999.2500    -999.2500
   11214.5    3418.1796      21.4323    -999.2500    -999.2500
   11215.0    3418.3320      23.5736    -999.2500    -999.2500
   11215.5    3418.4844      23.4119    -999.2500    -999.2500
   11216.0    3418.6368      22.5146    -999.2500    -999.2500
   11216.5    3418.7892      24.2968    -999.2500    -999.2500
   11217.0    3418.9416      24.5210    -999.2500    -999.2500
   11217.5    3419.0940      23.8063    -999.2500    -999.2500
   11218.0    3419.2464      22.6937    -999.2500    -999.2500
   11218.5    3419.3988      22.2458    -999.2500    -999.2500
   11219.0    3419.5512      23.2802    -999.2500    -999.2500
   11219.5    3419.7036      21.9151    -999.2500    -999.2500
   11220.0    3419.8560      22.1944    -999.2500    -999.2500
