~VERSION INFORMATION
VERS.           2.0   :CWLS Log ASCII Standard - VERSION 2.0
WRAP.           NO    :One Line per depth step
PROD.  Schlumberger   :LAS Producer
PROG.  DLIS to ASCII 2.3                               :LAS Program name and version
CREA.        2024/09/17 09:54                          :LAS Creation date {YYYY/MM/DD hh:mm}
DLIS_CREA.  2024-Sep-16 13:59                          :DLIS Creation date and time {YYYY-MMM-DD hh:mm}
SOURCE.     JUT1_Composite-TOTAL.dlis                  :DLIS File Name
FILE-ID.     CSNOUT.001                                :File Identification Number
#--------------------------------------------------
~WELL INFORMATION
#MNEM.UNIT      DATA             DESCRIPTION
#---- ------ --------------   -----------------------------
STRT .F            7.0       :START DEPTH     
STOP .F        11220.0       :STOP DEPTH     
STEP .F            0.5       :STEP     
NULL .          -999.25      :NULL VALUE
COMP .                                                 :COMPANY
WELL .                                                 :WELL
FLD  .                                                 :FIELD
LOC  .                                                 :LOCATION
CNTY .                                                 :COUNTY
STAT .                                                 :STATE
CTRY .                                                 :COUNTRY
API  .                                                 :API NUMBER
UWI  .                                                 :UNIQUE WELL ID
DATE .                                                 :LOG DATE
SRVC .        Schlumberger                             :SERVICE COMPANY
LATI .DEG                                              :LATITUDE
LONG .DEG                                              :LONGITUDE
GDAT .                                                 :GeoDetic Datum
#-----------------------------------------------------------------------------
~PARAMETER INFORMATION
#MNEM.UNIT    VALUE                      DESCRIPTION
#---- -----   --------------------       ------------------------
RUN  .                                   :RUN NUMBER
PDAT .                                   :Permanent Datum
EPD  .                                   :Elevation of Permanent Datum above Mean Sea Level
LMF  .                                   :Logging Measured From (Name of Logging Elevation Reference)
APD  .                                   :Elevation of Depth Reference (LMF) above Permanent Datum
#-----------------------------------------------------------------------------
~CURVE INFORMATION
#MNEM.UNIT   API CODE                                  DESCRIPTION
#---- -----  --------                                  -----------------------
DEPT .F                                                :DEPTH (BOREHOLE) {F10.1}
DEPT .M                                                : {F13.4}
GR   .GAPI                                             : {F13.4}
DT   .US/F                                             : {F13.4}
RHOB .G/C3                                             : {F13.4}
#-----------------------------------------------------------------------------
# 
#     DEPT        DEPT         GR           DT           RHOB
#
~A  
# ...
    5214.0    1589.2272      78.5484      78.3252       2.6628
    5214.5    1589.3796      79.4222      78.9500       2.6889
    5215.0    1589.5320      73.9404      76.5388       2.7062
    5215.5    1589.6844      67.3544      74.1276       2.7249
    5216.0    1589.8368      60.7789      71.7202       2.7449
    5216.5    1589.9892      54.1987      69.3090       2.7592
    5217.0    1590.1416      52.3510      66.8978       2.7447
    5217.5    1590.2940      54.1157      64.4866       2.7232
    5218.0    1590.4464      59.0874      62.0852       2.7033
    5218.5    1590.5988      64.4877      63.8852       2.6966
    5219.0    1590.7512      70.2299      66.2786       2.6925
    5219.5    1590.9036      75.7830      68.6720       2.6967
    5220.0    1591.0560      78.2905      71.0654       2.7023
    5220.5    1591.2084      79.8635      73.4546       2.7064
    5221.0    1591.3608      80.8573      75.5000       2.7073
    5221.5    1591.5132      81.5742      76.6961       2.6987
    5222.0    1591.6656      82.3261      76.5296       2.6910
    5222.5    1591.8180      83.7775      76.3635       2.6888
    5223.0    1591.9704      85.1655      76.2097       2.6953
    5223.5    1592.1228      83.2567      76.3287       2.7024
    5224.0    1592.2752      80.8805      76.4466       2.7014
    5224.5    1592.4276      75.8217      76.0133       2.6963
    5225.0    1592.5800      69.8835      74.8260       2.7056
    5225.5    1592.7324      66.3087      73.6373       2.7130
    5226.0    1592.8848      65.3312      72.7151       2.7214
    5226.5    1593.0372      66.0322      73.3778       2.7260
    5227.0    1593.1896      68.3848      74.0395       2.7163
    5227.5    1593.3420      71.0784      74.7022       2.7106
    5228.0    1593.4944      74.4865      75.3642       2.7185
    5228.5    1593.6468      78.2462      75.5670       2.7170
    5229.0    1593.7992      81.9982      75.4008       2.7216
    5229.5    1593.9516      83.7661      75.2342       2.7114
    5230.0    1594.1040      83.8141      74.9737       2.6906
    5230.5    1594.2564      81.1775      74.4685       2.6670
    5231.0    1594.4088      76.9978      73.9641       2.6682
    5231.5    1594.5612      74.5299      73.8515       2.6740
    5232.0    1594.7136      73.7243      73.9468       2.6799
    5232.5    1594.8660      74.9583      74.0415       2.6996
    5233.0    1595.0184      76.0409      73.8615       2.7199
    5233.5    1595.1708      73.9423      73.2283       2.7434
    5234.0    1595.3232      66.7611      72.6588       2.7552
    5234.5    1595.4756      56.7832      71.9532       2.7797
    5235.0    1595.6280      46.5788      69.1581       2.8482
    5235.5    1595.7804      34.4500      66.3674       2.9164
    5236.0    1595.9328      25.3105      63.5722       2.9353
    5236.5    1596.0852      20.7442      60.7771       2.9446
    5237.0    1596.2376      18.4103      57.9819       2.9400
    5237.5    1596.3900      17.5143      55.1867       2.9236
    5238.0    1596.5424      16.3640      52.3968       2.9245
    5238.5    1596.6948      14.7697      50.2667       2.9446
    5239.0    1596.8472      13.9036      50.3317       2.9572
    5239.5    1596.9996      13.7441      50.3966       2.9662
    5240.0    1597.1520      13.5857      50.4614       2.9685
    5240.5    1597.3044      14.3757      50.5264       2.9601
    5241.0    1597.4568      15.3122      50.5913       2.9602
    5241.5    1597.6092      16.2473      50.6562       2.9568
    5242.0    1597.7616      16.5108      50.7218       2.9481
    5242.5    1597.9140      16.2697      50.8238       2.9371
    5243.0    1598.0664      15.8266      50.9258       2.9250
    5243.5    1598.2188      17.3635      51.0278       2.9087
    5244.0    1598.3712      22.4026      51.1340       2.8941
    5244.5    1598.5236      32.9685      53.0526       2.8582
    5245.0    1598.6760      44.9012      57.3738       2.7843
    5245.5    1598.8284      57.4457      61.6951       2.7348
    5246.0    1598.9808      68.2504      66.0163       2.7229
    5246.5    1599.1332      66.3618      70.3306       2.7390
    5247.0    1599.2856      59.3010      74.6459       2.7608
    5247.5    1599.4380      46.0348      74.4262       2.7958
    5248.0    1599.5904      32.7727      70.1970       2.8762
    5248.5    1599.7428      21.5457      65.9744       2.9138
    5249.0    1599.8952      17.7232      61.7451       2.9311
    5249.5    1600.0476      17.5049      57.5158       2.9370
    5250.0    1600.2000      17.6599      53.2920       2.9332
    5250.5    1600.3524      20.6237      51.9298       2.9319
    5251.0    1600.5048      26.4867      52.2385       2.9284
    5251.5    1600.6572      34.9927      52.5498       2.8980
    5252.0    1600.8096      47.0681      54.2695       2.8378
    5252.5    1600.9620      57.5812      58.5665       2.7699
    5253.0    1601.1144      67.4608      62.8566       2.7278
    5253.5    1601.2668      72.8131      67.1536       2.7116
    5254.0    1601.4192      73.2384      71.4499       2.7189
    5254.5    1601.5716      72.2887      75.3191       2.7240
    5255.0    1601.7240      67.6379      75.7348       2.7275
    5255.5    1601.8764      60.9789      76.1489       2.7397
    5256.0    1602.0288      54.9495      74.6248       2.7643
    5256.5    1602.1812      50.7506      71.0574       2.7908
    5257.0    1602.3336      48.3741      67.4901       2.8084
    5257.5    1602.4860      48.0655      63.9284       2.8075
    5258.0    1602.6384      52.0670      60.3737       2.7929
    5258.5    1602.7908      57.6818      65.7074       2.7727
    5259.0    1602.9432      63.0175      68.7901       2.7038
    5259.5    1603.0956      61.6525      69.0174       2.7028
    5260.0    1603.2480      57.0510      67.8083       2.6984
    5260.5    1603.4004      55.6888      66.5993       2.6832
    5261.0    1603.5528      58.0958      65.3938       2.6894
    5261.5    1603.7052      64.6683      65.9771       2.7000
    5262.0    1603.8576      71.2514      70.0217       2.6599
    5262.5    1604.0100      77.8332      74.0658       2.6217
    5263.0    1604.1624      83.6074      77.8736       2.6105
    5263.5    1604.3148      85.7962      78.2900       2.5990
    5264.0    1604.4672      85.5725      78.7061       2.5622
    5264.5    1604.6196      84.3962      79.5273       2.5323
    5265.0    1604.7720      84.4465      80.8593       2.5398
    5265.5    1604.9244      84.6253      82.1900       2.5391
    5266.0    1605.0768      84.2532      82.9225       2.5252
    5266.5    1605.2292      82.5253      80.6031       2.5139
    5267.0    1605.3816      80.1905      78.2837       2.5544
    5267.5    1605.5340      78.3901      75.9643       2.5927
    5268.0    1605.6864      78.8419      73.6487       2.6470
    5268.5    1605.8388      80.8287      71.3341       2.6724
    5269.0    1605.9912      83.0766      73.1356       2.6688
    5269.5    1606.1436      84.0010      75.3000       2.6698
    5270.0    1606.2960      82.4308      77.4593       2.6784
    5270.5    1606.4484      81.5320      77.3825       2.6699
    5271.0    1606.6008      81.3893      76.0503       2.6993
    5271.5    1606.7532      81.3170      74.7189       2.7110
    5272.0    1606.9056      81.0926      73.8985       2.7123
    5272.5    1607.0580      79.8945      73.9699       2.7105
    5273.0    1607.2104      77.7276      74.0410       2.7183
    5273.5    1607.3628      70.5401      73.9170       2.7177
    5274.0    1607.5152      63.1932      71.7287       2.7387
    5274.5    1607.6676      57.0404      69.5438       2.7585
    5275.0    1607.8200      52.2847      67.3554       2.7765
    5275.5    1607.9724      51.5661      65.1670       2.7951
    5276.0    1608.1248      55.0720      62.9787       2.7780
    5276.5    1608.2772      59.3901      60.7971       2.7536
    5277.0    1608.4296      62.9274      61.6415       2.7416
