~VERSION INFORMATION
VERS.           2.0   :CWLS Log ASCII Standard - VERSION 2.0
WRAP.           NO    :One Line per depth step
PROD.  Schlumberger   :LAS Producer
PROG.  DLIS to ASCII 2.3                               :LAS Program name and version
CREA.        2024/09/17 09:54                          :LAS Creation date {YYYY/MM/DD hh:mm}
DLIS_CREA.  2024-Sep-16 13:59                          :DLIS Creation date and time {YYYY-MMM-DD hh:mm}
SOURCE.     JUT1_Composite-TOTAL.dlis                  :DLIS File Name
FILE-ID.     CSNOUT.001                                :File Identification Number
#--------------------------------------------------
~WELL INFORMATION
#MNEM.UNIT      DATA             DESCRIPTION
#---- ------ --------------   -----------------------------
STRT .F            7.0       :START DEPTH     
STOP .F        11220.0       :STOP DEPTH     
STEP .F            0.5       :STEP     
NULL .          -999.25      :NULL VALUE
COMP .                                                 :COMPANY
WELL .                                                 :WELL
FLD  .                                                 :FIELD
LOC  .                                                 :LOCATION
CNTY .                                                 :COUNTY
STAT .                                                 :STATE
CTRY .                                                 :COUNTRY
API  .                                                 :API NUMBER
UWI  .                                                 :UNIQUE WELL ID
DATE .                                                 :LOG DATE
SRVC .        Schlumberger                             :SERVICE COMPANY
LATI .DEG                                              :LATITUDE
LONG .DEG                                              :LONGITUDE
GDAT .                                                 :GeoDetic Datum
#-----------------------------------------------------------------------------
~PARAMETER INFORMATION
#MNEM.UNIT    VALUE                      DESCRIPTION
#---- -----   --------------------       ------------------------
RUN  .                                   :RUN NUMBER
PDAT .                                   :Permanent Datum
EPD  .                                   :Elevation of Permanent Datum above Mean Sea Level
LMF  .                                   :Logging Measured From (Name of Logging Elevation Reference)
APD  .                                   :Elevation of Depth Reference (LMF) above Permanent Datum
#-----------------------------------------------------------------------------
~CURVE INFORMATION
#MNEM.UNIT   API CODE                                  DESCRIPTION
#---- -----  --------                                  -----------------------
DEPT .F                                                :DEPTH (BOREHOLE) {F10.1}
DEPT .M                                                : {F13.4}
GR   .GAPI                                             : {F13.4}
DT   .US/F                                             : {F13.4}
RHOB .G/C3                                             : {F13.4}
#-----------------------------------------------------------------------------
# 
#     DEPT        DEPT         GR           DT           RHOB
#
~A  
# ...
   10421.0    3176.3208      49.2660      66.7970       2.7672
   10421.5    3176.4731      48.2829      67.0886       2.7765
   10422.0    3176.6256      48.1927      67.3814       2.7830
   10422.5    3176.7780      45.7749      67.6741       2.7889
   10423.0    3176.9304      42.3177      67.9659       2.8012
   10423.5    3177.0828      37.8606      67.6176       2.8135
   10424.0    3177.2352      33.3712      66.2408       2.8263
   10424.5    3177.3876      30.6666      64.8640       2.8347
   10425.0    3177.5400      30.4149      63.4872       2.8293
   10425.5    3177.6924      31.5712      62.1105       2.8110
   10426.0    3177.8448      34.2010      60.7381       2.7877
   10426.5    3177.9972      37.5159      59.3617       2.7697
   10427.0    3178.1496      40.8294      58.4478       2.7879
   10427.5    3178.3020      43.0662      59.8105       2.7943
   10428.0    3178.4544      45.1218      61.1732       2.7884
   10428.5    3178.6068      49.8775      62.5359       2.7736
   10429.0    3178.7592      52.1446      63.8971       2.7614
   10429.5    3178.9116      52.3033      64.6953       2.7538
   10430.0    3179.0640      51.2416      65.0805       2.7682
   10430.5    3179.2164      50.3501      65.4645       2.7774
   10431.0    3179.3688      51.0883      65.8498       2.7663
   10431.5    3179.5212      48.9200      66.2350       2.7538
   10432.0    3179.6736      45.9034      66.6202       2.7571
   10432.5    3179.8260      46.3981      67.0055       2.7719
   10433.0    3179.9784      48.4736      67.3906       2.7738
   10433.5    3180.1308      47.4196      67.7099       2.7609
   10434.0    3180.2832      45.5840      66.8153       2.7490
   10434.5    3180.4355      49.5154      65.9240       2.7553
   10435.0    3180.5880      51.2788      65.6562       2.7581
   10435.5    3180.7404      49.1153      66.2325       2.7522
   10436.0    3180.8928      45.3848      66.8089       2.7462
   10436.5    3181.0452      43.9926      67.3847       2.7586
   10437.0    3181.1976      42.8987      67.6388       2.7593
   10437.5    3181.3500      41.6758      67.5593       2.7625
   10438.0    3181.5024      43.7887      67.4798       2.7958
   10438.5    3181.6548      47.2517      67.4003       2.8060
   10439.0    3181.8072      49.4436      67.3211       2.7997
   10439.5    3181.9596      50.6763      67.2419       2.7930
   10440.0    3182.1120      50.7101      67.4799       2.8110
   10440.5    3182.2644      47.3731      67.9419       2.8360
   10441.0    3182.4168      43.1130      68.4039       2.8696
   10441.5    3182.5692      35.7170      68.8660       2.9168
   10442.0    3182.7216      26.4739      69.3239       2.9674
   10442.5    3182.8740      17.2366      68.2741       2.9661
   10443.0    3183.0264       9.9269      64.2882       2.9609
   10443.5    3183.1788       6.5433      60.3151       2.9662
   10444.0    3183.3312       5.6263      56.3292       2.9673
   10444.5    3183.4836       5.7442      52.3470       2.9779
   10445.0    3183.6360       5.0294      51.0992       2.9714
   10445.5    3183.7884       4.3586      50.7822       2.9809
   10446.0    3183.9408       4.1259      51.0283       2.9783
   10446.5    3184.0932       4.4235      51.4338       2.9649
   10447.0    3184.2456       4.4603      51.8383       2.9684
   10447.5    3184.3979       4.5308      51.9215       2.9744
   10448.0    3184.5504       4.9380      51.6829       2.9832
   10448.5    3184.7028       5.3452      51.4445       2.9918
   10449.0    3184.8552       5.9586      51.2060       2.9961
   10449.5    3185.0076       7.0771      50.9677       2.9717
   10450.0    3185.1600       8.2115      50.7897       2.9294
   10450.5    3185.3124       9.8960      50.7897       2.8825
   10451.0    3185.4648      14.3125      50.7899       2.8368
   10451.5    3185.6172      20.1985      50.8661       2.7920
   10452.0    3185.7696      30.5523      51.3325       2.7845
   10452.5    3185.9220      39.8835      53.7782       2.7906
   10453.0    3186.0744      36.5410      57.2363       2.8122
   10453.5    3186.2268      33.6564      60.6944       2.8539
   10454.0    3186.3792      34.4450      64.1464       2.8880
   10454.5    3186.5316      31.2923      64.4911       2.9037
   10455.0    3186.6840      25.3030      63.6564       2.9297
   10455.5    3186.8364      19.3138      62.8200       2.9594
   10456.0    3186.9888      13.3247      61.4640       2.9808
   10456.5    3187.1412       7.3570      59.4701       2.9747
   10457.0    3187.2936       5.7230      57.4697       2.9686
   10457.5    3187.4460       5.9162      55.4694       2.9589
   10458.0    3187.5984       7.2342      53.4691       2.9200
   10458.5    3187.7508      10.1513      51.4715       2.8811
   10459.0    3187.9032      13.7314      50.7711       2.8423
   10459.5    3188.0556      17.3190      51.1724       2.8034
   10460.0    3188.2080      23.5850      52.8681       2.7646
   10460.5    3188.3604      32.2704      55.5116       2.7764
   10461.0    3188.5128      37.6078      58.1653       2.7771
   10461.5    3188.6652      39.3465      60.8181       2.7826
   10462.0    3188.8176      41.9446      63.4692       2.7925
   10462.5    3188.9700      38.8770      64.8388       2.8065
   10463.0    3189.1224      33.5255      63.5720       2.8203
   10463.5    3189.2748      39.8623      62.3052       2.7942
   10464.0    3189.4272      46.5898      61.0384       2.7642
   10464.5    3189.5796      49.6776      59.7724       2.7481
   10465.0    3189.7320      50.2681      58.7688       2.7664
   10465.5    3189.8844      48.8544      60.8128       2.7848
   10466.0    3190.0368      46.1595      62.8569       2.7944
   10466.5    3190.1892      43.7636      64.9009       2.7808
   10467.0    3190.3416      42.3064      66.9429       2.7873
   10467.5    3190.4940      44.5266      67.9324       2.7780
   10468.0    3190.6464      47.9454      67.8131       2.7621
   10468.5    3190.7988      53.8423      67.6969       2.7511
   10469.0    3190.9512      57.0721      68.6077       2.7549
   10469.5    3191.1036      51.7209      69.6776       2.7705
   10470.0    3191.2560      47.5134      70.7499       2.7787
   10470.5    3191.4084      44.2017      70.7677       2.7761
   10471.0    3191.5608      46.3061      70.0353       2.7570
   10471.5    3191.7132      50.3555      69.3028       2.7452
   10472.0    3191.8656      50.6638      68.5704       2.7538
   10472.5    3192.0180      50.8746      67.8407       2.7642
   10473.0    3192.1704      51.0955      68.1190       2.7635
   10473.5    3192.3228      51.6598      68.4042       2.7521
   10474.0    3192.4752      47.7923      68.6901       2.7440
   10474.5    3192.6276      43.9290      68.3047       2.7497
   10475.0    3192.7800      42.9398      67.6492       2.7636
   10475.5    3192.9324      45.0822      67.0203       2.7608
   10476.0    3193.0848      45.8367      66.6625       2.7543
   10476.5    3193.2372      46.0153      66.3048       2.7514
   10477.0    3193.3896      48.3644      65.9508       2.7520
   10477.5    3193.5420      51.5852      66.8957       2.7588
   10478.0    3193.6944      49.4234      68.1437       2.7891
   10478.5    3193.8468      45.1495      69.3958       2.8324
   10479.0    3193.9992      37.5714      70.6428       2.8564
   10479.5    3194.1516      28.6153      67.5143       2.8242
   10480.0    3194.3040      21.8196      63.7498       2.7920
   10480.5    3194.4564      22.4177      59.9854       2.7607
   10481.0    3194.6088      33.5620      56.2253       2.7740
   10481.5    3194.7612      40.4067      54.1192       2.8005
   10482.0    3194.9136      38.6177      56.2059       2.8124
   10482.5    3195.0660      32.3307      58.2860       2.8199
   10483.0    3195.2184      30.7314      60.3719       2.8266
   10483.5    3195.3708      30.9072      61.4739       2.8174
   10484.0    3195.5232      31.9028      60.7194       2.8263
