~VERSION INFORMATION
VERS.           2.0   :CWLS Log ASCII Standard - VERSION 2.0
WRAP.           NO    :One Line per depth step
PROD.  Schlumberger   :LAS Producer
PROG.  DLIS to ASCII 2.3                               :LAS Program name and version
CREA.        2024/09/17 09:54                          :LAS Creation date {YYYY/MM/DD hh:mm}
DLIS_CREA.  2024-Sep-16 13:59                          :DLIS Creation date and time {YYYY-MMM-DD hh:mm}
SOURCE.     JUT1_Composite-TOTAL.dlis                  :DLIS File Name
FILE-ID.     CSNOUT.001                                :File Identification Number
#--------------------------------------------------
~WELL INFORMATION
#MNEM.UNIT      DATA             DESCRIPTION
#---- ------ --------------   -----------------------------
STRT .F            7.0       :START DEPTH     
STOP .F        11220.0       :STOP DEPTH     
STEP .F            0.5       :STEP     
NULL .          -999.25      :NULL VALUE
COMP .                                                 :COMPANY
WELL .                                                 :WELL
FLD  .                                                 :FIELD
LOC  .                                                 :LOCATION
CNTY .                                                 :COUNTY
STAT .                                                 :STATE
CTRY .                                                 :COUNTRY
API  .                                                 :API NUMBER
UWI  .                                                 :UNIQUE WELL ID
DATE .                                                 :LOG DATE
SRVC .        Schlumberger                             :SERVICE COMPANY
LATI .DEG                                              :LATITUDE
LONG .DEG                                              :LONGITUDE
GDAT .                                                 :GeoDetic Datum
#-----------------------------------------------------------------------------
~PARAMETER INFORMATION
#MNEM.UNIT    VALUE                      DESCRIPTION
#---- -----   --------------------       ------------------------
RUN  .                                   :RUN NUMBER
PDAT .                                   :Permanent Datum
EPD  .                                   :Elevation of Permanent Datum above Mean Sea Level
LMF  .                                   :Logging Measured From (Name of Logging Elevation Reference)
APD  .                                   :Elevation of Depth Reference (LMF) above Permanent Datum
#-----------------------------------------------------------------------------
~CURVE INFORMATION
#MNEM.UNIT   API CODE                                  DESCRIPTION
#---- -----  --------                                  -----------------------
DEPT .F                                                :DEPTH (BOREHOLE) {F10.1}
DEPT .M                                                : {F13.4}
GR   .GAPI                                             : {F13.4}
DT   .US/F                                             : {F13.4}
RHOB .G/C3                                             : {F13.4}
#-----------------------------------------------------------------------------
# 
#     DEPT        DEPT         GR           DT           RHOB
#
~A  
# ...
    9722.5    2963.4180      51.8333      53.6711       2.7121
    9723.0    2963.5704      52.0657      53.3175       2.6967
    9723.5    2963.7228      52.4287      53.5726       2.6872
    9724.0    2963.8752      51.5377      53.8891       2.7036
    9724.5    2964.0276      50.9362      53.8175       2.7018
    9725.0    2964.1800      51.8812      53.7382       2.6834
    9725.5    2964.3324      54.2095      53.6590       2.6978
    9726.0    2964.4848      55.7044      53.6505       2.7152
    9726.5    2964.6372      57.3011      55.1225       2.7109
    9727.0    2964.7896      60.2005      56.5894       2.7018
    9727.5    2964.9420      63.1130      58.0619       2.7106
    9728.0    2965.0944      68.8363      59.5340       2.7225
    9728.5    2965.2468      75.4118      61.0048       2.7336
    9729.0    2965.3992      83.0149      61.5707       2.7395
    9729.5    2965.5516      91.1233      61.8978       2.7302
    9730.0    2965.7040      99.0899      62.2250       2.7206
    9730.5    2965.8564     101.8701      62.5521       2.7253
    9731.0    2966.0088     103.5974      62.8774       2.7362
    9731.5    2966.1612     104.6658      62.6557       2.7345
    9732.0    2966.3136     104.4419      61.9637       2.7217
    9732.5    2966.4660     102.9323      61.2717       2.7099
    9733.0    2966.6184      97.7701      60.5798       2.7145
    9733.5    2966.7708      92.6092      59.8878       2.7352
    9734.0    2966.9232      88.1462      59.1958       2.7451
    9734.5    2967.0756      84.2030      58.5051       2.7373
    9735.0    2967.2280      81.5272      58.3178       2.7439
    9735.5    2967.3804      79.9827      59.2103       2.7523
    9736.0    2967.5328      84.1765      60.0999       2.7408
    9736.5    2967.6852      90.7144      60.9924       2.7411
    9737.0    2967.8376      96.8245      61.8848       2.7389
    9737.5    2967.9900     100.5332      62.7062       2.7394
    9738.0    2968.1424     102.3061      62.5533       2.7305
    9738.5    2968.2948     101.1028      62.4004       2.7056
    9739.0    2968.4472     100.5100      62.2474       2.6804
    9739.5    2968.5996     100.3101      62.0954       2.6773
    9740.0    2968.7520     100.2701      62.2239       2.6834
    9740.5    2968.9044      98.6137      62.6699       2.6837
    9741.0    2969.0568      96.9578      63.1140       2.6741
    9741.5    2969.2092      95.2995      61.8510       2.6814
    9742.0    2969.3616      91.9811      60.2720       2.7031
    9742.5    2969.5140      85.0524      58.6930       2.7239
    9743.0    2969.6664      77.7036      57.1140       2.7245
    9743.5    2969.8188      67.5583      55.5349       2.7127
    9744.0    2969.9712      56.9098      53.9560       2.7028
    9744.5    2970.1236      52.2883      52.3827       2.7036
    9745.0    2970.2760      50.5546      52.5048       2.7251
    9745.5    2970.4284      50.3486      53.6547       2.7334
    9746.0    2970.5808      54.9409      54.8047       2.7371
    9746.5    2970.7332      62.6098      55.9546       2.7324
    9747.0    2970.8856      70.2787      57.1045       2.7283
    9747.5    2971.0380      77.9430      58.2532       2.7263
    9748.0    2971.1904      83.8675      58.9206       2.7289
    9748.5    2971.3428      88.8495      59.3964       2.7267
    9749.0    2971.4952      91.0978      59.8706       2.7312
    9749.5    2971.6476      91.6818      60.3463       2.7442
    9750.0    2971.8000      91.8662      60.7299       2.7369
    9750.5    2971.9524      92.0506      61.0867       2.7270
    9751.0    2972.1048      92.2344      61.4436       2.7368
    9751.5    2972.2572      92.0956      61.8005       2.7482
    9752.0    2972.4096      92.2497      62.1574       2.7467
    9752.5    2972.5620      91.4428      62.5125       2.7413
    9753.0    2972.7144      90.1124      62.3026       2.7538
    9753.5    2972.8668      90.7899      62.3550       2.7657
    9754.0    2973.0192      92.6386      62.6880       2.7567
    9754.5    2973.1716      93.1649      63.0208       2.7406
    9755.0    2973.3240      95.8174      63.1927       2.7365
    9755.5    2973.4764      99.2591      62.9348       2.7258
    9756.0    2973.6288     102.7007      62.6770       2.7286
    9756.5    2973.7812     106.1424      62.4196       2.7377
    9757.0    2973.9336     109.5832      62.3124       2.7308
    9757.5    2974.0860     112.7539      62.5021       2.7132
    9758.0    2974.2384     113.3311      62.6923       2.7027
    9758.5    2974.3908     112.0287      62.8826       2.7197
    9759.0    2974.5432     109.0983      63.0729       2.7366
    9759.5    2974.6956     106.6826      63.2632       2.7442
    9760.0    2974.8480     106.4360      63.4536       2.7405
    9760.5    2975.0004     108.5079      63.6805       2.7419
    9761.0    2975.1528     108.0137      63.9184       2.7607
    9761.5    2975.3052     103.7166      64.1564       2.7772
    9762.0    2975.4576      99.4336      64.3935       2.7645
    9762.5    2975.6100      95.8725      64.6315       2.7495
    9763.0    2975.7624      96.4950      64.8694       2.7421
    9763.5    2975.9148      97.4533      65.1074       2.7542
    9764.0    2976.0672      97.8693      65.3453       2.7458
    9764.5    2976.2196      98.2852      65.5826       2.7208
    9765.0    2976.3720      98.7014      65.5220       2.7107
    9765.5    2976.5244      99.2123      65.2456       2.7275
    9766.0    2976.6768     100.1983      65.2720       2.7443
    9766.5    2976.8292     101.7097      65.4951       2.7611
    9767.0    2976.9816     103.8016      65.7182       2.7715
    9767.5    2977.1340     104.3953      65.9412       2.7703
    9768.0    2977.2864     104.5262      66.1643       2.7637
    9768.5    2977.4388     104.6204      66.3873       2.7548
    9769.0    2977.5912     104.8888      66.6103       2.7443
    9769.5    2977.7436     105.3842      66.8334       2.7336
    9770.0    2977.8960     105.9197      67.0564       2.7326
    9770.5    2978.0484     106.8455      67.2787       2.7304
    9771.0    2978.2008     107.2430      67.4091       2.7244
    9771.5    2978.3532     107.2423      66.7427       2.7062
    9772.0    2978.5056     106.6483      66.0763       2.6993
    9772.5    2978.6580     105.5563      65.4082       2.7133
    9773.0    2978.8104     102.5147      63.8362       2.7272
    9773.5    2978.9628      99.4701      62.0690       2.7343
    9774.0    2979.1152      95.2454      60.3017       2.7269
    9774.5    2979.2676      90.8299      58.5360       2.7204
    9775.0    2979.4200      85.1721      57.2078       2.7095
    9775.5    2979.5724      78.5548      57.3566       2.7001
    9776.0    2979.7248      74.8777      57.5044       2.7053
    9776.5    2979.8772      74.0387      56.9190       2.7135
    9777.0    2980.0296      73.1965      55.8485       2.7064
    9777.5    2980.1820      70.7925      54.7780       2.7133
    9778.0    2980.3344      67.8675      53.7090       2.7305
    9778.5    2980.4868      60.7388      53.1644       2.7456
    9779.0    2980.6392      54.8929      52.8869       2.7586
    9779.5    2980.7916      49.2093      52.6102       2.7626
    9780.0    2980.9440      47.3680      52.3328       2.7427
    9780.5    2981.0964      47.2654      52.1711       2.7211
    9781.0    2981.2488      48.0758      52.9272       2.7079
    9781.5    2981.4012      56.4259      54.9362       2.7180
    9782.0    2981.5536      66.6442      56.9453       2.7204
    9782.5    2981.7060      76.8654      58.9544       2.7225
    9783.0    2981.8584      88.0994      60.9635       2.7371
    9783.5    2982.0107     100.9389      62.9654       2.7468
    9784.0    2982.1632     108.5381      63.9657       2.7497
    9784.5    2982.3156     105.3115      63.9657       2.7527
    9785.0    2982.4680     101.0341      63.9654       2.7597
    9785.5    2982.6204     100.1865      63.7918       2.7699
