~VERSION INFORMATION
VERS.           2.0   :CWLS Log ASCII Standard - VERSION 2.0
WRAP.           NO    :One Line per depth step
PROD.  Schlumberger   :LAS Producer
PROG.  DLIS to ASCII 2.3                               :LAS Program name and version
CREA.        2024/09/17 09:54                          :LAS Creation date {YYYY/MM/DD hh:mm}
DLIS_CREA.  2024-Sep-16 13:59                          :DLIS Creation date and time {YYYY-MMM-DD hh:mm}
SOURCE.     JUT1_Composite-TOTAL.dlis                  :DLIS File Name
FILE-ID.     CSNOUT.001                                :File Identification Number
#--------------------------------------------------
~WELL INFORMATION
#MNEM.UNIT      DATA             DESCRIPTION
#---- ------ --------------   -----------------------------
STRT .F            7.0       :START DEPTH     
STOP .F        11220.0       :STOP DEPTH     
STEP .F            0.5       :STEP     
NULL .          -999.25      :NULL VALUE
COMP .                                                 :COMPANY
WELL .                                                 :WELL
FLD  .                                                 :FIELD
LOC  .                                                 :LOCATION
CNTY .                                                 :COUNTY
STAT .                                                 :STATE
CTRY .                                                 :COUNTRY
API  .                                                 :API NUMBER
UWI  .                                                 :UNIQUE WELL ID
DATE .                                                 :LOG DATE
SRVC .        Schlumberger                             :SERVICE COMPANY
LATI .DEG                                              :LATITUDE
LONG .DEG                                              :LONGITUDE
GDAT .                                                 :GeoDetic Datum
#-----------------------------------------------------------------------------
~PARAMETER INFORMATION
#MNEM.UNIT    VALUE                      DESCRIPTION
#---- -----   --------------------       ------------------------
RUN  .                                   :RUN NUMBER
PDAT .                                   :Permanent Datum
EPD  .                                   :Elevation of Permanent Datum above Mean Sea Level
LMF  .                                   :Logging Measured From (Name of Logging Elevation Reference)
APD  .                                   :Elevation of Depth Reference (LMF) above Permanent Datum
#-----------------------------------------------------------------------------
~CURVE INFORMATION
#MNEM.UNIT   API CODE                                  DESCRIPTION
#---- -----  --------                                  -----------------------
DEPT .F                                                :DEPTH (BOREHOLE) {F10.1}
DEPT .M                                                : {F13.4}
GR   .GAPI                                             : {F13.4}
DT   .US/F                                             : {F13.4}
RHOB .G/C3                                             : {F13.4}
#-----------------------------------------------------------------------------
# 
#     DEPT        DEPT         GR           DT           RHOB
#
~A  
# ...
    6738.0    2053.7424      28.1806      72.3835       2.9134
    6738.5    2053.8948      29.0553      72.0755       2.9436
    6739.0    2054.0472      32.1095      71.0671       2.9930
    6739.5    2054.1996      35.1637      69.7247       2.8782
    6740.0    2054.3520      38.2123      68.3293       2.7342
    6740.5    2054.5044      39.8887      66.0629       2.6797
    6741.0    2054.6568      40.2943      63.8037       2.6923
    6741.5    2054.8092      39.7479      61.5373       2.6830
    6742.0    2054.9616      38.9358      59.2718       2.6641
    6742.5    2055.1140      38.6722      57.8571       2.6692
    6743.0    2055.2664      38.8546      57.4196       2.6779
    6743.5    2055.4188      39.3553      56.9822       2.6688
    6744.0    2055.5712      39.8557      56.5447       2.6677
    6744.5    2055.7236      40.2870      56.1073       2.6751
    6745.0    2055.8760      40.2319      55.6751       2.6812
    6745.5    2056.0284      40.7414      56.8100       2.6757
    6746.0    2056.1808      41.7555      59.1634       2.6589
    6746.5    2056.3332      43.3549      61.5168       2.6773
    6747.0    2056.4856      44.9529      63.8702       2.7082
    6747.5    2056.6380      45.7733      66.2237       2.6627
    6748.0    2056.7904      47.1255      68.5771       2.5758
    6748.5    2056.9428      50.1753      70.9269       2.5752
    6749.0    2057.0952      53.2250      71.9564       2.6106
    6749.5    2057.2476      56.2747      70.5758       2.6213
    6750.0    2057.4000      59.3138      69.1996       2.6401
    6750.5    2057.5524      60.9461      67.8190       2.6693
    6751.0    2057.7048      60.7925      66.4402       2.6898
    6751.5    2057.8572      60.6986      66.3956       2.7103
    6752.0    2058.0096      61.0965      66.7635       2.7303
    6752.5    2058.1620      61.8697      67.1313       2.7184
    6753.0    2058.3144      63.9932      67.4992       2.7116
    6753.5    2058.4668      66.0582      67.8670       2.7038
    6754.0    2058.6191      67.6912      68.2335       2.7150
    6754.5    2058.7716      69.3307      68.6015       2.7262
    6755.0    2058.9240      70.9691      68.9688       2.7356
    6755.5    2059.0764      72.3179      68.7929       2.7265
    6756.0    2059.2288      73.3623      68.5543       2.7312
    6756.5    2059.3812      73.9583      68.3170       2.7371
    6757.0    2059.5336      74.5153      68.6695       2.7270
    6757.5    2059.6860      74.1021      69.3854       2.7233
    6758.0    2059.8384      73.4551      70.1001       2.7244
    6758.5    2059.9908      72.5300      70.4351       2.7127
    6759.0    2060.1432      72.0839      70.0377       2.7271
    6759.5    2060.2956      72.5188      69.9381       2.7190
    6760.0    2060.4480      74.7495      70.3358       2.7236
    6760.5    2060.6004      77.2030      70.7334       2.7286
    6761.0    2060.7528      78.8119      71.1311       2.7260
    6761.5    2060.9052      80.4235      71.5288       2.7225
    6762.0    2061.0576      83.0218      71.9255       2.7188
    6762.5    2061.2100      84.5785      71.9994       2.7074
    6763.0    2061.3624      85.8440      71.7169       2.7044
    6763.5    2061.5148      86.8012      71.4336       2.7153
    6764.0    2061.6672      87.2481      71.1503       2.7201
    6764.5    2061.8196      87.6944      70.8672       2.7107
    6765.0    2061.9720      87.7783      70.7223       2.7246
    6765.5    2062.1244      87.3351      71.0404       2.7426
    6766.0    2062.2768      86.4970      71.3586       2.7412
    6766.5    2062.4292      85.6589      71.6768       2.7485
    6767.0    2062.5815      84.8238      72.0230       2.7415
    6767.5    2062.7340      84.2103      72.4407       2.7403
    6768.0    2062.8864      84.5866      72.8582       2.7696
    6768.5    2063.0388      84.9639      73.2758       2.7636
    6769.0    2063.1912      85.9632      73.6933       2.7372
    6769.5    2063.3436      86.5969      74.0814       2.7109
    6770.0    2063.4960      87.0454      73.9322       2.7228
    6770.5    2063.6484      88.1205      73.7837       2.7526
    6771.0    2063.8008      89.4920      73.8318       2.7587
    6771.5    2063.9532      89.8035      74.1410       2.7009
    6772.0    2064.1056      90.0840      74.4512       2.6429
    6772.5    2064.2580      90.3645      74.7910       2.6130
    6773.0    2064.4104      90.6450      75.2981       2.5857
    6773.5    2064.5628      90.9254      75.8052       2.5540
    6774.0    2064.7152      91.2054      76.2962       2.5572
    6774.5    2064.8676      91.2360      76.7019       2.5962
    6775.0    2065.0200      90.6393      76.8510       2.6306
    6775.5    2065.1724      89.7412      77.0006       2.6262
    6776.0    2065.3248      88.7235      77.2728       2.6323
    6776.5    2065.4772      88.8022      77.6306       2.6532
    6777.0    2065.6296      88.5045      77.9888       2.6647
    6777.5    2065.7820      88.4630      78.6169       2.6396
    6778.0    2065.9344      89.5310      79.2462       2.6246
    6778.5    2066.0868      91.7908      78.7094       2.6414
    6779.0    2066.2392      92.7908      78.1725       2.6463
    6779.5    2066.3916      92.2955      77.6357       2.6088
    6780.0    2066.5439      92.1328      77.1008       2.5882
    6780.5    2066.6964      92.5007      76.5652       2.5607
    6781.0    2066.8488      91.6080      78.0531       2.5179
    6781.5    2067.0012      92.0895      80.1837       2.4752
    6782.0    2067.1536      93.2146      82.3142       2.4999
    6782.5    2067.3060      92.8579      84.4434       2.5635
    6783.0    2067.4584      91.6349      85.9559       2.5665
    6783.5    2067.6108      90.4135      84.4943       2.4827
    6784.0    2067.7632      89.7365      83.0425       2.3811
    6784.5    2067.9156      89.3405      84.5648       2.2726
    6785.0    2068.0680      89.0625      88.5566       2.1490
    6785.5    2068.2204      89.0625      92.5484       2.0093
    6786.0    2068.3728      89.0621      96.5401       1.8697
    6786.5    2068.5252      88.7924     100.5319       1.8198
    6787.0    2068.6776      88.0902     104.5236       1.9002
    6787.5    2068.8300      87.0794     108.5154       2.0004
    6788.0    2068.9824      86.0691     112.5063       2.2050
    6788.5    2069.1348      85.1743     116.1693       2.4954
    6789.0    2069.2872      83.8366     108.3402       2.6467
    6789.5    2069.4396      80.1669     100.4861       2.7006
    6790.0    2069.5920      75.9568      92.6326       2.7063
    6790.5    2069.7444      74.9161      85.2285       2.6950
    6791.0    2069.8968      75.2150      82.2461       2.7003
    6791.5    2070.0492      77.8049      79.2637       2.6860
    6792.0    2070.2016      82.1755      76.2813       2.6469
    6792.5    2070.3540      83.6478      73.2989       2.6349
    6793.0    2070.5064      84.4388      70.3298       2.6164
    6793.5    2070.6588      84.6484      71.0929       2.6116
    6794.0    2070.8112      84.8045      72.5417       2.6333
    6794.5    2070.9636      84.2546      73.9905       2.6476
    6795.0    2071.1160      84.0471      75.4368       2.6519
    6795.5    2071.2684      84.4296      75.5552       2.6476
    6796.0    2071.4208      84.6079      71.8563       2.6800
    6796.5    2071.5732      84.0159      68.1683       2.7027
    6797.0    2071.7256      81.4387      68.1681       2.7095
    6797.5    2071.8780      78.4688      70.2785       2.7024
    6798.0    2072.0304      75.4894      72.3576       2.7152
    6798.5    2072.1828      72.5109      71.4429       2.7316
    6799.0    2072.3352      70.3053      70.5283       2.7234
    6799.5    2072.4876      70.8350      69.6138       2.7155
    6800.0    2072.6400      73.2723      68.7977       2.7132
    6800.5    2072.7924      77.0663      69.1109       2.7331
    6801.0    2072.9448      79.1702      69.4241       2.7445
