~VERSION INFORMATION
VERS.           2.0   :CWLS Log ASCII Standard - VERSION 2.0
WRAP.           NO    :One Line per depth step
PROD.  Schlumberger   :LAS Producer
PROG.  DLIS to ASCII 2.3                               :LAS Program name and version
CREA.        2024/09/17 09:54                          :LAS Creation date {YYYY/MM/DD hh:mm}
DLIS_CREA.  2024-Sep-16 13:59                          :DLIS Creation date and time {YYYY-MMM-DD hh:mm}
SOURCE.     JUT1_Composite-TOTAL.dlis                  :DLIS File Name
FILE-ID.     CSNOUT.001                                :File Identification Number
#--------------------------------------------------
~WELL INFORMATION
#MNEM.UNIT      DATA             DESCRIPTION
#---- ------ --------------   -----------------------------
STRT .F            7.0       :START DEPTH     
STOP .F        11220.0       :STOP DEPTH     
STEP .F            0.5       :STEP     
NULL .          -999.25      :NULL VALUE
COMP .                                                 :COMPANY
WELL .                                                 :WELL
FLD  .                                                 :FIELD
LOC  .                                                 :LOCATION
CNTY .                                                 :COUNTY
STAT .                                                 :STATE
CTRY .                                                 :COUNTRY
API  .                                                 :API NUMBER
UWI  .                                                 :UNIQUE WELL ID
DATE .                                                 :LOG DATE
SRVC .        Schlumberger                             :SERVICE COMPANY
LATI .DEG                                              :LATITUDE
LONG .DEG                                              :LONGITUDE
GDAT .                                                 :GeoDetic Datum
#-----------------------------------------------------------------------------
~PARAMETER INFORMATION
#MNEM.UNIT    VALUE                      DESCRIPTION
#---- -----   --------------------       ------------------------
RUN  .                                   :RUN NUMBER
PDAT .                                   :Permanent Datum
EPD  .                                   :Elevation of Permanent Datum above Mean Sea Level
LMF  .                                   :Logging Measured From (Name of Logging Elevation Reference)
APD  .                                   :Elevation of Depth Reference (LMF) above Permanent Datum
#-----------------------------------------------------------------------------
~CURVE INFORMATION
#MNEM.UNIT   API CODE                                  DESCRIPTION
#---- -----  --------                                  -----------------------
DEPT .F                                                :DEPTH (BOREHOLE) {F10.1}
DEPT .M                                                : {F13.4}
GR   .GAPI                                             : {F13.4}
DT   .US/F                                             : {F13.4}
RHOB .G/C3                                             : {F13.4}
#-----------------------------------------------------------------------------
# 
#     DEPT        DEPT         GR           DT           RHOB
#
~A  
       7.0       2.1336       2.7559    -999.2500    -999.2500
       7.5       2.2860       2.7338    -999.2500    -999.2500
       8.0       2.4384       2.7117    -999.2500    -999.2500
       8.5       2.5908       2.6895    -999.2500    -999.2500
       9.0       2.7432       2.6674    -999.2500    -999.2500
       9.5       2.8956       2.6453    -999.2500    -999.2500
      10.0       3.0480       2.6232    -999.2500    -999.2500
      10.5       3.2004       2.6011    -999.2500    -999.2500
      11.0       3.3528       2.5789    -999.2500    -999.2500
      11.5       3.5052       2.5568    -999.2500    -999.2500
      12.0       3.6576       2.5347    -999.2500    -999.2500
      12.5       3.8100       2.5127    -999.2500    -999.2500
      13.0       3.9624       2.6288    -999.2500    -999.2500
      13.5       4.1148       3.1482    -999.2500    -999.2500
      14.0       4.2672       3.6678    -999.2500    -999.2500
      14.5       4.4196       4.3237    -999.2500    -999.2500
      15.0       4.5720       5.3856    -999.2500    -999.2500
      15.5       4.7244       6.4475    -999.2500    -999.2500
      16.0       4.8768       7.5089    -999.2500    -999.2500
      16.5       5.0292       8.2568    -999.2500    -999.2500
      17.0       5.1816       8.8852    -999.2500    -999.2500
      17.5       5.3340       9.2434    -999.2500    -999.2500
      18.0       5.4864       8.7655    -999.2500    -999.2500
      18.5       5.6388       8.2877    -999.2500    -999.2500
      19.0       5.7912       7.8098    -999.2500    -999.2500
      19.5       5.9436       7.3320    -999.2500    -999.2500
      20.0       6.0960       6.8541    -999.2500    -999.2500
      20.5       6.2484       6.3763    -999.2500    -999.2500
      21.0       6.4008       5.8989    -999.2500    -999.2500
      21.5       6.5532       5.8119    -999.2500    -999.2500
      22.0       6.7056       6.2900    -999.2500    -999.2500
      22.5       6.8580       6.9470    -999.2500    -999.2500
      23.0       7.0104       7.8231    -999.2500    -999.2500
      23.5       7.1628       8.6991    -999.2500    -999.2500
      24.0       7.3152       9.5743    -999.2500    -999.2500
      24.5       7.4676       9.7722    -999.2500    -999.2500
      25.0       7.6200       9.3740    -999.2500    -999.2500
      25.5       7.7724       8.9758    -999.2500    -999.2500
      26.0       7.9248       8.6176    -999.2500    -999.2500
      26.5       8.0772       8.5781    -999.2500    -999.2500
      27.0       8.2296       9.0133    -999.2500    -999.2500
      27.5       8.3820      10.0129    -999.2500    -999.2500
      28.0       8.5344      11.0642    -999.2500    -999.2500
      28.5       8.6868      12.1151    -999.2500    -999.2500
      29.0       8.8392      12.8404    -999.2500    -999.2500
      29.5       8.9916      13.3911    -999.2500    -999.2500
      30.0       9.1440      13.4165    -999.2500    -999.2500
      30.5       9.2964      13.4182    -999.2500    -999.2500
      31.0       9.4488      14.6811    -999.2500    -999.2500
      31.5       9.6012      15.9504    -999.2500    -999.2500
      32.0       9.7536      17.2197    -999.2500    -999.2500
      32.5       9.9060      18.4896    -999.2500    -999.2500
      33.0      10.0584      20.2088    -999.2500    -999.2500
      33.5      10.2108      22.0291    -999.2500    -999.2500
      34.0      10.3632      23.7727    -999.2500    -999.2500
      34.5      10.5156      24.5691    -999.2500    -999.2500
      35.0      10.6680      25.3647    -999.2500    -999.2500
      35.5      10.8204      25.4939    -999.2500    -999.2500
      36.0      10.9728      25.3684    -999.2500    -999.2500
      36.5      11.1252      25.4259    -999.2500    -999.2500
      37.0      11.2776      26.0547    -999.2500    -999.2500
      37.5      11.4300      26.6838    -999.2500    -999.2500
      38.0      11.5824      27.6134    -999.2500    -999.2500
      38.5      11.7348      28.6359    -999.2500    -999.2500
      39.0      11.8872      28.5845    -999.2500    -999.2500
      39.5      12.0396      28.4554    -999.2500    -999.2500
      40.0      12.1920      28.3262    -999.2500    -999.2500
      40.5      12.3444      28.1971    -999.2500    -999.2500
      41.0      12.4968      28.0381    -999.2500    -999.2500
      41.5      12.6492      27.6165    -999.2500    -999.2500
      42.0      12.8016      27.1946    -999.2500    -999.2500
      42.5      12.9540      26.5430    -999.2500    -999.2500
      43.0      13.1064      25.8677    -999.2500    -999.2500
      43.5      13.2588      25.3216    -999.2500    -999.2500
      44.0      13.4112      24.7755    -999.2500    -999.2500
      44.5      13.5636      24.2294    -999.2500    -999.2500
      45.0      13.7160      23.6839    -999.2500    -999.2500
      45.5      13.8684      23.6319    -999.2500    -999.2500
      46.0      14.0208      24.2090    -999.2500    -999.2500
      46.5      14.1732      25.2478    -999.2500    -999.2500
      47.0      14.3256      26.2865    -999.2500    -999.2500
      47.5      14.4780      27.2134    -999.2500    -999.2500
      48.0      14.6304      26.9911    -999.2500    -999.2500
      48.5      14.7828      25.7965    -999.2500    -999.2500
      49.0      14.9352      24.6019    -999.2500    -999.2500
      49.5      15.0876      23.4084    -999.2500    -999.2500
      50.0      15.2400      23.1050    -999.2500    -999.2500
      50.5      15.3924      23.6572    -999.2500    -999.2500
      51.0      15.5448      24.8921    -999.2500    -999.2500
      51.5      15.6972      25.7092    -999.2500    -999.2500
      52.0      15.8496      25.7908    -999.2500    -999.2500
      52.5      16.0020      25.4288    -999.2500    -999.2500
      53.0      16.1544      25.0668    -999.2500    -999.2500
      53.5      16.3068      24.7047    -999.2500    -999.2500
      54.0      16.4592      24.3436    -999.2500    -999.2500
      54.5      16.6116      24.6324    -999.2500    -999.2500
      55.0      16.7640      26.1452    -999.2500    -999.2500
      55.5      16.9164      27.7396    -999.2500    -999.2500
      56.0      17.0688      30.5013    -999.2500    -999.2500
      56.5      17.2212      32.6306    -999.2500    -999.2500
      57.0      17.3736      33.4120    -999.2500    -999.2500
      57.5      17.5260      33.4844    -999.2500    -999.2500
      58.0      17.6784      33.5568    -999.2500    -999.2500
      58.5      17.8308      33.6292    -999.2500    -999.2500
      59.0      17.9832      33.6577    -999.2500    -999.2500
      59.5      18.1356      32.9887    -999.2500    -999.2500
      60.0      18.2880      32.3197    -999.2500    -999.2500
      60.5      18.4404      31.6513    -999.2500    -999.2500
      61.0      18.5928      31.3777    -999.2500    -999.2500
      61.5      18.7452      31.2076    -999.2500    -999.2500
      62.0      18.8976      31.4582    -999.2500    -999.2500
      62.5      19.0500      32.0691    -999.2500    -999.2500
      63.0      19.2024      32.7714    -999.2500    -999.2500
      63.5      19.3548      33.1973    -999.2500    -999.2500
      64.0      19.5072      33.4145    -999.2500    -999.2500
      64.5      19.6596      33.6308    -999.2500    -999.2500
      65.0      19.8120      33.1416    -999.2500    -999.2500
      65.5      19.9644      32.4493    -999.2500    -999.2500
      66.0      20.1168      32.4493    -999.2500    -999.2500
      66.5      20.2692      32.4493    -999.2500    -999.2500
      67.0      20.4216      32.4493    -999.2500    -999.2500
      67.5      20.5740      32.4484    -999.2500    -999.2500
      68.0      20.7264      31.7614    -999.2500    -999.2500
      68.5      20.8788      30.6205    -999.2500    -999.2500
      69.0      21.0312      28.4491    -999.2500    -999.2500
      69.5      21.1836      26.8580    -999.2500    -999.2500
      70.0      21.3360      26.3858    -999.2500    -999.2500
