~VERSION INFORMATION
VERS.           2.0   :CWLS Log ASCII Standard - VERSION 2.0
WRAP.           NO    :One Line per depth step
PROD.  Schlumberger   :LAS Producer
PROG.  DLIS to ASCII 2.3                               :LAS Program name and version
CREA.        2024/09/17 09:54                          :LAS Creation date {YYYY/MM/DD hh:mm}
DLIS_CREA.  2024-Sep-16 13:59                          :DLIS Creation date and time {YYYY-MMM-DD hh:mm}
SOURCE.     JUT1_Composite-TOTAL.dlis                  :DLIS File Name
FILE-ID.     CSNOUT.001                                :File Identification Number
#--------------------------------------------------
~WELL INFORMATION
#MNEM.UNIT      DATA             DESCRIPTION
#---- ------ --------------   -----------------------------
STRT .F            7.0       :START DEPTH     
STOP .F        11220.0       :STOP DEPTH     
STEP .F            0.5       :STEP     
NULL .          -999.25      :NULL VALUE
COMP .                                                 :COMPANY
WELL .                                                 :WELL
FLD  .                                                 :FIELD
LOC  .                                                 :LOCATION
CNTY .                                                 :COUNTY
STAT .                                                 :STATE
CTRY .                                                 :COUNTRY
API  .                                                 :API NUMBER
UWI  .                                                 :UNIQUE WELL ID
DATE .                                                 :LOG DATE
SRVC .        Schlumberger                             :SERVICE COMPANY
LATI .DEG                                              :LATITUDE
LONG .DEG                                              :LONGITUDE
GDAT .                                                 :GeoDetic Datum
#-----------------------------------------------------------------------------
~PARAMETER INFORMATION
#MNEM.UNIT    VALUE                      DESCRIPTION
#---- -----   --------------------       ------------------------
RUN  .                                   :RUN NUMBER
PDAT .                                   :Permanent Datum
EPD  .                                   :Elevation of Permanent Datum above Mean Sea Level
LMF  .                                   :Logging Measured From (Name of Logging Elevation Reference)
APD  .                                   :Elevation of Depth Reference (LMF) above Permanent Datum
#-----------------------------------------------------------------------------
~CURVE INFORMATION
#MNEM.UNIT   API CODE                                  DESCRIPTION
#---- -----  --------                                  -----------------------
DEPT .F                                                :DEPTH (BOREHOLE) {F10.1}
DEPT .M                                                : {F13.4}
GR   .GAPI                                             : {F13.4}
DT   .US/F                                             : {F13.4}
RHOB .G/C3                                             : {F13.4}
#-----------------------------------------------------------------------------
# 
#     DEPT        DEPT         GR           DT           RHOB
#
~A  
# ...
     769.0     234.3912      33.3632    -999.2500    -999.2500
     769.5     234.5436      34.4413    -999.2500    -999.2500
     770.0     234.6960      35.5195    -999.2500    -999.2500
     770.5     234.8484      36.5976    -999.2500    -999.2500
     771.0     235.0008      37.6745    -999.2500    -999.2500
     771.5     235.1532      37.7566    -999.2500    -999.2500
     772.0     235.3056      37.6160    -999.2500    -999.2500
     772.5     235.4580      37.4753    -999.2500    -999.2500
     773.0     235.6104      37.3348    -999.2500    -999.2500
     773.5     235.7628      37.2457    -999.2500    -999.2500
     774.0     235.9152      37.2457    -999.2500    -999.2500
     774.5     236.0676      37.2457    -999.2500    -999.2500
     775.0     236.2200      37.2437    -999.2500    -999.2500
     775.5     236.3724      35.8267    -999.2500    -999.2500
     776.0     236.5248      35.6807    -999.2500    -999.2500
     776.5     236.6772      35.6811    -999.2500    -999.2500
     777.0     236.8296      35.9367    -999.2500    -999.2500
     777.5     236.9820      36.2486    -999.2500    -999.2500
     778.0     237.1344      36.5601    -999.2500    -999.2500
     778.5     237.2868      36.6197    -999.2500    -999.2500
     779.0     237.4392      36.6202    -999.2500    -999.2500
     779.5     237.5916      36.9622    -999.2500    -999.2500
     780.0     237.7440      37.9147    -999.2500    -999.2500
     780.5     237.8964      38.1847    -999.2500    -999.2500
     781.0     238.0488      38.1853    -999.2500    -999.2500
     781.5     238.2012      38.6044    -999.2500    -999.2500
     782.0     238.3536      39.7818    -999.2500    -999.2500
     782.5     238.5060      41.3743    -999.2500    -999.2500
     783.0     238.6584      41.9405    -999.2500    -999.2500
     783.5     238.8108      41.9404    -999.2500    -999.2500
     784.0     238.9632      41.8150    -999.2500    -999.2500
     784.5     239.1156      41.5157    -999.2500    -999.2500
     785.0     239.2680      40.8361    -999.2500    -999.2500
     785.5     239.4204      39.3641    -999.2500    -999.2500
     786.0     239.5728      37.3206    -999.2500    -999.2500
     786.5     239.7252      34.9305    -999.2500    -999.2500
     787.0     239.8776      32.8933    -999.2500    -999.2500
     787.5     240.0300      30.9502    -999.2500    -999.2500
     788.0     240.1824      28.5315    -999.2500    -999.2500
     788.5     240.3348      26.7325    -999.2500    -999.2500
     789.0     240.4872      26.4511    -999.2500    -999.2500
     789.5     240.6396      28.5229    -999.2500    -999.2500
     790.0     240.7920      30.4501    -999.2500    -999.2500
     790.5     240.9444      31.0835    -999.2500    -999.2500
     791.0     241.0968      31.0870    -999.2500    -999.2500
     791.5     241.2492      30.3320    -999.2500    -999.2500
     792.0     241.4016      29.5781    -999.2500    -999.2500
     792.5     241.5540      29.5790    -999.2500    -999.2500
     793.0     241.7064      29.7782    -999.2500    -999.2500
     793.5     241.8588      29.9775    -999.2500    -999.2500
     794.0     242.0112      30.1767    -999.2500    -999.2500
     794.5     242.1636      30.3759    -999.2500    -999.2500
     795.0     242.3160      30.5751    -999.2500    -999.2500
     795.5     242.4684      30.7743    -999.2500    -999.2500
     796.0     242.6208      30.9752    -999.2500    -999.2500
     796.5     242.7732      32.4825    -999.2500    -999.2500
     797.0     242.9256      35.4589    -999.2500    -999.2500
     797.5     243.0780      38.8684    -999.2500    -999.2500
     798.0     243.2304      38.2117    -999.2500    -999.2500
     798.5     243.3828      36.1894    -999.2500    -999.2500
     799.0     243.5352      34.6051    -999.2500    -999.2500
     799.5     243.6876      34.0116    -999.2500    -999.2500
     800.0     243.8400      33.8100    -999.2500    -999.2500
     800.5     243.9924      31.9535    -999.2500    -999.2500
     801.0     244.1448      30.9996    -999.2500    -999.2500
     801.5     244.2972      31.7833    -999.2500    -999.2500
     802.0     244.4496      34.1711    -999.2500    -999.2500
     802.5     244.6020      34.4304    -999.2500    -999.2500
     803.0     244.7544      33.1256    -999.2500    -999.2500
     803.5     244.9068      31.4316    -999.2500    -999.2500
     804.0     245.0592      29.6392    -999.2500    -999.2500
     804.5     245.2116      28.2082    -999.2500    -999.2500
     805.0     245.3640      28.4282    -999.2500    -999.2500
     805.5     245.5164      30.6931    -999.2500    -999.2500
     806.0     245.6688      33.0306    -999.2500    -999.2500
     806.5     245.8212      34.2846    -999.2500    -999.2500
     807.0     245.9736      34.7029    -999.2500    -999.2500
     807.5     246.1260      35.0231    -999.2500    -999.2500
     808.0     246.2784      36.3918    -999.2500    -999.2500
     808.5     246.4308      36.3292    -999.2500    -999.2500
     809.0     246.5832      35.5201    -999.2500    -999.2500
     809.5     246.7356      34.6786    -999.2500    -999.2500
     810.0     246.8880      35.5566    -999.2500    -999.2500
     810.5     247.0404      38.0340    -999.2500    -999.2500
     811.0     247.1928      39.2290    -999.2500    -999.2500
     811.5     247.3452      40.2317    -999.2500    -999.2500
     812.0     247.4976      41.0831    -999.2500    -999.2500
     812.5     247.6500      40.0909    -999.2500    -999.2500
     813.0     247.8024      39.2155    -999.2500    -999.2500
     813.5     247.9548      39.4328    -999.2500    -999.2500
     814.0     248.1072      39.6489    -999.2500    -999.2500
     814.5     248.2596      38.9373    -999.2500    -999.2500
     815.0     248.4120      36.0819    -999.2500    -999.2500
     815.5     248.5644      32.7446    -999.2500    -999.2500
     816.0     248.7168      31.7454    -999.2500    -999.2500
     816.5     248.8692      31.2967    -999.2500    -999.2500
     817.0     249.0216      30.5683    -999.2500    -999.2500
     817.5     249.1740      29.2043    -999.2500    -999.2500
     818.0     249.3264      29.3620    -999.2500    -999.2500
     818.5     249.4788      31.9240    -999.2500    -999.2500
     819.0     249.6312      35.8544    -999.2500    -999.2500
     819.5     249.7836      37.2786    -999.2500    -999.2500
     820.0     249.9360      37.7563    -999.2500    -999.2500
     820.5     250.0884      37.8692    -999.2500    -999.2500
     821.0     250.2408      36.0587    -999.2500    -999.2500
     821.5     250.3932      35.2725    -999.2500    -999.2500
     822.0     250.5456      35.6243    -999.2500    -999.2500
     822.5     250.6980      36.6279    -999.2500    -999.2500
     823.0     250.8504      37.6312    -999.2500    -999.2500
     823.5     251.0028      38.6335    -999.2500    -999.2500
     824.0     251.1552      38.8665    -999.2500    -999.2500
     824.5     251.3076      38.5268    -999.2500    -999.2500
     825.0     251.4600      39.8228    -999.2500    -999.2500
     825.5     251.6124      40.8502    -999.2500    -999.2500
     826.0     251.7648      39.8629    -999.2500    -999.2500
     826.5     251.9172      38.4965    -999.2500    -999.2500
     827.0     252.0696      37.6730    -999.2500    -999.2500
     827.5     252.2220      36.2048    -999.2500    -999.2500
     828.0     252.3744      34.6071    -999.2500    -999.2500
     828.5     252.5268      33.6519    -999.2500    -999.2500
     829.0     252.6792      34.1023    -999.2500    -999.2500
     829.5     252.8316      34.9545    -999.2500    -999.2500
     830.0     252.9840      34.0924    -999.2500    -999.2500
     830.5     253.1364      34.0078    -999.2500    -999.2500
     831.0     253.2888      35.2955    -999.2500    -999.2500
     831.5     253.4412      35.7148    -999.2500    -999.2500
     832.0     253.5936      33.7846    -999.2500    -999.2500
