~VERSION INFORMATION
VERS.           2.0   :CWLS Log ASCII Standard - VERSION 2.0
WRAP.           NO    :One Line per depth step
PROD.  Schlumberger   :LAS Producer
PROG.  DLIS to ASCII 2.3                               :LAS Program name and version
CREA.        2024/09/17 09:54                          :LAS Creation date {YYYY/MM/DD hh:mm}
DLIS_CREA.  2024-Sep-16 13:59                          :DLIS Creation date and time {YYYY-MMM-DD hh:mm}
SOURCE.     JUT1_Composite-TOTAL.dlis                  :DLIS File Name
FILE-ID.     CSNOUT.001                                :File Identification Number
#--------------------------------------------------
~WELL INFORMATION
#MNEM.UNIT      DATA             DESCRIPTION
#---- ------ --------------   -----------------------------
STRT .F            7.0       :START DEPTH     
STOP .F        11220.0       :STOP DEPTH     
STEP .F            0.5       :STEP     
NULL .          -999.25      :NULL VALUE
COMP .                                                 :COMPANY
WELL .                                                 :WELL
FLD  .                                                 :FIELD
LOC  .                                                 :LOCATION
CNTY .                                                 :COUNTY
STAT .                                                 :STATE
CTRY .                                                 :COUNTRY
API  .                                                 :API NUMBER
UWI  .                                                 :UNIQUE WELL ID
DATE .                                                 :LOG DATE
SRVC .        Schlumberger                             :SERVICE COMPANY
LATI .DEG                                              :LATITUDE
LONG .DEG                                              :LONGITUDE
GDAT .                                                 :GeoDetic Datum
#-----------------------------------------------------------------------------
~PARAMETER INFORMATION
#MNEM.UNIT    VALUE                      DESCRIPTION
#---- -----   --------------------       ------------------------
RUN  .                                   :RUN NUMBER
PDAT .                                   :Permanent Datum
EPD  .                                   :Elevation of Permanent Datum above Mean Sea Level
LMF  .                                   :Logging Measured From (Name of Logging Elevation Reference)
APD  .                                   :Elevation of Depth Reference (LMF) above Permanent Datum
#-----------------------------------------------------------------------------
~CURVE INFORMATION
#MNEM.UNIT   API CODE                                  DESCRIPTION
#---- -----  --------                                  -----------------------
DEPT .F                                                :DEPTH (BOREHOLE) {F10.1}
DEPT .M                                                : {F13.4}
GR   .GAPI                                             : {F13.4}
DT   .US/F                                             : {F13.4}
RHOB .G/C3                                             : {F13.4}
#-----------------------------------------------------------------------------
# 
#     DEPT        DEPT         GR           DT           RHOB
#
~A  
# ...
    5976.0    1821.4848      68.1121      72.6169       2.5790
    5976.5    1821.6372      67.1763      71.3090       2.5981
    5977.0    1821.7896      65.5014      69.9571       2.6186
    5977.5    1821.9420      63.7885      68.5993       2.6356
    5978.0    1822.0944      62.0787      67.2438       2.6484
    5978.5    1822.2468      60.7472      65.8860       2.6485
    5979.0    1822.3992      60.4254      64.5283       2.6573
    5979.5    1822.5516      60.9828      63.1706       2.6598
    5980.0    1822.7040      60.8605      61.8151       2.6576
    5980.5    1822.8564      58.2030      60.4930       2.6508
    5981.0    1823.0088      55.5462      61.2466       2.6417
    5981.5    1823.1612      53.3235      61.9428       2.6362
    5982.0    1823.3136      51.6316      61.5867       2.6331
    5982.5    1823.4660      48.2722      61.2299       2.6274
    5983.0    1823.6184      44.3672      60.8735       2.6227
    5983.5    1823.7708      42.7159      60.6934       2.5985
    5984.0    1823.9232      44.7548      61.8351       2.5778
    5984.5    1824.0756      48.8088      62.9750       2.5743
    5985.0    1824.2280      52.8689      64.1167       2.5779
    5985.5    1824.3804      56.6811      65.2651       2.5857
    5986.0    1824.5328      58.7819      66.4129       2.5844
    5986.5    1824.6852      61.9960      66.6642       2.5682
    5987.0    1824.8376      66.7861      66.7833       2.5821
    5987.5    1824.9900      72.5681      66.9025       2.6018
    5988.0    1825.1424      79.5810      67.1273       2.6106
    5988.5    1825.2948      85.8035      67.3200       2.6180
    5989.0    1825.4472      85.4658      67.2487       2.6200
    5989.5    1825.5996      83.2315      67.1774       2.6302
    5990.0    1825.7520      81.0778      67.1007       2.6296
    5990.5    1825.9044      80.1973      66.2287       2.6268
    5991.0    1826.0568      82.7568      65.4274       2.6286
    5991.5    1826.2092      89.4692      66.3312       2.6362
    5992.0    1826.3616      97.0973      67.2351       2.6378
    5992.5    1826.5140     101.2218      68.1361       2.6356
    5993.0    1826.6664      93.6745      67.7436       2.6260
    5993.5    1826.8188      84.3530      66.9408       2.6136
    5994.0    1826.9712      73.3404      66.1793       2.6039
    5994.5    1827.1236      62.3439      65.6739       2.5783
    5995.0    1827.2760      59.2472      65.1697       2.5347
    5995.5    1827.4284      61.6778      65.2424       2.4910
    5996.0    1827.5808      66.1180      65.8569       2.4474
    5996.5    1827.7332      70.5606      66.4714       2.4038
    5997.0    1827.8856      76.2791      67.1022       2.4380
    5997.5    1828.0380      82.6548      74.8657       2.5228
    5998.0    1828.1904      89.0400      77.8589       2.6076
    5998.5    1828.3428      94.9360      80.8478       2.6257
    5999.0    1828.4952      96.7056      81.4845       2.6452
    5999.5    1828.6476      94.8270      76.7640       2.6668
    6000.0    1828.8000      92.2863      72.0416       2.6827
    6000.5    1828.9524      90.5087      71.7237       2.6832
    6001.0    1829.1048      86.8785      73.4605       2.6899
    6001.5    1829.2572      83.0232      75.1938       2.6875
    6002.0    1829.4096      79.8604      76.0828       2.6648
    6002.5    1829.5620      77.3024      75.7262       2.6779
    6003.0    1829.7144      76.1617      75.3687       2.6856
    6003.5    1829.8668      74.8608      74.5470       2.6874
    6004.0    1830.0192      74.5735      73.5970       2.6877
    6004.5    1830.1716      75.2791      72.6454       2.6989
    6005.0    1830.3240      76.9592      71.6939       2.6870
    6005.5    1830.4764      80.2558      70.7423       2.6787
    6006.0    1830.6288      83.6948      69.7946       2.6680
    6006.5    1830.7812      85.2748      71.3584       2.6738
    6007.0    1830.9336      87.4120      71.7784       2.6733
    6007.5    1831.0860      90.2273      71.0847       2.6773
    6008.0    1831.2384      93.0375      70.3921       2.6844
    6008.5    1831.3908      95.1701      69.7003       2.6963
    6009.0    1831.5432      93.9320      70.6618       2.7159
    6009.5    1831.6956      89.3212      72.4192       2.7389
    6010.0    1831.8480      84.7122      73.8758       2.7530
    6010.5    1832.0004      80.9663      75.3294       2.7442
    6011.0    1832.1528      79.8384      76.1128       2.7268
    6011.5    1832.3052      81.6327      76.6125       2.7224
    6012.0    1832.4576      82.9550      77.1123       2.7280
    6012.5    1832.6100      82.9377      77.7150       2.7215
    6013.0    1832.7624      82.7288      78.4585       2.7125
    6013.5    1832.9148      84.2805      79.1993       2.6172
    6014.0    1833.0672      86.7250      78.3314       2.6167
    6014.5    1833.2196      89.9501      77.0729       2.6162
    6015.0    1833.3720      93.2021      75.8124       2.6004
    6015.5    1833.5244      94.0369      74.5268       2.5573
    6016.0    1833.6768      93.4050      73.2224       2.5069
    6016.5    1833.8292      92.2861      73.8943       2.4673
    6017.0    1833.9816      90.3917      76.1210       2.4287
    6017.5    1834.1340      87.2838      78.3477       2.3907
    6018.0    1834.2864      82.3879      77.9692       2.2637
    6018.5    1834.4388      77.4921      77.4143       2.1367
    6019.0    1834.5912      72.5994      76.8603       2.0099
    6019.5    1834.7436      62.3861      76.3461       1.8832
    6020.0    1834.8960      51.2626      85.5435       2.0338
    6020.5    1835.0484      45.2093      94.7409       2.1999
    6021.0    1835.2008      47.9718     103.9227       2.3705
    6021.5    1835.3532      53.1651     111.8950       2.6129
    6022.0    1835.5056      60.3972     103.6878       2.6544
    6022.5    1835.6580      67.6469      95.4806       2.6629
    6023.0    1835.8104      73.5417      87.2734       2.6629
    6023.5    1835.9628      74.2960      79.0793       2.6653
    6024.0    1836.1152      72.7475      70.8801       2.6837
    6024.5    1836.2676      70.1392      68.4990       2.7005
    6025.0    1836.4200      69.5472      67.3511       2.7081
    6025.5    1836.5724      69.8009      67.0257       2.7132
    6026.0    1836.7248      71.1730      66.8355       2.6845
    6026.5    1836.8772      71.5396      66.6450       2.6762
    6027.0    1837.0296      68.5355      66.2976       2.6815
    6027.5    1837.1820      64.0789      65.8368       2.6783
    6028.0    1837.3344      62.6500      65.3766       2.6546
    6028.5    1837.4868      62.9403      64.9158       2.6539
    6029.0    1837.6392      65.5603      64.4556       2.6556
    6029.5    1837.7916      70.6636      64.3643       2.6776
    6030.0    1837.9440      75.7586      64.9977       2.6989
    6030.5    1838.0964      80.8600      65.6320       2.7186
    6031.0    1838.2488      84.5875      66.2734       2.7040
    6031.5    1838.4012      85.1638      70.9079       2.6621
    6032.0    1838.5536      84.8779      71.6203       2.6691
    6032.5    1838.7060      85.6971      72.2042       2.6723
    6033.0    1838.8584      87.9039      72.6205       2.6791
    6033.5    1839.0108      88.0357      73.0369       2.6847
    6034.0    1839.1632      86.2654      73.4527       2.6752
    6034.5    1839.3156      81.8128      73.6595       2.6558
    6035.0    1839.4680      77.3557      73.6596       2.6524
    6035.5    1839.6204      74.6622      73.6593       2.6571
    6036.0    1839.7728      74.8378      73.4844       2.6626
    6036.5    1839.9252      74.5626      72.7126       2.6620
    6037.0    1840.0776      73.7717      71.9398       2.6818
    6037.5    1840.2300      73.0466      71.3891       2.6896
    6038.0    1840.3824      72.5541      70.9848       2.6802
    6038.5    1840.5348      72.0623      70.5811       2.6595
    6039.0    1840.6872      71.5698      70.1768       2.6506
