~VERSION INFORMATION
VERS.           2.0   :CWLS Log ASCII Standard - VERSION 2.0
WRAP.           NO    :One Line per depth step
PROD.  Schlumberger   :LAS Producer
PROG.  DLIS to ASCII 2.3                               :LAS Program name and version
CREA.        2024/09/17 09:54                          :LAS Creation date {YYYY/MM/DD hh:mm}
DLIS_CREA.  2024-Sep-16 13:59                          :DLIS Creation date and time {YYYY-MMM-DD hh:mm}
SOURCE.     JUT1_Composite-TOTAL.dlis                  :DLIS File Name
FILE-ID.     CSNOUT.001                                :File Identification Number
#--------------------------------------------------
~WELL INFORMATION
#MNEM.UNIT      DATA             DESCRIPTION
#---- ------ --------------   -----------------------------
STRT .F            7.0       :START DEPTH     
STOP .F        11220.0       :STOP DEPTH     
STEP .F            0.5       :STEP     
NULL .          -999.25      :NULL VALUE
COMP .                                                 :COMPANY
WELL .                                                 :WELL
FLD  .                                                 :FIELD
LOC  .                                                 :LOCATION
CNTY .                                                 :COUNTY
STAT .                                                 :STATE
CTRY .                                                 :COUNTRY
API  .                                                 :API NUMBER
UWI  .                                                 :UNIQUE WELL ID
DATE .                                                 :LOG DATE
SRVC .        Schlumberger                             :SERVICE COMPANY
LATI .DEG                                              :LATITUDE
LONG .DEG                                              :LONGITUDE
GDAT .                                                 :GeoDetic Datum
#-----------------------------------------------------------------------------
~PARAMETER INFORMATION
#MNEM.UNIT    VALUE                      DESCRIPTION
#---- -----   --------------------       ------------------------
RUN  .                                   :RUN NUMBER
PDAT .                                   :Permanent Datum
EPD  .                                   :Elevation of Permanent Datum above Mean Sea Level
LMF  .                                   :Logging Measured From (Name of Logging Elevation Reference)
APD  .                                   :Elevation of Depth Reference (LMF) above Permanent Datum
#-----------------------------------------------------------------------------
~CURVE INFORMATION
#MNEM.UNIT   API CODE                                  DESCRIPTION
#---- -----  --------                                  -----------------------
DEPT .F                                                :DEPTH (BOREHOLE) {F10.1}
DEPT .M                                                : {F13.4}
GR   .GAPI                                             : {F13.4}
DT   .US/F                                             : {F13.4}
RHOB .G/C3                                             : {F13.4}
#-----------------------------------------------------------------------------
# 
#     DEPT        DEPT         GR           DT           RHOB
#
~A  
# ...
    1467.5     447.2940      51.5366     155.0149    -999.2500
    1468.0     447.4464      51.3966     155.5422    -999.2500
    1468.5     447.5988      51.3446     156.0697    -999.2500
    1469.0     447.7512      50.0565     156.5954    -999.2500
    1469.5     447.9036      48.5011     155.9760    -999.2500
    1470.0     448.0560      47.3070     154.7257    -999.2500
    1470.5     448.2084      49.3275     153.4753    -999.2500
    1471.0     448.3608      51.7433     152.2249    -999.2500
    1471.5     448.5132      52.5981     150.9761    -999.2500
    1472.0     448.6656      52.7006     150.9678    -999.2500
    1472.5     448.8180      52.1771     152.8138    -999.2500
    1473.0     448.9704      51.1926     154.6597    -999.2500
    1473.5     449.1228      50.2600     156.5038    -999.2500
    1474.0     449.2752      49.7650     156.8566    -999.2500
    1474.5     449.4276      49.2703     155.5142    -999.2500
    1475.0     449.5800      48.7753     154.1717    -999.2500
    1475.5     449.7324      48.0841     152.8293    -999.2500
    1476.0     449.8848      46.9687     151.4868    -999.2500
    1476.5     450.0372      46.1725     150.1444    -999.2500
    1477.0     450.1896      45.9563     148.8017    -999.2500
    1477.5     450.3420      46.5572     147.2986    -999.2500
    1478.0     450.4944      45.0259     145.3335    -999.2500
    1478.5     450.6468      43.5634     143.3730    -999.2500
    1479.0     450.7992      45.6181     145.0039    -999.2500
    1479.5     450.9516      46.1675     148.6955    -999.2500
    1480.0     451.1040      45.8455     152.3886    -999.2500
    1480.5     451.2564      43.0505     156.0760    -999.2500
    1481.0     451.4088      39.3309     157.0217    -999.2500
    1481.5     451.5612      40.3916     156.8052    -999.2500
    1482.0     451.7136      44.0082     156.5887    -999.2500
    1482.5     451.8660      44.5163     156.3722    -999.2500
    1483.0     452.0184      44.9761     156.1556    -999.2500
    1483.5     452.1708      45.4361     155.9391    -999.2500
    1484.0     452.3232      45.9956     155.7240    -999.2500
    1484.5     452.4756      46.6250     156.5764    -999.2500
    1485.0     452.6280      47.3660     158.5308    -999.2500
    1485.5     452.7804      49.0539     160.4853    -999.2500
    1486.0     452.9328      50.7359     162.4398    -999.2500
    1486.5     453.0852      47.6175     164.3950    -999.2500
    1487.0     453.2376      45.8951     166.3495    -999.2500
    1487.5     453.3900      44.4748     168.3039    -999.2500
    1488.0     453.5424      45.7350     170.2584    -999.2500
    1488.5     453.6948      49.1714     172.2128    -999.2500
    1489.0     453.8472      52.0898     174.1673    -999.2500
    1489.5     453.9996      53.5741     176.1211    -999.2500
    1490.0     454.1520      52.0149     177.5801    -999.2500
    1490.5     454.3044      49.4663     178.1160    -999.2500
    1491.0     454.4568      48.4278     178.6519    -999.2500
    1491.5     454.6092      49.0663     179.1877    -999.2500
    1492.0     454.7616      50.2935     179.6052    -999.2500
    1492.5     454.9140      48.3369     179.8566    -999.2500
    1493.0     455.0664      47.0274     180.1081    -999.2500
    1493.5     455.2188      46.6499     180.3595    -999.2500
    1494.0     455.3712      46.2691     180.6109    -999.2500
    1494.5     455.5236      43.7496     180.8623    -999.2500
    1495.0     455.6760      40.6265     181.1069    -999.2500
    1495.5     455.8284      41.6407     181.3451    -999.2500
    1496.0     455.9808      45.3029     181.5832    -999.2500
    1496.5     456.1332      46.2119     181.8214    -999.2500
    1497.0     456.2856      46.1079     182.0596    -999.2500
    1497.5     456.4380      46.0032     182.3385    -999.2500
    1498.0     456.5904      45.3216     182.7255    -999.2500
    1498.5     456.7428      44.0200     183.1129    -999.2500
    1499.0     456.8952      43.7505     183.8294    -999.2500
    1499.5     457.0476      44.1634     184.9053    -999.2500
    1500.0     457.2000      46.0004     186.3344    -999.2500
    1500.5     457.3524      46.1763     187.7634    -999.2500
    1501.0     457.5048      44.8493     189.1925    -999.2500
    1501.5     457.6572      44.4877     190.6216    -999.2500
    1502.0     457.8096      48.7329     192.0507    -999.2500
    1502.5     457.9620      49.0999     193.4797    -999.2500
    1503.0     458.1144      47.5863     194.9088    -999.2500
    1503.5     458.2668      45.5071     196.3379    -999.2500
    1504.0     458.4192      43.4288     197.7664    -999.2500
    1504.5     458.5716      42.1322     198.7120    -999.2500
    1505.0     458.7240      41.4680     199.1883    -999.2500
    1505.5     458.8764      40.8037     199.6647    -999.2500
    1506.0     459.0288      40.1392     200.1412    -999.2500
    1506.5     459.1812      39.4746     200.6177    -999.2500
    1507.0     459.3336      38.5634     201.2034    -999.2500
    1507.5     459.4860      38.1257     201.7983    -999.2500
    1508.0     459.6384      38.6202     201.9865    -999.2500
    1508.5     459.7908      39.6150     201.2124    -999.2500
    1509.0     459.9432      39.4419     200.4383    -999.2500
    1509.5     460.0956      40.0670     199.6643    -999.2500
    1510.0     460.2480      40.9142     198.8902    -999.2500
    1510.5     460.4004      40.4798     198.1161    -999.2500
    1511.0     460.5528      40.3125     197.3421    -999.2500
    1511.5     460.7052      40.3125     196.5655    -999.2500
    1512.0     460.8576      40.3207     193.6806    -999.2500
    1512.5     461.0100      43.7515     188.0153    -999.2500
    1513.0     461.1624      47.1149     182.3500    -999.2500
    1513.5     461.3148      46.4351     176.6847    -999.2500
    1514.0     461.4672      44.3864     171.0241    -999.2500
    1514.5     461.6196      42.9273     168.5757    -999.2500
    1515.0     461.7720      43.2049     166.7298    -999.2500
    1515.5     461.9244      45.6836     164.8840    -999.2500
    1516.0     462.0768      47.4772     163.0381    -999.2500
    1516.5     462.2292      49.5222     161.1972    -999.2500
    1517.0     462.3816      52.1848     163.2427    -999.2500
    1517.5     462.5340      49.9981     167.8970    -999.2500
    1518.0     462.6864      46.7703     172.5514    -999.2500
    1518.5     462.8388      43.7184     177.2076    -999.2500
    1519.0     462.9912      42.8745     181.8619    -999.2500
    1519.5     463.1436      41.0000     186.5162    -999.2500
    1520.0     463.2960      38.6123     191.1706    -999.2500
    1520.5     463.4484      38.5227     195.8013    -999.2500
    1521.0     463.6008      43.4456     184.0426    -999.2500
    1521.5     463.7532      48.3625     187.2281    -999.2500
    1522.0     463.9056      48.8502     190.4105    -999.2500
    1522.5     464.0580      47.7304     191.3188    -999.2500
    1523.0     464.2104      46.3640     189.5026    -999.2500
    1523.5     464.3628      44.9925     187.6865    -999.2500
    1524.0     464.5152      41.0641     185.8703    -999.2500
    1524.5     464.6676      40.8644     184.0542    -999.2500
    1525.0     464.8200      42.8627     182.2373    -999.2500
    1525.5     464.9724      42.9673     180.4212    -999.2500
    1526.0     465.1248      42.5075     178.6091    -999.2500
    1526.5     465.2772      42.0476     179.5307    -999.2500
    1527.0     465.4296      41.5870     182.3589    -999.2500
    1527.5     465.5820      40.5597     185.1746    -999.2500
    1528.0     465.7344      40.5429     178.9815    -999.2500
    1528.5     465.8868      41.2717     172.4790    -999.2500
    1529.0     466.0392      40.7521     165.9817    -999.2500
    1529.5     466.1916      39.5571     163.4104    -999.2500
    1530.0     466.3440      38.8116     162.6067    -999.2500
    1530.5     466.4964      38.1490     161.8824    -999.2500
