~VERSION INFORMATION
VERS.           2.0   :CWLS Log ASCII Standard - VERSION 2.0
WRAP.           NO    :One Line per depth step
PROD.  Schlumberger   :LAS Producer
PROG.  DLIS to ASCII 2.3                               :LAS Program name and version
CREA.        2024/09/17 09:54                          :LAS Creation date {YYYY/MM/DD hh:mm}
DLIS_CREA.  2024-Sep-16 13:59                          :DLIS Creation date and time {YYYY-MMM-DD hh:mm}
SOURCE.     JUT1_Composite-TOTAL.dlis                  :DLIS File Name
FILE-ID.     CSNOUT.001                                :File Identification Number
#--------------------------------------------------
~WELL INFORMATION
#MNEM.UNIT      DATA             DESCRIPTION
#---- ------ --------------   -----------------------------
STRT .F            7.0       :START DEPTH     
STOP .F        11220.0       :STOP DEPTH     
STEP .F            0.5       :STEP     
NULL .          -999.25      :NULL VALUE
COMP .                                                 :COMPANY
WELL .                                                 :WELL
FLD  .                                                 :FIELD
LOC  .                                                 :LOCATION
CNTY .                                                 :COUNTY
STAT .                                                 :STATE
CTRY .                                                 :COUNTRY
API  .                                                 :API NUMBER
UWI  .                                                 :UNIQUE WELL ID
DATE .                                                 :LOG DATE
SRVC .        Schlumberger                             :SERVICE COMPANY
LATI .DEG                                              :LATITUDE
LONG .DEG                                              :LONGITUDE
GDAT .                                                 :GeoDetic Datum
#-----------------------------------------------------------------------------
~PARAMETER INFORMATION
#MNEM.UNIT    VALUE                      DESCRIPTION
#---- -----   --------------------       ------------------------
RUN  .                                   :RUN NUMBER
PDAT .                                   :Permanent Datum
EPD  .                                   :Elevation of Permanent Datum above Mean Sea Level
LMF  .                                   :Logging Measured From (Name of Logging Elevation Reference)
APD  .                                   :Elevation of Depth Reference (LMF) above Permanent Datum
#-----------------------------------------------------------------------------
~CURVE INFORMATION
#MNEM.UNIT   API CODE                                  DESCRIPTION
#---- -----  --------                                  -----------------------
DEPT .F                                                :DEPTH (BOREHOLE) {F10.1}
DEPT .M                                                : {F13.4}
GR   .GAPI                                             : {F13.4}
DT   .US/F                                             : {F13.4}
RHOB .G/C3                                             : {F13.4}
#-----------------------------------------------------------------------------
# 
#     DEPT        DEPT         GR           DT           RHOB
#
~A  
# ...
    8198.5    2498.9028      93.5295      70.8194       2.6760
    8199.0    2499.0552      89.4167      70.8123       2.6840
    8199.5    2499.2076      86.7898      69.6700       2.6876
    8200.0    2499.3600      85.2636      68.5239       2.6761
    8200.5    2499.5124      85.3664      67.3779       2.6708
    8201.0    2499.6648      85.5453      66.2318       2.6810
    8201.5    2499.8172      84.6110      65.0858       2.6910
    8202.0    2499.9696      83.1157      63.9398       2.6941
    8202.5    2500.1220      81.4228      62.7937       2.6839
    8203.0    2500.2744      79.4590      61.6477       2.6752
    8203.5    2500.4268      76.6819      60.5057       2.6799
    8204.0    2500.5792      73.9144      60.5321       2.6903
    8204.5    2500.7316      72.3630      61.8446       2.7026
    8205.0    2500.8840      71.5271      63.1566       2.7120
    8205.5    2501.0364      70.2334      64.0765       2.7168
    8206.0    2501.1888      68.7105      63.4317       2.7075
    8206.5    2501.3412      67.2135      62.7869       2.7057
    8207.0    2501.4936      66.3657      62.1453       2.7331
    8207.5    2501.6460      67.6402      62.6035       2.7516
    8208.0    2501.7984      70.6932      63.1506       2.7467
    8208.5    2501.9508      71.3389      63.6987       2.7474
    8209.0    2502.1032      70.3639      63.2874       2.7671
    8209.5    2502.2556      68.8892      62.3518       2.7444
    8210.0    2502.4080      67.9714      61.4163       2.7217
    8210.5    2502.5604      69.4111      60.4883       2.7042
    8211.0    2502.7128      73.3482      62.8954       2.6851
    8211.5    2502.8652      75.4850      66.6183       2.6895
    8212.0    2503.0176      76.4063      70.3329       2.6891
    8212.5    2503.1700      76.4063      71.5553       2.6757
    8213.0    2503.3224      76.4044      69.6007       2.6803
    8213.5    2503.4748      74.3201      67.6461       2.6843
    8214.0    2503.6272      72.1529      65.6915       2.6819
    8214.5    2503.7796      71.0247      63.7379       2.6807
    8215.0    2503.9320      75.6002      62.3271       2.6740
    8215.5    2504.0844      82.2283      63.1029       2.6786
    8216.0    2504.2368      88.4034      63.8761       2.6885
    8216.5    2504.3892      88.6769      63.7823       2.6918
    8217.0    2504.5416      87.4272      63.0552       2.6854
    8217.5    2504.6940      84.7271      62.3257       2.6783
    8218.0    2504.8464      79.1976      61.5962       2.6756
    8218.5    2504.9988      74.4529      60.8667       2.6988
    8219.0    2505.1512      73.6501      60.1373       2.7208
    8219.5    2505.3036      73.8395      59.4078       2.7427
    8220.0    2505.4560      75.6256      58.6783       2.7645
    8220.5    2505.6084      75.4327      57.9488       2.7617
    8221.0    2505.7607      73.4022      57.2219       2.7365
    8221.5    2505.9132      69.9028      56.4922       2.7093
    8222.0    2506.0656      66.4047      55.7642       2.6946
    8222.5    2506.2180      62.9066      56.4313       2.6844
    8223.0    2506.3704      59.4085      57.4887       2.6822
    8223.5    2506.5228      55.9182      58.5461       2.6814
    8224.0    2506.6752      55.9447      59.6035       2.6789
    8224.5    2506.8276      56.6214      60.6609       2.6640
    8225.0    2506.9800      55.8454      61.7183       2.6866
    8225.5    2507.1324      55.1585      62.7723       2.7043
    8226.0    2507.2848      56.6988      63.8297       2.7116
    8226.5    2507.4372      61.9364      64.8860       2.6927
    8227.0    2507.5896      67.8596      65.0654       2.7127
    8227.5    2507.7420      71.7811      64.6835       2.7304
    8228.0    2507.8944      75.2678      64.3024       2.7285
    8228.5    2508.0468      77.7514      64.2581       2.7264
    8229.0    2508.1992      78.2633      64.8875       2.7264
    8229.5    2508.3516      78.7753      65.5169       2.7238
    8230.0    2508.5040      79.2941      66.1443       2.7076
    8230.5    2508.6564      79.8207      66.7737       2.6954
    8231.0    2508.8088      80.4355      67.4031       2.7029
    8231.5    2508.9612      81.8735      68.0322       2.7089
    8232.0    2509.1136      84.1422      68.5062       2.6973
    8232.5    2509.2660      86.0073      67.9104       2.6961
    8233.0    2509.4184      87.4417      67.6644       2.6930
    8233.5    2509.5708      89.2477      69.2505       2.6861
    8234.0    2509.7231      91.1516      70.8309       2.6951
    8234.5    2509.8756      92.1672      72.4176       2.7083
    8235.0    2510.0280      93.1825      74.0007       2.7040
    8235.5    2510.1804      94.1969      72.8555       2.7290
    8236.0    2510.3328      94.5792      69.6786       2.7412
    8236.5    2510.4852      93.3847      69.0052       2.7216
    8237.0    2510.6376      92.1919      69.9600       2.7018
    8237.5    2510.7900      91.6540      70.9098       2.7186
    8238.0    2510.9424      91.0100      70.1309       2.7287
    8238.5    2511.0948      90.2064      69.3276       2.7001
    8239.0    2511.2472      89.3994      69.5494       2.6636
    8239.5    2511.3996      87.7356      71.5541       2.6970
    8240.0    2511.5520      86.8025      73.5586       2.7146
    8240.5    2511.7044      87.7542      75.4731       2.6876
    8241.0    2511.8568      87.8992      76.4727       2.6566
    8241.5    2512.0092      86.9370      77.4723       2.6896
    8242.0    2512.1616      86.5158      78.4719       2.7542
    8242.5    2512.3140      87.3369      79.4715       2.7865
    8243.0    2512.4664      90.9607      80.4672       2.7796
    8243.5    2512.6188      94.6588      80.2292       2.7502
    8244.0    2512.7712      95.4512      79.7658       2.7189
    8244.5    2512.9236      94.6801      79.3023       2.6877
    8245.0    2513.0760      94.4539      78.8388       2.6564
    8245.5    2513.2284      94.8122      78.3753       2.6382
    8246.0    2513.3808      95.3231      77.9118       2.6478
    8246.5    2513.5332      95.5006      77.4483       2.6575
    8247.0    2513.6855      97.0722      76.9864       2.6652
    8247.5    2513.8380     100.1441      76.5228       2.6656
    8248.0    2513.9904     102.2966      76.0593       2.6557
    8248.5    2514.1428     102.6224      75.5966       2.6624
    8249.0    2514.2952     102.9465      75.6616       2.6713
    8249.5    2514.4476     102.3747      75.9450       2.6719
    8250.0    2514.6000     100.7333      76.2284       2.6757
    8250.5    2514.7524      99.0918      76.5119       2.6846
    8251.0    2514.9048      97.4031      76.7928       2.7009
    8251.5    2515.0572      95.6172      76.3105       2.7107
    8252.0    2515.2096      93.8265      74.9442       2.7192
    8252.5    2515.3620      93.3050      73.5779       2.7275
    8253.0    2515.5144      93.9614      72.2116       2.7370
    8253.5    2515.6668      94.5644      70.8452       2.7344
    8254.0    2515.8192      94.8871      69.4822       2.7101
    8254.5    2515.9716      93.8889      69.5262       2.6980
    8255.0    2516.1240      91.3837      70.6362       2.6885
    8255.5    2516.2764      87.9251      71.7462       2.6821
    8256.0    2516.4288      85.2586      72.8527       2.7016
    8256.5    2516.5812      85.3779      73.9627       2.7034
    8257.0    2516.7336      87.5308      75.0727       2.6813
    8257.5    2516.8860      88.2306      76.1499       2.7030
    8258.0    2517.0384      90.6611      75.3621       2.7128
    8258.5    2517.1908      91.4918      74.5742       2.7025
    8259.0    2517.3432      91.6211      73.7864       2.6934
    8259.5    2517.4956      91.3689      72.9986       2.7064
    8260.0    2517.6479      90.0826      72.2135       2.7337
    8260.5    2517.8004      87.7573      71.4257       2.7514
    8261.0    2517.9528      87.2311      71.0978       2.7189
    8261.5    2518.1052      88.7126      71.3023       2.6863
