~VERSION INFORMATION
VERS.           2.0   :CWLS Log ASCII Standard - VERSION 2.0
WRAP.           NO    :One Line per depth step
PROD.  Schlumberger   :LAS Producer
PROG.  DLIS to ASCII 2.3                               :LAS Program name and version
CREA.        2024/09/17 09:54                          :LAS Creation date {YYYY/MM/DD hh:mm}
DLIS_CREA.  2024-Sep-16 13:59                          :DLIS Creation date and time {YYYY-MMM-DD hh:mm}
SOURCE.     JUT1_Composite-TOTAL.dlis                  :DLIS File Name
FILE-ID.     CSNOUT.001                                :File Identification Number
#--------------------------------------------------
~WELL INFORMATION
#MNEM.UNIT      DATA             DESCRIPTION
#---- ------ --------------   -----------------------------
STRT .F            7.0       :START DEPTH     
STOP .F        11220.0       :STOP DEPTH     
STEP .F            0.5       :STEP     
NULL .          -999.25      :NULL VALUE
COMP .                                                 :COMPANY
WELL .                                                 :WELL
FLD  .                                                 :FIELD
LOC  .                                                 :LOCATION
CNTY .                                                 :COUNTY
STAT .                                                 :STATE
CTRY .                                                 :COUNTRY
API  .                                                 :API NUMBER
UWI  .                                                 :UNIQUE WELL ID
DATE .                                                 :LOG DATE
SRVC .        Schlumberger                             :SERVICE COMPANY
LATI .DEG                                              :LATITUDE
LONG .DEG                                              :LONGITUDE
GDAT .                                                 :GeoDetic Datum
#-----------------------------------------------------------------------------
~PARAMETER INFORMATION
#MNEM.UNIT    VALUE                      DESCRIPTION
#---- -----   --------------------       ------------------------
RUN  .                                   :RUN NUMBER
PDAT .                                   :Permanent Datum
EPD  .                                   :Elevation of Permanent Datum above Mean Sea Level
LMF  .                                   :Logging Measured From (Name of Logging Elevation Reference)
APD  .                                   :Elevation of Depth Reference (LMF) above Permanent Datum
#-----------------------------------------------------------------------------
~CURVE INFORMATION
#MNEM.UNIT   API CODE                                  DESCRIPTION
#---- -----  --------                                  -----------------------
DEPT .F                                                :DEPTH (BOREHOLE) {F10.1}
DEPT .M                                                : {F13.4}
GR   .GAPI                                             : {F13.4}
DT   .US/F                                             : {F13.4}
RHOB .G/C3                                             : {F13.4}
#-----------------------------------------------------------------------------
# 
#     DEPT        DEPT         GR           DT           RHOB
#
~A  
# ...
    3753.5    1144.0668      59.0256      71.6823       2.6397
    3754.0    1144.2192      60.3878      72.9905       2.6397
    3754.5    1144.3716      62.9826      74.2985       2.6401
    3755.0    1144.5240      65.5720      75.4741       2.6391
    3755.5    1144.6764      65.6267      74.3166       2.6332
    3756.0    1144.8288      64.2643      73.1571       2.6241
    3756.5    1144.9812      63.0735      71.9977       2.6182
    3757.0    1145.1336      62.3795      70.8382       2.6116
    3757.5    1145.2860      61.9916      69.6837       2.5992
    3758.0    1145.4384      62.6911      70.6188       2.5815
    3758.5    1145.5908      63.4457      70.9730       2.5820
    3759.0    1145.7432      64.8432      70.2595       2.5877
    3759.5    1145.8956      66.9883      69.5475       2.5920
    3760.0    1146.0480      68.1181      69.5815       2.6010
    3760.5    1146.2004      68.5443      72.1781       2.6107
    3761.0    1146.3528      68.3130      74.7747       2.6170
    3761.5    1146.5052      67.8708      77.3690       2.6221
    3762.0    1146.6576      66.6437      78.8498       2.6317
    3762.5    1146.8100      65.9276      77.6725       2.6255
    3763.0    1146.9624      64.8115      76.4952       2.6209
    3763.5    1147.1148      63.7906      75.3178       2.6304
    3764.0    1147.2672      62.9858      74.1405       2.6418
    3764.5    1147.4196      62.3555      72.9651       2.6448
    3765.0    1147.5720      61.9460      71.7879       2.6263
    3765.5    1147.7244      61.2905      70.7079       2.6121
    3766.0    1147.8768      60.4724      69.6615       2.5978
    3766.5    1148.0292      59.6563      68.6178       2.5809
    3767.0    1148.1816      59.7054      68.7430       2.5624
    3767.5    1148.3340      61.1427      70.2001       2.5440
    3768.0    1148.4864      62.5617      71.6560       2.5256
    3768.5    1148.6388      62.8471      72.5698       2.5133
    3769.0    1148.7912      62.5761      73.3874       2.5091
    3769.5    1148.9436      62.1469      74.2050       2.5081
    3770.0    1149.0960      61.8584      75.0226       2.5108
    3770.5    1149.2484      62.3376      75.8372       2.5319
    3771.0    1149.4008      63.6179      75.3425       2.5087
    3771.5    1149.5532      66.1949      73.9970       2.5208
    3772.0    1149.7056      68.7867      74.2380       2.5340
    3772.5    1149.8580      71.5291      75.3676       2.5417
    3773.0    1150.0104      73.5974      76.4575       2.5479
    3773.5    1150.1628      74.6278      75.7677       2.5329
    3774.0    1150.3152      75.1548      75.0779       2.5349
    3774.5    1150.4676      76.9022      74.3930       2.5663
    3775.0    1150.6200      78.7981      76.0366       2.5900
    3775.5    1150.7724      80.0220      78.4830       2.5786
    3776.0    1150.9248      79.0490      80.9294       2.5683
    3776.5    1151.0772      77.0843      83.3743       2.5647
    3777.0    1151.2296      75.3403      85.0102       2.5652
    3777.5    1151.3820      74.7038      82.4151       2.5526
    3778.0    1151.5344      75.1276      79.8158       2.5566
    3778.5    1151.6868      75.7152      77.2165       2.5728
    3779.0    1151.8392      76.8930      74.6219       2.5596
    3779.5    1151.9916      79.8931      74.1436       2.5562
    3780.0    1152.1440      80.8567      75.2437       2.5912
    3780.5    1152.2964      78.6170      76.3393       2.6154
    3781.0    1152.4488      75.7703      74.8289       2.6106
    3781.5    1152.6012      74.1326      73.1903       2.6204
    3782.0    1152.7536      73.9215      71.5517       2.6260
    3782.5    1152.9060      74.2702      72.0892       2.6220
    3783.0    1153.0584      73.9946      73.6650       2.6164
    3783.5    1153.2108      73.1101      75.2408       2.6140
    3784.0    1153.3632      71.9395      76.8141       2.6189
    3784.5    1153.5156      71.3826      78.3899       2.6221
    3785.0    1153.6680      72.0559      79.9657       2.6243
    3785.5    1153.8204      73.1455      81.5415       2.6235
    3786.0    1153.9728      74.2628      83.1122       2.6145
    3786.5    1154.1252      75.4489      81.9638       2.5998
    3787.0    1154.2776      75.9416      80.1998       2.6219
    3787.5    1154.4300      75.1516      78.4357       2.6188
    3788.0    1154.5824      73.6082      76.6770       2.6007
    3788.5    1154.7348      72.0672      77.1398       2.5787
    3789.0    1154.8872      70.5176      77.8930       2.6038
    3789.5    1155.0396      68.4985      78.6462       2.6392
    3790.0    1155.1920      65.9434      79.3955       2.6400
    3790.5    1155.3444      62.7117      78.4103       2.6544
    3791.0    1155.4968      60.5762      77.3429       2.6595
    3791.5    1155.6492      61.3907      78.2716       2.6734
    3792.0    1155.8016      64.7331      79.2229       2.6635
    3792.5    1155.9540      68.0702      80.1722       2.6745
    3793.0    1156.1064      71.4098      80.5723       2.6756
    3793.5    1156.2588      72.5826      80.7507       2.6583
    3794.0    1156.4112      72.4425      80.9291       2.6352
    3794.5    1156.5636      71.8442      81.1061       2.6214
    3795.0    1156.7160      70.3947      80.6919       2.6107
    3795.5    1156.8684      69.4237      80.1122       2.6102
    3796.0    1157.0208      68.8692      79.5325       2.6248
    3796.5    1157.1732      66.8457      78.9528       2.6553
    3797.0    1157.3256      64.9839      78.3745       2.6600
    3797.5    1157.4780      64.5640      78.2376       2.6552
    3798.0    1157.6304      66.7023      78.4774       2.6534
    3798.5    1157.7828      70.0266      79.7896       2.6518
    3799.0    1157.9352      73.3455      81.8865       2.6442
    3799.5    1158.0876      76.5809      83.0431       2.6279
    3800.0    1158.2400      77.0142      83.5950       2.6166
    3800.5    1158.3924      76.1890      82.2676       2.6251
    3801.0    1158.5448      74.6199      79.9074       2.6335
    3801.5    1158.6972      71.3956      77.5510       2.6408
    3802.0    1158.8496      65.3713      75.1908       2.6531
    3802.5    1159.0020      57.5926      72.8306       2.6706
    3803.0    1159.1544      50.8483      70.4705       2.6897
    3803.5    1159.3068      45.6610      68.1141       2.7144
    3804.0    1159.4592      42.7306      65.7546       2.7415
    3804.5    1159.6116      41.3146      63.9223       2.7693
    3805.0    1159.7640      44.5884      65.6230       2.7890
    3805.5    1159.9164      51.0137      67.3211       2.8042
    3806.0    1160.0688      57.4492      69.0218       2.7822
    3806.5    1160.2212      63.8800      70.7226       2.7471
    3807.0    1160.3736      67.4577      72.4234       2.7120
    3807.5    1160.5260      68.5990      74.1241       2.6769
    3808.0    1160.6784      70.4065      75.8272       2.6419
    3808.5    1160.8308      72.5506      77.5367       2.6068
    3809.0    1160.9832      75.6667      79.2462       2.5718
    3809.5    1161.1356      78.5593      80.9557       2.5869
    3810.0    1161.2880      77.0659      82.6603       2.5828
    3810.5    1161.4404      73.2074      82.2885       2.5725
    3811.0    1161.5928      69.3503      77.8288       2.5930
    3811.5    1161.7452      66.3088      73.3691       2.5885
    3812.0    1161.8976      66.8785      68.9185       2.6026
    3812.5    1162.0500      67.1842      66.6464       2.6255
    3813.0    1162.2024      66.5137      67.5680       2.6536
    3813.5    1162.3548      65.5647      68.4897       2.6730
    3814.0    1162.5072      65.0023      69.4113       2.6750
    3814.5    1162.6596      64.8607      70.3312       2.6740
    3815.0    1162.8120      64.6116      71.0113       2.6797
    3815.5    1162.9644      63.3897      70.4761       2.6920
    3816.0    1163.1168      61.7840      69.9410       2.6875
    3816.5    1163.2692      59.2228      69.4065       2.6924
