~VERSION INFORMATION
VERS.           2.0   :CWLS Log ASCII Standard - VERSION 2.0
WRAP.           NO    :One Line per depth step
PROD.  Schlumberger   :LAS Producer
PROG.  DLIS to ASCII 2.3                               :LAS Program name and version
CREA.        2024/09/17 09:54                          :LAS Creation date {YYYY/MM/DD hh:mm}
DLIS_CREA.  2024-Sep-16 13:59                          :DLIS Creation date and time {YYYY-MMM-DD hh:mm}
SOURCE.     JUT1_Composite-TOTAL.dlis                  :DLIS File Name
FILE-ID.     CSNOUT.001                                :File Identification Number
#--------------------------------------------------
~WELL INFORMATION
#MNEM.UNIT      DATA             DESCRIPTION
#---- ------ --------------   -----------------------------
STRT .F            7.0       :START DEPTH     
STOP .F        11220.0       :STOP DEPTH     
STEP .F            0.5       :STEP     
NULL .          -999.25      :NULL VALUE
COMP .                                                 :COMPANY
WELL .                                                 :WELL
FLD  .                                                 :FIELD
LOC  .                                                 :LOCATION
CNTY .                                                 :COUNTY
STAT .                                                 :STATE
CTRY .                                                 :COUNTRY
API  .                                                 :API NUMBER
UWI  .                                                 :UNIQUE WELL ID
DATE .                                                 :LOG DATE
SRVC .        Schlumberger                             :SERVICE COMPANY
LATI .DEG                                              :LATITUDE
LONG .DEG                                              :LONGITUDE
GDAT .                                                 :GeoDetic Datum
#-----------------------------------------------------------------------------
~PARAMETER INFORMATION
#MNEM.UNIT    VALUE                      DESCRIPTION
#---- -----   --------------------       ------------------------
RUN  .                                   :RUN NUMBER
PDAT .                                   :Permanent Datum
EPD  .                                   :Elevation of Permanent Datum above Mean Sea Level
LMF  .                                   :Logging Measured From (Name of Logging Elevation Reference)
APD  .                                   :Elevation of Depth Reference (LMF) above Permanent Datum
#-----------------------------------------------------------------------------
~CURVE INFORMATION
#MNEM.UNIT   API CODE                                  DESCRIPTION
#---- -----  --------                                  -----------------------
DEPT .F                                                :DEPTH (BOREHOLE) {F10.1}
DEPT .M                                                : {F13.4}
GR   .GAPI                                             : {F13.4}
DT   .US/F                                             : {F13.4}
RHOB .G/C3                                             : {F13.4}
#-----------------------------------------------------------------------------
# 
#     DEPT        DEPT         GR           DT           RHOB
#
~A  
# ...
    2991.5     911.8092      51.7257     144.3773    -999.2500
    2992.0     911.9616      52.3012     144.1988    -999.2500
    2992.5     912.1140      54.6702     144.0204    -999.2500
    2993.0     912.2664      53.3485     143.9697    -999.2500
    2993.5     912.4188      51.7664     143.9399    -999.2500
    2994.0     912.5712      51.0930     143.9267    -999.2500
    2994.5     912.7236      52.5260     143.9663    -999.2500
    2995.0     912.8760      54.7131     144.0275    -999.2500
    2995.5     913.0284      54.0776     144.1465    -999.2500
    2996.0     913.1808      53.2848     144.3230    -999.2500
    2996.5     913.3332      51.8169     144.7559    -999.2500
    2997.0     913.4856      51.7124     145.3273    -999.2500
    2997.5     913.6380      51.0772     145.8981    -999.2500
    2998.0     913.7904      50.2348     146.4695    -999.2500
    2998.5     913.9428      53.1107     147.0404    -999.2500
    2999.0     914.0952      54.8322     147.6112    -999.2500
    2999.5     914.2476      57.1662     147.7940    -999.2500
    3000.0     914.4000      58.1811     144.2229    -999.2500
    3000.5     914.5524      54.6227     141.0062    -999.2500
    3001.0     914.7048      52.8000     140.2075    -999.2500
    3001.5     914.8572      51.4266     139.4082    -999.2500
    3002.0     915.0096      51.0964     138.6095    -999.2500
    3002.5     915.1620      52.8440     137.8091    -999.2500
    3003.0     915.3144      53.6166     136.3795    -999.2500
    3003.5     915.4668      54.3899     134.4078    -999.2500
    3004.0     915.6192      55.1625     132.4378    -999.2500
    3004.5     915.7716      55.9357     130.4662    -999.2500
    3005.0     915.9240      56.7072     128.4962    -999.2500
    3005.5     916.0764      56.5017     126.5246    -999.2500
    3006.0     916.2288      55.6710     124.5546    -999.2500
    3006.5     916.3812      54.8377     122.5830    -999.2500
    3007.0     916.5336      52.6671     120.6113    -999.2500
    3007.5     916.6860      50.6304     118.6416    -999.2500
    3008.0     916.8384      50.9373     116.8841    -999.2500
    3008.5     916.9908      52.5428     119.0727    -999.2500
    3009.0     917.1432      54.6009     121.2630    -999.2500
    3009.5     917.2956      56.5032     123.4515    -999.2500
    3010.0     917.4480      55.5909     125.6418    -999.2500
    3010.5     917.6004      55.3422     127.8303    -999.2500
    3011.0     917.7528      56.8763     130.0187    -999.2500
    3011.5     917.9052      58.5670     131.0057    -999.2500
    3012.0     918.0576      58.5669     130.7676    -999.2500
    3012.5     918.2100      58.5289     130.5300    -999.2500
    3013.0     918.3624      57.6905     130.5643    -999.2500
    3013.5     918.5148      56.8485     131.5763    -999.2500
    3014.0     918.6672      53.9661     132.5856    -999.2500
    3014.5     918.8196      49.0824     132.2594    -999.2500
    3015.0     918.9720      46.6356     131.0267    -999.2500
    3015.5     919.1244      45.8159     129.7931    -999.2500
    3016.0     919.2768      48.2865     128.5604    -999.2500
    3016.5     919.4292      52.4851     127.3267    -999.2500
    3017.0     919.5816      54.2694     126.0941    -999.2500
    3017.5     919.7340      51.7314     124.8617    -999.2500
    3018.0     919.8864      48.8607     124.4584    -999.2500
    3018.5     920.0388      47.7662     125.3809    -999.2500
    3019.0     920.1912      48.4260     126.3006    -999.2500
    3019.5     920.3436      48.1300     125.2228    -999.2500
    3020.0     920.4960      48.4893     123.5222    -999.2500
    3020.5     920.6484      49.5573     121.8228    -999.2500
    3021.0     920.8008      50.6260     120.1220    -999.2500
    3021.5     920.9532      51.5406     118.3434    -999.2500
    3022.0     921.1056      51.7103     116.1888    -999.2500
    3022.5     921.2580      49.8525     114.0358    -999.2500
    3023.0     921.4104      47.7589     111.8812    -999.2500
    3023.5     921.5628      46.7791     109.7283    -999.2500
    3024.0     921.7152      45.3480     107.5737    -999.2500
    3024.5     921.8676      42.6431     105.4236    -999.2500
    3025.0     922.0200      41.0534     105.7758    -999.2500
    3025.5     922.1724      40.4600     107.6681    -999.2500
    3026.0     922.3248      39.8928     109.5619    -999.2500
    3026.5     922.4772      41.0103     111.4558    -999.2500
    3027.0     922.6296      42.1258     113.3481    -999.2500
    3027.5     922.7820      42.3733     115.2419    -999.2500
    3028.0     922.9344      39.9999     117.1325    -999.2500
    3028.5     923.0868      37.6275     117.6447    -999.2500
    3029.0     923.2392      37.0125     116.1634    -999.2500
    3029.5     923.3916      38.2216     114.6808    -999.2500
    3030.0     923.5440      38.9798     113.1995    -999.2500
    3030.5     923.6964      39.6929     111.7169    -999.2500
    3031.0     923.8488      40.7411     110.2355    -999.2500
    3031.5     924.0012      42.5568     108.7525    -999.2500
    3032.0     924.1536      44.1485     106.9427    -999.2500
    3032.5     924.3060      43.4709     103.8160    -999.2500
    3033.0     924.4584      42.7080     100.6868    -999.2500
    3033.5     924.6108      41.5233      97.5601    -999.2500
    3034.0     924.7632      41.6479      94.4407    -999.2500
    3034.5     924.9156      43.2306      97.0606    -999.2500
    3035.0     925.0680      45.5737     103.3692    -999.2500
    3035.5     925.2204      46.7099     109.6700    -999.2500
    3036.0     925.3728      46.5522     113.7845    -999.2500
    3036.5     925.5252      46.7779     113.4871    -999.2500
    3037.0     925.6776      48.6770     113.1900    -999.2500
    3037.5     925.8300      48.7437     113.2725    -999.2500
    3038.0     925.9824      48.2159     113.5105    -999.2500
    3038.5     926.1348      47.6871     113.7486    -999.2500
    3039.0     926.2872      46.6382     113.9864    -999.2500
    3039.5     926.4396      47.8013     114.2244    -999.2500
    3040.0     926.5920      51.1239     114.4615    -999.2500
    3040.5     926.7444      54.4478     114.1090    -999.2500
    3041.0     926.8968      57.0482     113.6184    -999.2500
    3041.5     927.0492      57.2151     113.1273    -999.2500
    3042.0     927.2016      55.6910     112.6366    -999.2500
    3042.5     927.3540      51.5394     112.1466    -999.2500
    3043.0     927.5064      50.1485     112.3106    -999.2500
    3043.5     927.6588      49.9088     112.9772    -999.2500
    3044.0     927.8112      48.1404     113.6427    -999.2500
    3044.5     927.9636      46.4453     113.7676    -999.2500
    3045.0     928.1160      45.7469     112.5602    -999.2500
    3045.5     928.2684      45.1718     111.3538    -999.2500
    3046.0     928.4208      45.4811     110.1465    -999.2500
    3046.5     928.5732      46.7978     108.9420    -999.2500
    3047.0     928.7256      48.8774     109.1959    -999.2500
    3047.5     928.8780      49.5328     110.0761    -999.2500
    3048.0     929.0304      49.6164     110.9564    -999.2500
    3048.5     929.1828      51.4189     111.4546    -999.2500
    3049.0     929.3352      51.5176     111.4308    -999.2500
    3049.5     929.4876      50.0924     111.4070    -999.2500
    3050.0     929.6400      48.5098     111.4561    -999.2500
    3050.5     929.7924      47.4425     111.9322    -999.2500
    3051.0     929.9448      46.8585     112.7131    -999.2500
    3051.5     930.0972      45.6709     113.5549    -999.2500
    3052.0     930.2496      44.4853     114.3959    -999.2500
    3052.5     930.4020      44.1042     115.2377    -999.2500
    3053.0     930.5544      44.0547     116.0787    -999.2500
    3053.5     930.7068      43.1274     116.9205    -999.2500
    3054.0     930.8592      42.5801     117.7616    -999.2500
    3054.5     931.0116      44.5468     118.6033    -999.2500
