~VERSION INFORMATION
VERS.           2.0   :CWLS Log ASCII Standard - VERSION 2.0
WRAP.           NO    :One Line per depth step
PROD.  Schlumberger   :LAS Producer
PROG.  DLIS to ASCII 2.3                               :LAS Program name and version
CREA.        2024/09/17 09:54                          :LAS Creation date {YYYY/MM/DD hh:mm}
DLIS_CREA.  2024-Sep-16 13:59                          :DLIS Creation date and time {YYYY-MMM-DD hh:mm}
SOURCE.     JUT1_Composite-TOTAL.dlis                  :DLIS File Name
FILE-ID.     CSNOUT.001                                :File Identification Number
#--------------------------------------------------
~WELL INFORMATION
#MNEM.UNIT      DATA             DESCRIPTION
#---- ------ --------------   -----------------------------
STRT .F            7.0       :START DEPTH     
STOP .F        11220.0       :STOP DEPTH     
STEP .F            0.5       :STEP     
NULL .          -999.25      :NULL VALUE
COMP .                                                 :COMPANY
WELL .                                                 :WELL
FLD  .                                                 :FIELD
LOC  .                                                 :LOCATION
CNTY .                                                 :COUNTY
STAT .                                                 :STATE
CTRY .                                                 :COUNTRY
API  .                                                 :API NUMBER
UWI  .                                                 :UNIQUE WELL ID
DATE .                                                 :LOG DATE
SRVC .        Schlumberger                             :SERVICE COMPANY
LATI .DEG                                              :LATITUDE
LONG .DEG                                              :LONGITUDE
GDAT .                                                 :GeoDetic Datum
#-----------------------------------------------------------------------------
~PARAMETER INFORMATION
#MNEM.UNIT    VALUE                      DESCRIPTION
#---- -----   --------------------       ------------------------
RUN  .                                   :RUN NUMBER
PDAT .                                   :Permanent Datum
EPD  .                                   :Elevation of Permanent Datum above Mean Sea Level
LMF  .                                   :Logging Measured From (Name of Logging Elevation Reference)
APD  .                                   :Elevation of Depth Reference (LMF) above Permanent Datum
#-----------------------------------------------------------------------------
~CURVE INFORMATION
#MNEM.UNIT   API CODE                                  DESCRIPTION
#---- -----  --------                                  -----------------------
DEPT .F                                                :DEPTH (BOREHOLE) {F10.1}
DEPT .M                                                : {F13.4}
GR   .GAPI                                             : {F13.4}
DT   .US/F                                             : {F13.4}
RHOB .G/C3                                             : {F13.4}
#-----------------------------------------------------------------------------
# 
#     DEPT        DEPT         GR           DT           RHOB
#
~A  
# ...
    4452.0    1356.9696      77.9563      68.4619       2.6637
    4452.5    1357.1220      76.3559      68.3781       2.6649
    4453.0    1357.2744      74.3710      68.1879       2.6654
    4453.5    1357.4268      73.3356      67.9984       2.6537
    4454.0    1357.5792      72.6763      68.1925       2.6458
    4454.5    1357.7316      73.1107      68.5658       2.6474
    4455.0    1357.8840      74.4227      68.9397       2.6487
    4455.5    1358.0364      75.2396      69.3135       2.6428
    4456.0    1358.1888      74.4156      69.6818       2.6501
    4456.5    1358.3412      73.2766      69.9985       2.6539
    4457.0    1358.4936      73.4752      70.3157       2.6588
    4457.5    1358.6460      79.0263      70.6327       2.6586
    4458.0    1358.7984      85.1876      70.8545       2.6491
    4458.5    1358.9508      91.3433      70.5997       2.6527
    4459.0    1359.1032      95.0929      70.3453       2.6627
    4459.5    1359.2556      92.6424      70.0905       2.6545
    4460.0    1359.4080      86.9153      69.8369       2.6613
    4460.5    1359.5604      81.1883      70.2402       2.6717
    4461.0    1359.7128      75.4903      71.1187       2.6709
    4461.5    1359.8652      74.8303      71.9980       2.6670
    4462.0    1360.0176      74.6382      72.4875       2.6658
    4462.5    1360.1700      75.5486      72.0832       2.6513
    4463.0    1360.3224      76.1317      71.6795       2.6405
    4463.5    1360.4748      77.4601      71.3012       2.6425
    4464.0    1360.6272      78.3949      71.8067       2.6426
    4464.5    1360.7796      77.9512      72.3115       2.6426
    4465.0    1360.9320      77.8099      72.4769       2.6458
    4465.5    1361.0844      78.6127      72.1505       2.6495
    4466.0    1361.2368      80.0000      71.8239       2.6465
    4466.5    1361.3892      79.9970      71.7354       2.6421
    4467.0    1361.5416      78.3585      71.7116       2.6471
    4467.5    1361.6940      75.7048      71.6879       2.6541
    4468.0    1361.8464      74.0551      71.6763       2.6580
    4468.5    1361.9988      74.8799      71.6763       2.6714
    4469.0    1362.1512      77.1687      71.6771       2.6775
    4469.5    1362.3036      78.8459      72.0156       2.6765
    4470.0    1362.4560      79.0603      72.3962       2.6594
    4470.5    1362.6084      78.4403      72.7769       2.6666
    4471.0    1362.7608      77.4098      73.2161       2.6706
    4471.5    1362.9132      76.3792      73.6918       2.6681
    4472.0    1363.0656      75.3529      74.1667       2.6669
    4472.5    1363.2180      76.6745      74.6424       2.6523
    4473.0    1363.3704      78.1038      75.1145       2.6592
    4473.5    1363.5228      78.0824      75.4712       2.6820
    4474.0    1363.6752      77.8455      75.8270       2.6868
    4474.5    1363.8276      78.5103      75.8919       2.6756
    4475.0    1363.9800      79.4283      75.5352       2.6667
    4475.5    1364.1324      79.2218      75.1784       2.6652
    4476.0    1364.2848      77.7033      74.8221       2.6694
    4476.5    1364.4372      76.3797      74.3326       2.6616
    4477.0    1364.5896      76.0629      73.6991       2.6649
    4477.5    1364.7420      76.4800      73.6524       2.6677
    4478.0    1364.8944      77.5398      74.1621       2.6710
    4478.5    1365.0468      78.9068      74.6709       2.6749
    4479.0    1365.1992      80.2776      75.1806       2.6782
    4479.5    1365.3516      82.7218      75.6895       2.6809
    4480.0    1365.5040      84.7721      75.7709       2.6762
    4480.5    1365.6564      86.8406      75.8184       2.6555
    4481.0    1365.8088      89.4310      75.8658       2.6435
    4481.5    1365.9612      92.0162      75.7791       2.6417
    4482.0    1366.1136      91.6236      75.6163       2.6410
    4482.5    1366.2660      87.4813      73.4288       2.6475
    4483.0    1366.4184      81.1258      70.3069       2.6381
    4483.5    1366.5708      71.8285      67.4710       2.6342
    4484.0    1366.7232      66.4951      68.6262       2.6420
    4484.5    1366.8756      66.0382      69.7815       2.6355
    4485.0    1367.0280      70.4656      70.9349       2.6263
    4485.5    1367.1804      72.4847      72.0880       2.6198
    4486.0    1367.3328      70.0372      71.7283       2.6167
    4486.5    1367.4852      64.4247      69.7305       2.6139
    4487.0    1367.6376      58.8212      67.7358       2.6229
    4487.5    1367.7900      53.2116      65.7380       2.6589
    4488.0    1367.9424      49.7757      63.7401       2.6895
    4488.5    1368.0948      48.4035      61.7423       2.7187
    4489.0    1368.2472      46.6322      59.7476       2.7150
    4489.5    1368.3996      42.6464      57.7498       2.7105
    4490.0    1368.5520      39.1717      55.7519       2.7212
    4490.5    1368.7044      36.1294      53.7597       2.7405
    4491.0    1368.8568      35.0880      54.6382       2.7598
    4491.5    1369.0092      37.5102      57.0403       2.7789
    4492.0    1369.1616      46.8775      59.4463       2.7551
    4492.5    1369.3140      56.3808      61.8523       2.7204
    4493.0    1369.4664      65.8840      64.2582       2.6958
    4493.5    1369.6188      75.3704      66.6603       2.6943
    4494.0    1369.7712      83.0984      69.0663       2.6727
    4494.5    1369.9236      83.5556      71.4717       2.6436
    4495.0    1370.0760      80.8830      73.5468       2.6269
    4495.5    1370.2284      78.4850      73.5468       2.6311
    4496.0    1370.3808      78.3660      73.5468       2.6331
    4496.5    1370.5332      78.4614      73.5470       2.6304
    4497.0    1370.6856      78.3402      73.6782       2.6188
    4497.5    1370.8380      77.7852      74.3115       2.6262
    4498.0    1370.9904      77.6946      74.4692       2.6299
    4498.5    1371.1428      78.3073      73.1271       2.6345
    4499.0    1371.2952      76.5460      71.7850       2.6425
    4499.5    1371.4476      74.3631      70.4429       2.6534
    4500.0    1371.6000      73.2372      69.1056       2.6641
    4500.5    1371.7524      73.8028      70.4701       2.6607
    4501.0    1371.9048      73.8028      72.0819       2.6573
    4501.5    1372.0572      73.8032      71.4482       2.6549
    4502.0    1372.2096      73.9829      71.1968       2.6612
    4502.5    1372.3620      75.3589      71.5705       2.6677
    4503.0    1372.5144      77.7805      71.9443       2.6741
    4503.5    1372.6668      81.2910      72.3181       2.6723
    4504.0    1372.8192      82.8894      72.6903       2.6615
    4504.5    1372.9716      80.5750      72.3909       2.6545
    4505.0    1373.1240      77.7140      71.9155       2.6503
    4505.5    1373.2764      76.3740      71.5482       2.6532
    4506.0    1373.4288      76.5966      71.6969       2.6569
    4506.5    1373.5812      77.6686      71.8453       2.6676
    4507.0    1373.7336      78.4821      71.9940       2.6755
    4507.5    1373.8860      78.3725      72.1427       2.6700
    4508.0    1374.0384      78.5609      72.2917       2.6581
    4508.5    1374.1908      79.9728      72.5600       2.6522
    4509.0    1374.3432      82.3673      72.8375       2.6590
    4509.5    1374.4956      80.7492      73.1150       2.6716
    4510.0    1374.6480      77.3136      73.3912       2.6677
    4510.5    1374.8004      73.7257      73.2129       2.6673
    4511.0    1374.9528      70.0547      73.0350       2.6702
    4511.5    1375.1052      72.1104      73.0605       2.6785
    4512.0    1375.2576      75.7758      73.4173       2.6859
    4512.5    1375.4100      78.1455      73.7739       2.6691
    4513.0    1375.5624      78.0665      73.9997       2.6542
    4513.5    1375.7148      76.4823      73.1163       2.6604
    4514.0    1375.8672      74.0857      72.2329       2.6591
    4514.5    1376.0196      74.0507      71.3495       2.6658
    4515.0    1376.1720      75.5357      70.4682       2.6707
