~VERSION INFORMATION
VERS.           2.0   :CWLS Log ASCII Standard - VERSION 2.0
WRAP.           NO    :One Line per depth step
PROD.  Schlumberger   :LAS Producer
PROG.  DLIS to ASCII 2.3                               :LAS Program name and version
CREA.        2024/09/17 09:54                          :LAS Creation date {YYYY/MM/DD hh:mm}
DLIS_CREA.  2024-Sep-16 13:59                          :DLIS Creation date and time {YYYY-MMM-DD hh:mm}
SOURCE.     JUT1_Composite-TOTAL.dlis                  :DLIS File Name
FILE-ID.     CSNOUT.001                                :File Identification Number
#--------------------------------------------------
~WELL INFORMATION
#MNEM.UNIT      DATA             DESCRIPTION
#---- ------ --------------   -----------------------------
STRT .F            7.0       :START DEPTH     
STOP .F        11220.0       :STOP DEPTH     
STEP .F            0.5       :STEP     
NULL .          -999.25      :NULL VALUE
COMP .                                                 :COMPANY
WELL .                                                 :WELL
FLD  .                                                 :FIELD
LOC  .                                                 :LOCATION
CNTY .                                                 :COUNTY
STAT .                                                 :STATE
CTRY .                                                 :COUNTRY
API  .                                                 :API NUMBER
UWI  .                                                 :UNIQUE WELL ID
DATE .                                                 :LOG DATE
SRVC .        Schlumberger                             :SERVICE COMPANY
LATI .DEG                                              :LATITUDE
LONG .DEG                                              :LONGITUDE
GDAT .                                                 :GeoDetic Datum
#-----------------------------------------------------------------------------
~PARAMETER INFORMATION
#MNEM.UNIT    VALUE                      DESCRIPTION
#---- -----   --------------------       ------------------------
RUN  .                                   :RUN NUMBER
PDAT .                                   :Permanent Datum
EPD  .                                   :Elevation of Permanent Datum above Mean Sea Level
LMF  .                                   :Logging Measured From (Name of Logging Elevation Reference)
APD  .                                   :Elevation of Depth Reference (LMF) above Permanent Datum
#-----------------------------------------------------------------------------
~CURVE INFORMATION
#MNEM.UNIT   API CODE                                  DESCRIPTION
#---- -----  --------                                  -----------------------
DEPT .F                                                :DEPTH (BOREHOLE) {F10.1}
DEPT .M                                                : {F13.4}
GR   .GAPI                                             : {F13.4}
DT   .US/F                                             : {F13.4}
RHOB .G/C3                                             : {F13.4}
#-----------------------------------------------------------------------------
# 
#     DEPT        DEPT         GR           DT           RHOB
#
~A  
# ...
    8960.5    2731.1604      97.1109      63.8290       2.6982
    8961.0    2731.3128      96.5606      64.1454       2.6901
    8961.5    2731.4652      95.8804      62.9915       2.6767
    8962.0    2731.6176      95.6064      62.0464       2.6619
    8962.5    2731.7700      98.8175      61.8076       2.6839
    8963.0    2731.9224     101.4838      61.5688       2.6898
    8963.5    2732.0748     101.3288      61.3308       2.6860
    8964.0    2732.2272     100.6123      61.0921       2.7134
    8964.5    2732.3796      98.9228      60.8545       2.7102
    8965.0    2732.5320      95.6636      61.4976       2.6964
    8965.5    2732.6844      92.3848      62.5029       2.6865
    8966.0    2732.8368      88.0683      63.6766       2.6887
    8966.5    2732.9892      86.0733      64.8502       2.6954
    8967.0    2733.1416      84.0797      66.0202       2.7070
    8967.5    2733.2939      82.5349      66.0274       2.6811
    8968.0    2733.4464      85.6017      65.6294       2.6430
    8968.5    2733.5988      89.6641      65.2314       2.6049
    8969.0    2733.7512      96.6750      64.8332       2.5732
    8969.5    2733.9036     103.6859      64.2157       2.5503
    8970.0    2734.0560     110.6894      63.5470       2.5280
    8970.5    2734.2084     114.3139      62.8802       2.5166
    8971.0    2734.3608     116.4367      62.9330       2.5081
    8971.5    2734.5132     118.2360      63.6068       2.4968
    8972.0    2734.6656     113.9878      63.6042       2.4855
    8972.5    2734.8180     102.7301      63.0876       2.4885
    8973.0    2734.9704      91.1866      63.6960       2.4830
    8973.5    2735.1228      76.2281      65.0428       2.4872
    8974.0    2735.2752      61.2832      66.3896       2.5183
    8974.5    2735.4276      53.3326      67.7362       2.5383
    8975.0    2735.5800      51.1283      69.0412       2.5460
    8975.5    2735.7324      51.2365      68.1031       2.5214
    8976.0    2735.8848      54.0207      67.1651       2.4986
    8976.5    2736.0372      61.4278      66.2300       2.5232
    8977.0    2736.1896      68.3807      65.2925       2.5410
    8977.5    2736.3420      73.4391      65.0297       2.5644
    8978.0    2736.4944      77.4972      65.6605       2.6142
    8978.5    2736.6468      80.0182      66.2912       2.6505
    8979.0    2736.7992      77.2530      66.9219       2.6832
    8979.5    2736.9516      71.8906      67.5479       2.7072
    8980.0    2737.1040      67.7133      66.4911       2.7163
    8980.5    2737.2563      65.0386      65.1233       2.7158
    8981.0    2737.4088      67.5047      63.7501       2.7103
    8981.5    2737.5612      74.1494      62.3788       2.7040
    8982.0    2737.7136      78.1980      62.3372       2.7013
    8982.5    2737.8660      82.2452      62.4263       2.7080
    8983.0    2738.0184      85.5948      62.2872       2.7164
    8983.5    2738.1708      89.4658      61.5950       2.7234
    8984.0    2738.3232      97.2666      60.9029       2.7303
    8984.5    2738.4756     106.5754      60.2330       2.7375
    8985.0    2738.6280     114.3532      60.8518       2.7440
    8985.5    2738.7804     105.7658      61.4727       2.7417
    8986.0    2738.9328      97.1820      62.0925       2.7272
    8986.5    2739.0852      91.5223      61.9021       2.7240
    8987.0    2739.2376      89.2785      61.4247       2.7440
    8987.5    2739.3900      88.8325      60.9472       2.7552
    8988.0    2739.5424      90.7187      60.4698       2.7563
    8988.5    2739.6948      91.3333      59.9924       2.7446
    8989.0    2739.8472      90.2852      59.5181       2.7286
    8989.5    2739.9996      87.3575      59.9598       2.7236
    8990.0    2740.1520      84.6663      60.5784       2.7318
    8990.5    2740.3044      83.7175      61.1969       2.7353
    8991.0    2740.4568      85.6311      61.8155       2.7335
    8991.5    2740.6092      88.9822      62.4340       2.7229
    8992.0    2740.7616      91.3271      63.0526       2.7027
    8992.5    2740.9140      93.6459      63.6695       2.6829
    8993.0    2741.0664      95.9618      63.7074       2.6777
    8993.5    2741.2188      97.3768      63.6208       2.6780
    8994.0    2741.3712      97.3685      63.9789       2.6878
    8994.5    2741.5236      98.2422      64.3369       2.7040
    8995.0    2741.6760      99.7313      64.6948       2.7147
    8995.5    2741.8284     100.2588      65.0528       2.7220
    8996.0    2741.9808     100.2525      65.4101       2.7293
    8996.5    2742.1332     101.8110      65.4562       2.7334
    8997.0    2742.2856     104.3374      65.0810       2.7239
    8997.5    2742.4380     104.9704      64.7057       2.7080
    8998.0    2742.5904     102.6400      64.3317       2.6844
    8998.5    2742.7428     100.0578      63.9569       2.7081
    8999.0    2742.8952      96.8160      64.1962       2.7319
    8999.5    2743.0476      93.6283      64.5542       2.7555
    9000.0    2743.2000      91.4278      64.9123       2.7798
    9000.5    2743.3524      90.3335      65.2677       2.8051
    9001.0    2743.5048      89.7869      64.4896       2.7735
    9001.5    2743.6572      90.5359      63.5944       2.7528
    9002.0    2743.8096      91.6921      62.6991       2.7575
    9002.5    2743.9620      93.4760      61.8067       2.7492
    9003.0    2744.1144      94.7015      60.9114       2.7408
    9003.5    2744.2668      91.5680      60.0176       2.7324
    9004.0    2744.4192      85.7975      60.2122       2.7257
    9004.5    2744.5716      80.0304      62.3905       2.7328
    9005.0    2744.7240      76.0034      64.5637       2.7289
    9005.5    2744.8764      73.7874      64.6199       2.7249
    9006.0    2745.0288      79.0302      63.9037       2.7357
    9006.5    2745.1812      84.9013      63.1899       2.7273
    9007.0    2745.3336      89.1263      62.4742       2.7118
    9007.5    2745.4860      90.5421      62.7379       2.6964
    9008.0    2745.6384      89.1799      63.2448       2.6975
    9008.5    2745.7908      87.8205      63.5232       2.6904
    9009.0    2745.9432      87.9960      62.7669       2.6867
    9009.5    2746.0956      88.8250      62.0753       2.6909
    9010.0    2746.2480      87.5769      61.6177       2.6991
    9010.5    2746.4004      85.2251      61.1601       2.7014
    9011.0    2746.5528      82.9352      60.7042       2.7019
    9011.5    2746.7052      82.0413      60.7406       2.6963
    9012.0    2746.8576      81.9156      62.0237       2.6809
    9012.5    2747.0100      82.3986      63.3049       2.6896
    9013.0    2747.1624      84.5883      63.3895       2.6954
    9013.5    2747.3148      88.3424      62.8643       2.7003
    9014.0    2747.4672      92.0877      62.3390       2.7060
    9014.5    2747.6196      92.4680      61.8138       2.7092
    9015.0    2747.7720      89.9282      61.2886       2.7028
    9015.5    2747.9244      87.0323      60.7651       2.6981
    9016.0    2748.0768      85.7630      60.4319       2.6950
    9016.5    2748.2292      88.6830      61.6497       2.6885
    9017.0    2748.3816      91.3492      62.8676       2.6942
    9017.5    2748.5340      92.9780      64.0821       2.7004
    9018.0    2748.6864      95.6439      63.6862       2.6962
    9018.5    2748.8388      96.2081      62.9700       2.7012
    9019.0    2748.9912      93.6691      62.2538       2.7103
    9019.5    2749.1436      89.4565      61.5400       2.6770
    9020.0    2749.2960      84.8589      60.8236       2.6414
    9020.5    2749.4484      82.2207      60.1079       2.6062
    9021.0    2749.6008      79.6967      59.9081       2.5710
    9021.5    2749.7532      77.9140      61.0207       2.5238
    9022.0    2749.9056      77.6413      61.6599       2.4557
    9022.5    2750.0580      78.7140      61.2719       2.3875
    9023.0    2750.2104      79.7885      60.8839       2.3323
    9023.5    2750.3628      81.5341      60.4959       2.2814
